{"version": 0.6, "generator": "Overpass API 0.7.56.1004 6cd3eaec", "osm3s": {"timestamp_osm_base": "2020-07-21T22:47:03Z", "copyright": "The data included in this document is from www.openstreetmap.org. The data is made available under ODbL."}, "elements": [{"type": "node", "id": 1743380087, "lat": 41.9536271, "lon": -87.7414366}, {"type": "node", "id": 1743380090, "lat": 41.9536279, "lon": -87.7413384}, {"type": "node", "id": 1743380204, "lat": 41.9537039, "lon": -87.7414414}, {"type": "node", "id": 1743380211, "lat": 41.9537162, "lon": -87.7414266}, {"type": "node", "id": 1743380496, "lat": 41.953955, "lon": -87.7414317}, {"type": "node", "id": 1743380498, "lat": 41.9539564, "lon": -87.7413446}, {"type": "node", "id": 1745050038, "lat": 41.9530466, "lon": -87.7510885}, {"type": "node", "id": 1745050041, "lat": 41.9530476, "lon": -87.751004}, {"type": "node", "id": 1745050117, "lat": 41.9531056, "lon": -87.7510788}, {"type": "node", "id": 1745050118, "lat": 41.9531056, "lon": -87.751088}, {"type": "node", "id": 1745050172, "lat": 41.9531523, "lon": -87.7510931}, {"type": "node", "id": 1745050175, "lat": 41.9531536, "lon": -87.7510802}, {"type": "node", "id": 1745050295, "lat": 41.9532374, "lon": -87.7510941}, {"type": "node", "id": 1745050296, "lat": 41.9532383, "lon": -87.7510059}, {"type": "node", "id": 1745518192, "lat": 41.9679588, "lon": -87.7606604}, {"type": "node", "id": 1745518238, "lat": 41.9679805, "lon": -87.7606161}, {"type": "node", "id": 1745518263, "lat": 41.9680095, "lon": -87.7607055}, {"type": "node", "id": 1745518390, "lat": 41.9680661, "lon": -87.7604443}, {"type": "node", "id": 1745518690, "lat": 41.9681171, "lon": -87.7604917}, {"type": "node", "id": 2262977450, "lat": 41.9533541, "lon": -87.7378643, "tags": {"amenity": "cafe", "cuisine": "coffee_shop", "name": "Starbucks", "operator": "Starbucks Corporation", "shop": "beverages", "source": "local_knowledge", "wifi": "free"}}, {"type": "node", "id": 2274089912, "lat": 41.9531743, "lon": -87.7510333, "tags": {"addr:city": "Chicago", "addr:housenumber": "4929", "addr:postcode": "60641", "addr:state": "IL", "addr:street": "West Irving Park Road", "amenity": "restaurant", "cuisine": "mexican;tacos", "name": "Tata's Tacos", "website": "tatastacos.com"}}, {"type": "node", "id": 2274089913, "lat": 41.9535803, "lon": -87.7508294, "tags": {"addr:city": "Chicago", "addr:street": "West Irving Park Road", "amenity": "restaurant", "cuisine": "brazilian;steak_house", "name": "Las Tablas"}}, {"type": "node", "id": 2274164962, "lat": 41.9535859, "lon": -87.7530918, "tags": {"addr:city": "Chicago", "addr:street": "West Irving Park Road", "amenity": "restaurant", "cuisine": "seafood", "name": "Frank's Shrimp House"}}, {"type": "node", "id": 2297677072, "lat": 41.9681478, "lon": -87.7439183, "tags": {"addr:city": "Chicago", "addr:housenumber": "4624", "addr:postcode": "60630", "addr:street": "West Lawrence Avenue", "amenity": "restaurant", "cuisine": "middle_eastern", "name": "Hala In", "phone": "773-930-3612", "website": "http://www.hala-in.com/"}}, {"type": "node", "id": 2397800670, "lat": 41.9650696, "lon": -87.7444297, "tags": {"addr:city": "Chicago", "addr:housename": "Irish American Heritage Center", "addr:housenumber": "4626", "addr:postcode": "60630", "addr:street": "North Knox Avenue", "amenity": "bar", "name": "5th Province"}}, {"type": "node", "id": 3988701726, "lat": 41.9540976, "lon": -87.7487651, "tags": {"amenity": "restaurant", "name": "Community Tavern"}}, {"type": "node", "id": 4087337669, "lat": 41.9547129, "lon": -87.7498426, "tags": {"amenity": "restaurant", "name": "Subway"}}, {"type": "node", "id": 4087337679, "lat": 41.9547429, "lon": -87.7490264, "tags": {"amenity": "restaurant", "name": "Lomas Verdes"}}, {"type": "node", "id": 4090881252, "lat": 41.9536254, "lon": -87.7503536, "tags": {"amenity": "restaurant", "cuisine": "asian", "name": "Ysabel\u2019s Grill"}}, {"type": "node", "id": 4269213208, "lat": 41.9658908, "lon": -87.7598708, "tags": {"addr:city": "Chicago", "addr:housenumber": "4716", "addr:postcode": "60630", "addr:state": "IL", "addr:street": "North Milwaukee Avenue", "amenity": "restaurant", "cuisine": "chinese", "name": "China Star"}}, {"type": "node", "id": 6261302022, "lat": 41.9572465, "lon": -87.7517861, "tags": {"addr:city": "Chicago", "addr:housenumber": "4208", "addr:postcode": "60641", "addr:state": "IL", "addr:street": "North Milwaukee Avenue", "amenity": "cafe", "name": "Antojitos Colombianos", "phone": "+1-773-685-2100"}}, {"type": "node", "id": 6263888085, "lat": 41.9611391, "lon": -87.7550894, "tags": {"addr:city": "Chicago", "addr:housenumber": "4416", "addr:postcode": "60630", "addr:state": "IL", "addr:street": "North Milwaukee Avenue", "amenity": "bar", "name": "Babe\u2019s On Milwaukee", "phone": "+1-773-545-3137"}}, {"type": "node", "id": 6282669896, "lat": 41.9541352, "lon": -87.7475371, "tags": {"addr:city": "Chicago", "addr:housenumber": "4018", "addr:postcode": "60641", "addr:state": "IL", "addr:street": "North Cicero Avenue", "amenity": "cafe", "name": "City News Cafe", "phone": "+1-773-545-7377", "website": "http://citynewsstand.com/"}}, {"type": "node", "id": 6284438638, "lat": 41.9535366, "lon": -87.7549131, "tags": {"addr:city": "Chicago", "addr:housenumber": "5100", "addr:postcode": "60641", "addr:state": "IL", "addr:street": "West Irving Park Road", "amenity": "bar", "name": "Di\u2019s Den", "phone": "+1-773-736-7170", "website": "http://www.bestbarchicago.com/"}}, {"type": "node", "id": 6294627870, "lat": 41.9604315, "lon": -87.7541054, "tags": {"addr:city": "Chicago", "addr:housenumber": "4359", "addr:postcode": "60630", "addr:state": "IL", "addr:street": "North Milwaukee Avenue", "amenity": "bar", "name": "Hops & Barley\u2019s", "phone": "+1-773-286-7415", "website": "https://www.hopsandbarleychicago.com/"}}, {"type": "node", "id": 6297835323, "lat": 41.9609937, "lon": -87.7394333, "tags": {"addr:city": "Chicago", "addr:housenumber": "4424", "addr:postcode": "60641", "addr:state": "IL", "addr:street": "West Montrose Avenue", "amenity": "bar", "name": "Sidekicks", "phone": "+1-773-545-6212", "website": "http://sidekicks-chicago.com/"}}, {"type": "node", "id": 6301874985, "lat": 41.9708243, "lon": -87.7440371, "tags": {"addr:city": "Chicago", "addr:housenumber": "4953", "addr:postcode": "60630", "addr:state": "IL", "addr:street": "North Elston Avenue", "amenity": "bar", "name": "Sunnyday Tap", "phone": "+1-773-725-5080"}}, {"type": "node", "id": 6322565621, "lat": 41.9537514, "lon": -87.7366287, "tags": {"addr:city": "Chicago", "addr:housenumber": "4328", "addr:postcode": "60641", "addr:state": "IL", "addr:street": "West Irving Park Road", "amenity": "bar", "name": "McNamara\u2019s", "phone": "+1-77-725-1800", "website": "http://www.mcnamaras.com/"}}, {"type": "node", "id": 6323951051, "lat": 41.960549, "lon": -87.73934, "tags": {"addr:city": "Chicago", "addr:housenumber": "4419", "addr:postcode": "60641", "addr:state": "IL", "addr:street": "West Montrose Avenue", "amenity": "bar", "name": "Old Irving Brewing", "phone": "+1-773-916-6421", "website": "https://www.oldirvingbrewing.com/"}}, {"type": "node", "id": 6324375286, "lat": 41.9604534, "lon": -87.7459731, "tags": {"addr:city": "Chicago", "addr:housenumber": "4727", "addr:postcode": "60641", "addr:state": "IL", "addr:street": "West Montrose Avenue", "amenity": "bar", "name": "Lake Effect Brewing Company", "phone": "+1-312-523-5141", "website": "http://www.lakeeffectbrewing.com/"}}, {"type": "node", "id": 6324500111, "lat": 41.9631548, "lon": -87.7569774, "tags": {"addr:city": "Chicago", "addr:housenumber": "4530", "addr:postcode": "60630", "addr:state": "IL", "addr:street": "North Milwaukee Avenue", "amenity": "bar", "name": "The Windsor Tavern", "phone": "+1-773-736-3400"}}, {"type": "node", "id": 7121409342, "lat": 41.9586713, "lon": -87.7522752, "tags": {"addr:city": "Chicago", "addr:housenumber": "4263", "addr:postcode": "60641", "addr:state": "IL", "addr:street": "North Milwaukee Avenue", "amenity": "restaurant", "cuisine": "mexican;tacos", "name": "Simon Tacos", "phone": "773-930-3273"}}, {"type": "way", "id": 162452435, "nodes": [1743380204, 1743380211, 1743380496, 1743380498, 1743380090, 1743380087, 1743380204], "tags": {"addr:city": "Chicago", "addr:housenumber": "4520", "addr:state": "IL", "addr:street": "West Irving Park Road", "addr:street:name": "Irving Park", "addr:street:prefix": "West", "addr:street:type": "Road", "amenity": "restaurant", "building": "yes", "building:levels": "2", "chicago:building_id": "846310", "cuisine": "pizza", "name": "Chicago's Pizza"}}, {"type": "way", "id": 162642513, "nodes": [1745050038, 1745050118, 1745050117, 1745050175, 1745050172, 1745050295, 1745050296, 1745050041, 1745050038], "tags": {"addr:housenumber": "4929", "addr:street": "West Irving Park Road", "addr:street:name": "Irving Park", "addr:street:prefix": "West", "addr:street:type": "Road", "amenity": "restaurant", "building": "yes", "building:levels": "2", "chicago:building_id": "156020"}}, {"type": "way", "id": 162704482, "nodes": [1745518263, 1745518690, 1745518390, 1745518238, 1745518192, 1745518263], "tags": {"addr:city": "Chicago", "addr:housenumber": "4801", "addr:postcode": "60630", "addr:state": "IL", "addr:street": "North Milwaukee Avenue", "addr:street:name": "Milwaukee", "addr:street:prefix": "North", "addr:street:type": "Avenue", "amenity": "cafe", "building": "yes", "building:levels": "1", "chicago:building_id": "844615", "cuisine": "coffee_shop", "name": "Costa Cafe"}}]}