{"version": 0.6, "generator": "Overpass API 0.7.56.3 eb200aeb", "osm3s": {"timestamp_osm_base": "2020-07-21T20:10:04Z", "copyright": "The data included in this document is from www.openstreetmap.org. The data is made available under ODbL."}, "elements": [{"type": "node", "id": 1750428192, "lat": 41.9873879, "lon": -87.7900466}, {"type": "node", "id": 1750428299, "lat": 41.9874252, "lon": -87.7901125}, {"type": "node", "id": 1750428620, "lat": 41.9875572, "lon": -87.7898742}, {"type": "node", "id": 1750428737, "lat": 41.9875946, "lon": -87.78994}, {"type": "node", "id": 4107862514, "lat": 42.0012591, "lon": -87.7933698}, {"type": "node", "id": 4107862515, "lat": 42.001069, "lon": -87.7933703}, {"type": "node", "id": 4107862516, "lat": 42.0010689, "lon": -87.7932841}, {"type": "node", "id": 4107862517, "lat": 42.001259, "lon": -87.7932837}, {"type": "node", "id": 6314798933, "lat": 41.993437, "lon": -87.8013362, "tags": {"addr:city": "Chicago", "addr:housenumber": "6158", "addr:postcode": "60631", "addr:state": "IL", "addr:street": "North Northwest Highway", "amenity": "bar", "name": "Iron Horse Ale House", "phone": "+1-773-763-1800", "website": "https://www.ironhorsechicago.com/"}}, {"type": "node", "id": 6704751032, "lat": 41.9962843, "lon": -87.8063208, "tags": {"addr:city": "Chicago", "addr:housenumber": "6332", "addr:postcode": "60631", "addr:state": "IL", "addr:street": "North Harlem Avenue", "amenity": "cafe", "brand": "Starbucks", "brand:wikidata": "Q37158", "brand:wikipedia": "en:Starbucks", "cuisine": "coffee_shop", "drive_through": "yes", "name": "Starbucks", "official_name": "Starbucks Coffee", "outdoor_seating": "yes", "takeaway": "yes"}}, {"type": "way", "id": 163325629, "nodes": [1750428192, 1750428299, 1750428737, 1750428620, 1750428192], "tags": {"addr:city": "Chicago", "addr:housenumber": "5823", "addr:postcode": "60631", "addr:state": "IL", "addr:street": "North Northwest Highway", "addr:street:name": "Northwest", "addr:street:prefix": "North", "addr:street:type": "Highway", "amenity": "bar", "building": "yes", "building:levels": "1", "chicago:building_id": "49112", "name": "Little Bar", "phone": "+1-773-993-0660"}}, {"type": "way", "id": 408877324, "nodes": [4107862514, 4107862515, 4107862516, 4107862517, 4107862514], "tags": {"addr:city": "Niles", "addr:housenumber": "6636", "addr:postcode": "60714", "addr:state": "IL", "addr:street": "West Albion Avenue", "amenity": "bar", "building": "yes", "name": "Yacko's", "operator": "Steve and Irene"}}]}