{"version": 0.6, "generator": "Overpass API 0.7.56.1004 6cd3eaec", "osm3s": {"timestamp_osm_base": "2020-07-22T03:25:03Z", "copyright": "The data included in this document is from www.openstreetmap.org. The data is made available under ODbL."}, "elements": [{"type": "node", "id": 370884874, "lat": 41.9501029, "lon": -87.6590892, "tags": {"addr:city": "Chicago", "addr:housenumber": "3740", "addr:postcode": "60613", "addr:state": "IL", "addr:street": "North Clark Street", "amenity": "bar", "name": "The Ginger Man Tavern", "phone": "+1-773-549-2050", "wifi": "free"}}, {"type": "node", "id": 903249436, "lat": 41.9492099, "lon": -87.6497345, "tags": {"amenity": "restaurant", "cuisine": "american", "name": "Kit Kat Club"}}, {"type": "node", "id": 949089361, "lat": 41.9499295, "lon": -87.6490719, "tags": {"amenity": "bar", "name": "Charlie's Chicago"}}, {"type": "node", "id": 1239986384, "lat": 41.9501152, "lon": -87.649398, "tags": {"amenity": "bar", "name": "North End"}}, {"type": "node", "id": 1239986677, "lat": 41.9499795, "lon": -87.6494034, "tags": {"amenity": "bar", "name": "Bobby Love's"}}, {"type": "node", "id": 1700860713, "lat": 41.958567, "lon": -87.6534433, "tags": {"amenity": "bar", "name": "Bar On Buena"}}, {"type": "node", "id": 1720016522, "lat": 41.9490961, "lon": -87.6582546, "tags": {"amenity": "restaurant", "cuisine": "burger", "name": "Rockit Burger Bar", "wifi": "no"}}, {"type": "node", "id": 2204135999, "lat": 41.9509993, "lon": -87.6499852}, {"type": "node", "id": 2204136014, "lat": 41.9510034, "lon": -87.6497536}, {"type": "node", "id": 2204136027, "lat": 41.9510083, "lon": -87.6501285}, {"type": "node", "id": 2204136034, "lat": 41.9510102, "lon": -87.6499851}, {"type": "node", "id": 2204136136, "lat": 41.9510797, "lon": -87.6501295}, {"type": "node", "id": 2204136138, "lat": 41.9510857, "lon": -87.6497545}, {"type": "node", "id": 2204138385, "lat": 41.9521128, "lon": -87.6416191}, {"type": "node", "id": 2204138496, "lat": 41.9521595, "lon": -87.6415833}, {"type": "node", "id": 2204138516, "lat": 41.95217, "lon": -87.6416082}, {"type": "node", "id": 2204138542, "lat": 41.952184, "lon": -87.6415975}, {"type": "node", "id": 2204138555, "lat": 41.9521947, "lon": -87.6418128}, {"type": "node", "id": 2204138587, "lat": 41.9522086, "lon": -87.6418022}, {"type": "node", "id": 2204138628, "lat": 41.9522185, "lon": -87.6418257}, {"type": "node", "id": 2204138719, "lat": 41.9522654, "lon": -87.6417899}, {"type": "node", "id": 2204141516, "lat": 41.9542939, "lon": -87.6553395}, {"type": "node", "id": 2204141519, "lat": 41.9542963, "lon": -87.6552807}, {"type": "node", "id": 2204141590, "lat": 41.954358, "lon": -87.6552855}, {"type": "node", "id": 2204141593, "lat": 41.9543694, "lon": -87.6553461}, {"type": "node", "id": 2204141595, "lat": 41.9543718, "lon": -87.6552964}, {"type": "node", "id": 2204571338, "lat": 41.9585321, "lon": -87.6536806}, {"type": "node", "id": 2204571339, "lat": 41.9585321, "lon": -87.6536898}, {"type": "node", "id": 2204571340, "lat": 41.9585337, "lon": -87.6532633}, {"type": "node", "id": 2204571342, "lat": 41.958535, "lon": -87.6532504}, {"type": "node", "id": 2204571344, "lat": 41.9585351, "lon": -87.6532688}, {"type": "node", "id": 2204571348, "lat": 41.9585377, "lon": -87.6536971}, {"type": "node", "id": 2204571349, "lat": 41.9585391, "lon": -87.6532393}, {"type": "node", "id": 2204571351, "lat": 41.9585432, "lon": -87.6536988}, {"type": "node", "id": 2204571352, "lat": 41.9585459, "lon": -87.6536988}, {"type": "node", "id": 2204571353, "lat": 41.9585473, "lon": -87.6532319}, {"type": "node", "id": 2204571359, "lat": 41.9585569, "lon": -87.6532281}, {"type": "node", "id": 2204571363, "lat": 41.9585665, "lon": -87.6532317}, {"type": "node", "id": 2204571534, "lat": 41.9586557, "lon": -87.6536995}, {"type": "node", "id": 2204571535, "lat": 41.958656, "lon": -87.6535193}, {"type": "node", "id": 2204571929, "lat": 41.9589411, "lon": -87.6536983}, {"type": "node", "id": 2204571938, "lat": 41.9589467, "lon": -87.6534813}, {"type": "node", "id": 2761669109, "lat": 41.9511963, "lon": -87.659943, "tags": {"amenity": "restaurant", "name": "Uncommon Ground", "website": "https://www.uncommonground.com/"}}, {"type": "node", "id": 2868859570, "lat": 41.9579418, "lon": -87.6496329, "tags": {"addr:city": "Chicago", "addr:housenumber": "4181", "addr:postcode": "60613", "addr:state": "IL", "addr:street": "North Clarendon Avenue", "amenity": "cafe", "internet_access": "yes", "name": "Dollop Coffee", "opening_hours": "07:00-20:00", "phone": "+1-773-360-1366", "smoking": "outside", "website": "https://dollop.coffee/"}}, {"type": "node", "id": 4366366759, "lat": 41.9581265, "lon": -87.649645, "tags": {"addr:city": "Chicago", "addr:country": "US", "addr:housenumber": "4185", "addr:postcode": "60613", "addr:state": "IL", "addr:street": "North Clarendon Avenue", "amenity": "restaurant", "cuisine": "pizza", "name": "Bojono's Pizzeria"}}, {"type": "node", "id": 4390711391, "lat": 41.9492375, "lon": -87.6491974, "tags": {"amenity": "restaurant", "name": "Panino's Pizzeria"}}, {"type": "node", "id": 4606797791, "lat": 41.9546187, "lon": -87.6547349, "tags": {"addr:city": "Chicago", "addr:country": "US", "addr:housenumber": "4000", "addr:postcode": "60613", "addr:state": "IL", "addr:street": "North Sheridan Road", "amenity": "bar", "name": "Holiday Club", "phone": "+1-773-348-9600", "website": "http://holidayclubchicago.com", "wheelchair": "yes"}}, {"type": "node", "id": 4726187690, "lat": 41.9493082, "lon": -87.6584942, "tags": {"addr:city": "Chicago", "addr:housenumber": "3710", "addr:postcode": "60613", "addr:state": "IL", "addr:street": "North Clark Street", "amenity": "restaurant", "cuisine": "american", "name": "Yak-Zies Wrigleyville", "opening_hours": "Mo-Su 10:00-02:00"}}, {"type": "node", "id": 5356226639, "lat": 41.9568479, "lon": -87.6518177, "tags": {"addr:city": "Chicago", "addr:housenumber": "4091", "addr:postcode": "60613", "addr:state": "IL", "addr:street": "North Broadway", "amenity": "restaurant", "cuisine": "pizza;wings;italian_beef;burger;salad", "delivery": "yes", "name": "Michael's Original PIzzeria & Tavern", "opening_hours": "Mo-Fr 11:30-02:00; Sa 11:30-03:00; Su 11:30-00:00", "phone": "773-929-4149", "smoking": "outside", "takeaway": "yes", "website": "https://www.michaelspizzachicago.com/"}}, {"type": "node", "id": 5358482234, "lat": 41.958331, "lon": -87.6527624, "tags": {"addr:city": "Chicago", "addr:housenumber": "4155", "addr:postcode": "60613", "addr:state": "IL", "addr:street": "North Broadway", "amenity": "cafe", "name": "Klein's Bakery & Cafe", "phone": "+1-773-857-0525", "website": "https://www.kleinsbakerycafe.com/"}}, {"type": "node", "id": 5559919114, "lat": 41.9655203, "lon": -87.6586425, "tags": {"addr:city": "Chicago", "addr:housenumber": "1122", "addr:postcode": "60640", "addr:state": "IL", "addr:street": "West Wilson Avenue", "amenity": "cafe", "cuisine": "donut", "name": "Uptown Donuts"}}, {"type": "node", "id": 5916831322, "lat": 41.9650574, "lon": -87.6538162, "tags": {"addr:city": "Chicago", "addr:housenumber": "93", "addr:postcode": "60640", "addr:state": "IL", "addr:street": "West Wilson Avenue", "amenity": "cafe", "name": "Everybody's Coffee", "phone": "+1-773-303-6220", "website": "https://everybodyscoffee.com/"}}, {"type": "node", "id": 6269046562, "lat": 41.9668838, "lon": -87.6587377, "tags": {"addr:city": "Chicago", "addr:housenumber": "4663", "addr:postcode": "60640", "addr:state": "IL", "addr:street": "North Broadway", "amenity": "restaurant", "name": "Brass Heart", "phone": "+1-773-564-9680", "website": "https://brassheartrestaurant.com/"}}, {"type": "node", "id": 6283237814, "lat": 41.9504868, "lon": -87.6494162, "tags": {"addr:city": "Chicago", "addr:housenumber": "3752", "addr:postcode": "60613", "addr:state": "IL", "addr:street": "North Broadway", "amenity": "cafe", "name": "Coffee Tree & Tea Leaves", "phone": "+1-773-871-7818", "website": "http://www.coffeetreetealeaves.com/"}}, {"type": "node", "id": 6283857177, "lat": 41.9543869, "lon": -87.6526849, "tags": {"addr:city": "Chicago", "addr:housenumber": "909", "addr:postcode": "60613", "addr:state": "IL", "addr:street": "West Irving Park Road", "amenity": "cafe", "cuisine": "coffee_shop", "name": "Coronas Coffee Shop", "phone": "+1-773-529-1886", "website": "https://www.coronascoffeeshop.com/"}}, {"type": "node", "id": 6284798616, "lat": 41.961622, "lon": -87.6557775, "tags": {"addr:city": "Chicago", "addr:housenumber": "1021", "addr:postcode": "60613", "addr:state": "IL", "addr:street": "West Montrose Avenue", "amenity": "bar", "name": "Driftwood", "phone": "+1-847-962-8906"}}, {"type": "node", "id": 6284801425, "lat": 41.963009, "lon": -87.6555863, "tags": {"addr:city": "Chicago", "addr:housenumber": "4443", "addr:postcode": "60640", "addr:state": "IL", "addr:street": "North Broadway", "amenity": "bar", "name": "Drink and Ink", "phone": "+1-773-944-5000"}}, {"type": "node", "id": 6286620875, "lat": 41.9655242, "lon": -87.6605853, "tags": {"addr:city": "Chicago", "addr:housenumber": "1224", "addr:postcode": "60640", "addr:state": "IL", "addr:street": "West Wilson Avenue", "amenity": "cafe", "name": "Emerald City Coffee", "phone": "+1-773-944-0227", "website": "https://emeraldcitychicago.com/"}}, {"type": "node", "id": 6286621640, "lat": 41.9537201, "lon": -87.6547576, "tags": {"addr:city": "Chicago", "addr:housenumber": "3938", "addr:postcode": "60613", "addr:state": "IL", "addr:street": "North Sheridan Road", "amenity": "cafe", "name": "Emerald City Coffee", "phone": "+1-773-857-3041", "website": "https://emeraldcitychicago.com/"}}, {"type": "node", "id": 6287095694, "lat": 41.9494171, "lon": -87.6483014, "tags": {"addr:city": "Chicago", "addr:housenumber": "3701", "addr:postcode": "60613", "addr:state": "IL", "addr:street": "North Broadway", "amenity": "bar", "name": "F. O\u2019Mahony\u2019s", "phone": "+1-773-549-0226", "website": "http://fomahonys.com/"}}, {"type": "node", "id": 6291660216, "lat": 41.9660702, "lon": -87.6576166, "tags": {"addr:city": "Chicago", "addr:housenumber": "4621", "addr:postcode": "60640", "addr:state": "IL", "addr:street": "North Broadway", "amenity": "restaurant", "name": "Futatsuki Ramen", "phone": "+1-773-561-9999"}}, {"type": "node", "id": 6298884587, "lat": 41.9498354, "lon": -87.6589084, "tags": {"addr:city": "Chicago", "addr:housenumber": "3730", "addr:postcode": "60613", "addr:state": "IL", "addr:street": "North Clark Street", "amenity": "bar", "name": "Smart Bar", "phone": "+1-773-549-4140", "website": "http://smartbarchicago.com/"}}, {"type": "node", "id": 6300823284, "lat": 41.9620227, "lon": -87.6518351, "tags": {"addr:city": "Chicago", "addr:housenumber": "844", "addr:postcode": "60613", "addr:state": "IL", "addr:street": "West Montrose Avenue", "amenity": "bar", "name": "The Reservoir", "phone": "+1-773-275-4000", "website": "http://reservoirchicago.com/"}}, {"type": "node", "id": 6320654592, "lat": 41.9620687, "lon": -87.6517048, "tags": {"addr:city": "Chicago", "addr:housenumber": "838", "addr:postcode": "60613", "addr:state": "IL", "addr:street": "West Montrose Avenue", "amenity": "restaurant", "name": "Loving Heart", "phone": "+1-773-561-5399", "website": "http://www.lovingheartvegan.com/"}}, {"type": "node", "id": 6323134767, "lat": 41.9655042, "lon": -87.6592494, "tags": {"addr:city": "Chicago", "addr:housenumber": "1140", "addr:postcode": "60640", "addr:state": "IL", "addr:street": "West Wilson Avenue", "amenity": "bar", "name": "Nick\u2019s on Wilson", "phone": "+1-773-681-0705"}}, {"type": "node", "id": 6326510071, "lat": 41.9603226, "lon": -87.6474929, "tags": {"addr:city": "Chicago", "addr:housenumber": "4250", "addr:postcode": "60613", "addr:state": "IL", "addr:street": "North Marine Drive", "amenity": "cafe", "name": "Le Cafe", "phone": "+1-773-857-0224", "website": "http://lecafechicago.com/"}}, {"type": "node", "id": 7161087636, "lat": 41.9506255, "lon": -87.6430859, "tags": {"addr:city": "Chicago", "addr:housenumber": "3650", "addr:street": "North Recreation Drive", "amenity": "restaurant", "cuisine": "mexican", "name": "Two Wheel Tacos", "opening_hours": "\"seasonal\""}}, {"type": "node", "id": 7387891262, "lat": 41.9648383, "lon": -87.6568564, "tags": {"addr:city": "Chicago", "addr:housenumber": "4543", "addr:postcode": "60640", "addr:state": "IL", "addr:street": "North Broadway", "amenity": "restaurant", "cuisine": "ethiopian", "name": "Selam Ethiopian Kitchen", "website": "https://www.selamkitchen.com/"}}, {"type": "node", "id": 7393995558, "lat": 41.9526131, "lon": -87.6494803, "tags": {"amenity": "cafe", "brand": "Starbucks", "brand:wikidata": "Q37158", "brand:wikipedia": "en:Starbucks", "cuisine": "coffee_shop", "name": "Starbucks", "official_name": "Starbucks Coffee", "takeaway": "yes"}}, {"type": "way", "id": 210328565, "nodes": [2204141516, 2204141593, 2204141595, 2204141590, 2204141519, 2204141516], "tags": {"addr:housenumber": "1017", "addr:street": "West Irving Park Road", "addr:street:name": "Irving Park", "addr:street:prefix": "West", "addr:street:type": "Road", "amenity": "restaurant", "building": "yes", "building:levels": "1", "chicago:building_id": "151584", "name": "Byron's Hot Dogs"}}, {"type": "way", "id": 210330261, "nodes": [2204135999, 2204136034, 2204136027, 2204136136, 2204136138, 2204136014, 2204135999], "tags": {"addr:city": "Chicago", "addr:housenumber": "3760", "addr:postcode": "60613", "addr:state": "IL", "addr:street": "North Broadway", "addr:street:name": "Broadway", "addr:street:prefix": "North", "amenity": "restaurant", "brand": "IHOP", "brand:wikidata": "Q1185675", "brand:wikipedia": "en:IHOP", "building": "yes", "building:levels": "1", "chicago:building_id": "161117", "cuisine": "breakfast;pancake", "name": "IHOP"}}, {"type": "way", "id": 210331436, "nodes": [2204138385, 2204138555, 2204138587, 2204138628, 2204138719, 2204138542, 2204138516, 2204138496, 2204138385], "tags": {"amenity": "cafe", "building": "yes", "chicago:building_id": "156953", "name": "Clock Tower Cafe", "phone": "+1-312-742-7930-X3", "website": "http://www.clocktowercafechicago.com/"}}, {"type": "way", "id": 210381773, "nodes": [2204571338, 2204571339, 2204571348, 2204571351, 2204571352, 2204571534, 2204571535, 2204571929, 2204571938, 2204571363, 2204571359, 2204571353, 2204571349, 2204571342, 2204571340, 2204571344, 2204571338], "tags": {"addr:city": "Chicago", "addr:housenumber": "910", "addr:postcode": "60613", "addr:state": "IL", "addr:street": "West Buena Avenue", "addr:street:name": "Broadway", "addr:street:prefix": "North", "amenity": "bar", "building": "yes", "chicago:building_id": "136234", "name": "Bar on Buena", "phone": "+1-773-525-8665", "website": "https://www.baronbuena.com/"}}]}