{"version": 0.6, "generator": "Overpass API 0.7.56.1004 6cd3eaec", "osm3s": {"timestamp_osm_base": "2020-07-22T05:11:03Z", "copyright": "The data included in this document is from www.openstreetmap.org. The data is made available under ODbL."}, "elements": [{"type": "node", "id": 2196075584, "lat": 41.8954365, "lon": -87.699173}, {"type": "node", "id": 2196075681, "lat": 41.8954824, "lon": -87.6992901}, {"type": "node", "id": 2196075688, "lat": 41.8954879, "lon": -87.6992956}, {"type": "node", "id": 2196075692, "lat": 41.8954907, "lon": -87.6992974}, {"type": "node", "id": 2196075694, "lat": 41.8954948, "lon": -87.6992992}, {"type": "node", "id": 2196075696, "lat": 41.8954975, "lon": -87.6992992}, {"type": "node", "id": 2196075709, "lat": 41.8955016, "lon": -87.6992973}, {"type": "node", "id": 2196075714, "lat": 41.8955057, "lon": -87.6992936}, {"type": "node", "id": 2196075716, "lat": 41.8955071, "lon": -87.6992899}, {"type": "node", "id": 2196075719, "lat": 41.8955084, "lon": -87.6992862}, {"type": "node", "id": 2196075725, "lat": 41.8955112, "lon": -87.6992807}, {"type": "node", "id": 2196075733, "lat": 41.895512, "lon": -87.699176}, {"type": "node", "id": 5609856421, "lat": 41.8873854, "lon": -87.7074544, "tags": {"amenity": "cafe", "name": "Bridge Cafe"}}, {"type": "node", "id": 6282450641, "lat": 41.8952918, "lon": -87.7142823, "tags": {"addr:city": "Chicago", "addr:housenumber": "3507", "addr:postcode": "60651", "addr:state": "IL", "addr:street": "West Chicago Avenue", "amenity": "cafe", "cuisine": "coffee_shop", "name": "Chicago Fitness & Nutrition", "phone": "+1-773-704-9447"}}, {"type": "node", "id": 6284447675, "lat": 41.899387, "lon": -87.6995161, "tags": {"addr:city": "Chicago", "addr:housenumber": "1000", "addr:postcode": "60622", "addr:state": "IL", "addr:street": "North Francisco Avenue", "amenity": "restaurant", "name": "Diana\u2019s Food & Restaurant", "phone": "+1-773-235-9218"}}, {"type": "node", "id": 6284761828, "lat": 41.895383, "lon": -87.7081531, "tags": {"addr:city": "Chicago", "addr:housenumber": "3241", "addr:postcode": "60651", "addr:state": "IL", "addr:street": "West Chicago Avenue", "amenity": "bar", "name": "Dr J\u2019s Place", "phone": "+1-773-826-2140"}}, {"type": "node", "id": 6301028526, "lat": 41.8920421, "lon": -87.70669, "tags": {"addr:city": "Chicago", "addr:housenumber": "600", "addr:postcode": "60612", "addr:state": "IL", "addr:street": "North Kedzie Avenue", "amenity": "bar", "name": "Rooster\u2019s Place", "phone": "+1-773-678-0739"}}, {"type": "node", "id": 6324081032, "lat": 41.8956915, "lon": -87.7143237, "tags": {"addr:city": "Chicago", "addr:housenumber": "3506", "addr:postcode": "60651", "addr:state": "IL", "addr:street": "West Chicago Avenue", "amenity": "cafe", "name": "Oooh Wee! Sweet Tea", "website": "https://www.ooohweesweettea.com/locations"}}, {"type": "node", "id": 6397121374, "lat": 41.8957939, "lon": -87.6990103, "tags": {"addr:city": "Chicago", "addr:housenumber": "2858", "addr:postcode": "60622", "addr:state": "IL", "addr:street": "West Chicago Avenue", "amenity": "restaurant", "cuisine": "american;hotdog;hot_dog", "name": "Lola's Coney Island", "opening_hours": "Mo-Sa 11:00-21:00; Su 12:00-18:00", "phone": "+1-773-687-9459", "website": "https://www.lolasconeyisland.com/"}}, {"type": "way", "id": 209391822, "nodes": [2196075584, 2196075681, 2196075688, 2196075692, 2196075694, 2196075696, 2196075709, 2196075714, 2196075716, 2196075719, 2196075725, 2196075733, 2196075584], "tags": {"addr:city": "Chicago", "addr:housenumber": "2859", "addr:state": "IL", "addr:street": "West Chicago Avenue", "addr:street:name": "Chicago", "addr:street:prefix": "West", "amenity": "restaurant", "building": "yes", "chicago:building_id": "341120", "name": "Taco el Jalisciense", "phone": "+1-773-235-2859"}}]}