{"version": 0.6, "generator": "Overpass API 0.7.56.1004 6cd3eaec", "osm3s": {"timestamp_osm_base": "2020-07-22T01:35:03Z", "copyright": "The data included in this document is from www.openstreetmap.org. The data is made available under ODbL."}, "elements": [{"type": "node", "id": 5828347295, "lat": 41.9239344, "lon": -87.7923971, "tags": {"addr:city": "Chicago", "addr:housenumber": "6656", "addr:postcode": "60707", "addr:state": "IL", "addr:street": "West Grand Avenue", "amenity": "restaurant", "brand": "Applebee's Neighborhood Grill & Bar", "brand:wikidata": "Q621532", "brand:wikipedia": "en:Applebee's", "cuisine": "american", "name": "Applebee's", "official_name": "Applebee's Neighborhood Grill & Bar"}}, {"type": "node", "id": 6267314291, "lat": 41.9232718, "lon": -87.8047185, "tags": {"addr:city": "Chicago", "addr:housenumber": "2362", "addr:postcode": "60707", "addr:state": "IL", "addr:street": "North Neva Avenue", "amenity": "bar", "name": "Bistro Grand", "phone": "+1-773-385-9688"}}, {"type": "node", "id": 6287017010, "lat": 41.9236385, "lon": -87.8054365, "tags": {"addr:city": "Chicago", "addr:housenumber": "7173", "addr:postcode": "60707", "addr:state": "IL", "addr:street": "West Grand Avenue", "amenity": "bar", "name": "Eva\u2019s Sports Bar", "phone": "+1-773-622-3556"}}, {"type": "node", "id": 6297781937, "lat": 41.9296844, "lon": -87.8061595, "tags": {"addr:city": "Chicago", "addr:housenumber": "2723", "addr:postcode": "60707", "addr:state": "IL", "addr:street": "North Harlem Avenue", "amenity": "cafe", "name": "I Due Mondi", "phone": "+1-773-237-3606"}}, {"type": "node", "id": 6324019271, "lat": 41.9183237, "lon": -87.8062711, "tags": {"addr:city": "Elmwood Park", "addr:housenumber": "2104", "addr:postcode": "60707", "addr:state": "IL", "addr:street": "North Harlem Avenue", "amenity": "bar", "name": "On The Rocks", "phone": "+1-708-456-9813"}}, {"type": "node", "id": 7367133475, "lat": 41.9127879, "lon": -87.8051935, "tags": {"addr:city": "Chicago", "addr:housenumber": "1805", "addr:postcode": "60707", "addr:state": "IL", "addr:street": "North Harlem Avenue", "amenity": "restaurant", "brand": "Jet's Pizza", "brand:wikidata": "Q16997713", "brand:wikipedia": "en:Jet's Pizza", "cuisine": "pizza", "name": "Jet's Pizza"}}, {"type": "node", "id": 7491974622, "lat": 41.9253711, "lon": -87.7899325, "tags": {"addr:city": "Chicago", "addr:housenumber": "6560", "addr:postcode": "60707", "addr:state": "IL", "addr:street": "West Fullerton Avenue", "amenity": "restaurant", "brand": "Old Country Buffet", "brand:wikidata": "Q75243208", "cuisine": "american", "name": "Old Country Buffet"}}]}