{"version": 0.6, "generator": "Overpass API 0.7.56.1004 6cd3eaec", "osm3s": {"timestamp_osm_base": "2020-07-21T23:10:03Z", "copyright": "The data included in this document is from www.openstreetmap.org. The data is made available under ODbL."}, "elements": [{"type": "node", "id": 358581588, "lat": 42.0197963, "lon": -87.6906771}, {"type": "node", "id": 451938921, "lat": 42.0192038, "lon": -87.6896363, "tags": {"addr:city": "Chicago", "addr:housenumber": "2349", "addr:postcode": "60645", "addr:street": "West Howard Street", "amenity": "restaurant", "cuisine": "pizza", "name": "Tapia's Pizza", "website": "http://www.tapiaspizza.com/"}}, {"type": "node", "id": 1931094213, "lat": 42.0198127, "lon": -87.6906779}, {"type": "node", "id": 1931094243, "lat": 42.0198049, "lon": -87.6903393}, {"type": "node", "id": 1931094270, "lat": 42.0198119, "lon": -87.6907091}, {"type": "node", "id": 1931094275, "lat": 42.0198791, "lon": -87.6907122}, {"type": "node", "id": 1931094277, "lat": 42.0198885, "lon": -87.6903432}, {"type": "node", "id": 2166482978, "lat": 42.0191804, "lon": -87.6983053, "tags": {"addr:city": "Chicago", "addr:housenumber": "2727", "addr:postcode": "60645", "addr:state": "IL", "addr:street": "West Howard Street", "amenity": "restaurant", "cuisine": "pizza", "name": "Gulliver's Pizza", "website": "http://www.gulliverspizza.com/"}}, {"type": "node", "id": 2197878099, "lat": 42.0115689, "lon": -87.7034354}, {"type": "node", "id": 2197878106, "lat": 42.0115699, "lon": -87.7033599}, {"type": "node", "id": 2197878371, "lat": 42.0116603, "lon": -87.7033388}, {"type": "node", "id": 2197878372, "lat": 42.0116605, "lon": -87.7033609}, {"type": "node", "id": 2197878434, "lat": 42.0116864, "lon": -87.7033404}, {"type": "node", "id": 2197878575, "lat": 42.011746, "lon": -87.703441}, {"type": "node", "id": 2197878797, "lat": 42.0118942, "lon": -87.703445}, {"type": "node", "id": 2197878801, "lat": 42.0118961, "lon": -87.7033409}, {"type": "node", "id": 2197894646, "lat": 42.0169793, "lon": -87.6906052}, {"type": "node", "id": 2197894650, "lat": 42.0169819, "lon": -87.6905702}, {"type": "node", "id": 2197894673, "lat": 42.016986, "lon": -87.6903843}, {"type": "node", "id": 2197895015, "lat": 42.0170537, "lon": -87.6906055}, {"type": "node", "id": 2197895025, "lat": 42.0170585, "lon": -87.6903836}, {"type": "node", "id": 2197897472, "lat": 42.0174008, "lon": -87.6905432}, {"type": "node", "id": 2197897477, "lat": 42.0174008, "lon": -87.6905089}, {"type": "node", "id": 2197897495, "lat": 42.0173986, "lon": -87.6907555}, {"type": "node", "id": 2197897501, "lat": 42.0174009, "lon": -87.6903778}, {"type": "node", "id": 2197897507, "lat": 42.0173988, "lon": -87.6905584}, {"type": "node", "id": 2197898793, "lat": 42.0175109, "lon": -87.6905433}, {"type": "node", "id": 2197898796, "lat": 42.0175109, "lon": -87.6905586}, {"type": "node", "id": 2197899137, "lat": 42.0176065, "lon": -87.6903781}, {"type": "node", "id": 2197899171, "lat": 42.0176254, "lon": -87.690756}, {"type": "node", "id": 2197899227, "lat": 42.0176258, "lon": -87.6903981}, {"type": "node", "id": 2197903631, "lat": 42.0189809, "lon": -87.6991205}, {"type": "node", "id": 2197903633, "lat": 42.0189795, "lon": -87.6992327}, {"type": "node", "id": 2197903973, "lat": 42.0191228, "lon": -87.6991202}, {"type": "node", "id": 2197903976, "lat": 42.0191234, "lon": -87.699234}, {"type": "node", "id": 2294092487, "lat": 42.0198035, "lon": -87.6848993, "tags": {"addr:city": "Evanston", "addr:housenumber": "951", "addr:postcode": "60202", "addr:state": "IL", "addr:street": "Howard Street", "addr:street:name": "Howard", "addr:street:type": "Street", "amenity": "restaurant", "brand": "Pizza Hut", "brand:wikidata": "Q191615", "brand:wikipedia": "en:Pizza Hut", "cuisine": "pizza", "name": "Pizza Hut"}}, {"type": "node", "id": 2681011355, "lat": 42.019646, "lon": -87.6984598}, {"type": "node", "id": 2681011360, "lat": 42.0196516, "lon": -87.698169}, {"type": "node", "id": 2681011363, "lat": 42.0197361, "lon": -87.698463}, {"type": "node", "id": 2681011366, "lat": 42.0197418, "lon": -87.6981722}, {"type": "node", "id": 3226937301, "lat": 42.0084448, "lon": -87.6899119, "tags": {"addr:city": "Chicago", "addr:housenumber": "6977", "addr:postcode": "60645", "addr:state": "IL", "addr:street": "North Western Avenue", "amenity": "restaurant", "name": "Mike's Place"}}, {"type": "node", "id": 3417560553, "lat": 42.0122854, "lon": -87.7087164}, {"type": "node", "id": 3417560554, "lat": 42.0121378, "lon": -87.7087075}, {"type": "node", "id": 3417697338, "lat": 42.0122841, "lon": -87.7085731}, {"type": "node", "id": 3417697339, "lat": 42.0121381, "lon": -87.7085695}, {"type": "node", "id": 3732332962, "lat": 42.0192006, "lon": -87.6997648, "tags": {"addr:city": "Chicago", "addr:housenumber": "2801", "addr:postcode": "60645", "addr:state": "IL", "addr:street": "West Howard Street", "amenity": "restaurant", "capacity": "20", "contact:phone": "+1-773-293-6904", "cuisine": "sushi", "diet:kosher": "only", "diet:kosher:certification": "Chicago Rabbinical Council", "diet:kosher:dairy": "no", "diet:kosher:meat": "yes", "diet:kosher:pareve": "yes", "name": "Hamachi Sushi Bar", "opening_hours": "Su 12:00-22:00; Mo-Th 11:30-21:30; Fr 11:00-15:00", "phone": "+1-773-293-6904", "takeaway": "yes"}}, {"type": "node", "id": 6261192011, "lat": 42.0194049, "lon": -87.689176, "tags": {"addr:city": "Chicago", "addr:housenumber": "2335", "addr:postcode": "60645", "addr:state": "IL", "addr:street": "West Howard Street", "amenity": "bar", "name": "American Ale House", "phone": "+1-773-743-1090"}}, {"type": "node", "id": 6300979402, "lat": 42.0116351, "lon": -87.6899226, "tags": {"addr:city": "Chicago", "addr:housenumber": "7121", "addr:postcode": "60645", "addr:state": "IL", "addr:street": "North Western Avenue", "amenity": "bar", "name": "Ricky G\u2019s", "phone": "+1-773-764-0322"}}, {"type": "node", "id": 6322562164, "lat": 42.0122439, "lon": -87.6998913, "tags": {"addr:city": "Chicago", "addr:housenumber": "2800", "addr:postcode": "60645", "addr:state": "IL", "addr:street": "West Touhy Avenue", "amenity": "bar", "name": "McKellin\u2019s", "phone": "+1-773-973-2428", "website": "mckellins.com"}}, {"type": "way", "id": 182753442, "nodes": [358581588, 1931094213, 1931094270, 1931094275, 1931094277, 1931094243, 358581588], "tags": {"addr:city": "Evanston", "addr:housenumber": "100", "addr:postcode": "60202", "addr:state": "IL", "addr:street": "Asbury Avenue", "addr:street:name": "Asbury", "addr:street:type": "Avenue", "amenity": "restaurant", "brand": "IHOP", "brand:wikidata": "Q1185675", "brand:wikipedia": "en:IHOP", "building": "retail", "cuisine": "breakfast;pancake", "name": "IHOP", "opening_hours": "24/7", "website": "http://restaurants.ihop.com/il/evanston/1203/"}}, {"type": "way", "id": 209591855, "nodes": [2197878797, 2197878801, 2197878434, 2197878371, 2197878372, 2197878106, 2197878099, 2197878575, 2197878797], "tags": {"addr:housenumber": "2931", "addr:street": "West Touhy Avenue", "addr:street:name": "Touhy", "addr:street:prefix": "West", "addr:street:type": "Avenue", "amenity": "restaurant", "building": "yes", "building:levels": "2", "chicago:building_id": "822059", "cuisine": "pizza", "name": "The Main Pizza / Chalavi"}}, {"type": "way", "id": 209593070, "nodes": [2197895015, 2197895025, 2197894673, 2197894650, 2197894646, 2197895015], "tags": {"addr:city": "Chicago", "addr:housenumber": "7436", "addr:postcode": "60645", "addr:street": "North Western Avenue", "addr:street:name": "Western", "addr:street:prefix": "North", "addr:street:type": "Avenue", "amenity": "bar", "building": "yes", "building:levels": "1", "chicago:building_id": "841251", "name": "Mark II Lounge", "website": "http://www.mark2lounge.com/"}}, {"type": "way", "id": 209593268, "nodes": [2197897495, 2197899171, 2197899227, 2197899137, 2197897501, 2197897477, 2197897472, 2197898793, 2197898796, 2197897507, 2197897495], "tags": {"addr:city": "Chicago", "addr:housenumber": "7452", "addr:postcode": "60645", "addr:street": "North Western Avenue", "addr:street:name": "Western", "addr:street:prefix": "North", "addr:street:type": "Avenue", "amenity": "bar", "building": "yes", "building:levels": "1", "chicago:building_id": "841248", "cuisine": "pizza", "name": "Candelite", "website": "http://www.candlelitechicago.com/"}}, {"type": "way", "id": 209593610, "nodes": [2197903631, 2197903633, 2197903976, 2197903973, 2197903631], "tags": {"addr:city": "Chicago", "addr:housenumber": "7555", "addr:postcode": "60645", "addr:state": "IL", "addr:street": "North California Avenue", "addr:street:name": "California", "addr:street:prefix": "North", "addr:street:type": "Avenue", "amenity": "cafe", "building": "yes", "building:levels": "1", "chicago:building_id": "515", "contact:facebook": "https://www.facebook.com/BondCoffeeCollective", "contact:instagram": "https://www.instagram.com/bondcoffeecollective/https://www.instagram.com/bondcoffeecollective", "contact:phone": "+1-847-494-9904", "contact:website": "https://www.bondcoffeecollective.com", "cuisine": "coffee_shop;sandwich", "diet:kosher": "only", "diet:kosher:certification": "Chicago Rabbinical Council", "diet:kosher:chalav_yisrael": "only", "diet:kosher:dairy": "yes", "diet:kosher:pas_yisrael": "only", "diet:kosher:yoshon": "only", "drive_through": "yes", "name": "Bond Coffee Collective", "opening_hours": "Mo-Th 07:00-20:00; Fr 07:00-16:00; Su 08:00-20:00; Sa off", "outdoor_seating": "yes", "phone": "+1-847-494-9904", "website": "https://www.bondcoffeecollective.com"}}, {"type": "way", "id": 262438741, "nodes": [2681011355, 2681011363, 2681011366, 2681011360, 2681011355], "tags": {"addr:city": "Evanston", "addr:housenumber": "1805", "addr:postcode": "60202", "addr:state": "IL", "addr:street": "Howard Street", "addr:street:name": "Howard", "addr:street:type": "Street", "amenity": "restaurant", "building": "yes", "cuisine": "mexican", "name": "El Pueblito Mexican Grill #2", "website": "http://www.elpueblitomexicangrill2.com/"}}, {"type": "way", "id": 334709853, "nodes": [3417560553, 3417697338, 3417697339, 3417560554, 3417560553], "tags": {"amenity": "restaurant", "building": "yes", "cuisine": "thai", "name": "Bangkok Wok"}}]}