{"version": 0.6, "generator": "Overpass API 0.7.56.3 eb200aeb", "osm3s": {"timestamp_osm_base": "2020-07-04T02:11:02Z", "copyright": "The data included in this document is from www.openstreetmap.org. The data is made available under ODbL."}, "elements": [{"type": "node", "id": 258025450, "lat": 41.9049662, "lon": -87.6699526}, {"type": "node", "id": 258281900, "lat": 41.875617, "lon": -87.6352309}, {"type": "node", "id": 258281901, "lat": 41.8756042, "lon": -87.6338748}, {"type": "node", "id": 258281903, "lat": 41.8756843, "lon": -87.6293729}, {"type": "node", "id": 258281905, "lat": 41.8857251, "lon": -87.639345}, {"type": "node", "id": 258281906, "lat": 41.8858639, "lon": -87.6400177}, {"type": "node", "id": 258281907, "lat": 41.8891083, "lon": -87.6443761}, {"type": "node", "id": 258281909, "lat": 41.8951173, "lon": -87.6535892}, {"type": "node", "id": 258957340, "lat": 41.8857351, "lon": -87.6325676, "tags": {"highway": "traffic_signals", "traffic_signals": "traffic_lights"}}, {"type": "node", "id": 258957456, "lat": 41.8756298, "lon": -87.6295729}, {"type": "node", "id": 258957458, "lat": 41.8854881, "lon": -87.629509}, {"type": "node", "id": 258957459, "lat": 41.8857187, "lon": -87.6297177}, {"type": "node", "id": 365489153, "lat": 41.90293, "lon": -87.6658404}, {"type": "node", "id": 365489154, "lat": 41.9039122, "lon": -87.667895}, {"type": "node", "id": 365489352, "lat": 41.886817, "lon": -87.6413207}, {"type": "node", "id": 706968780, "lat": 41.8757896, "lon": -87.6292725}, {"type": "node", "id": 706968781, "lat": 41.8759374, "lon": -87.6292188}, {"type": "node", "id": 706968782, "lat": 41.8856587, "lon": -87.6296051}, {"type": "node", "id": 706968784, "lat": 41.8857465, "lon": -87.6298791}, {"type": "node", "id": 707905319, "lat": 41.8857571, "lon": -87.6397709}, {"type": "node", "id": 707905321, "lat": 41.885797, "lon": -87.639889}, {"type": "node", "id": 707905651, "lat": 41.887937, "lon": -87.6428142}, {"type": "node", "id": 736035819, "lat": 41.9032414, "lon": -87.6664345}, {"type": "node", "id": 736035820, "lat": 41.9035623, "lon": -87.6671796, "tags": {"name": "Division", "network": "CTA", "operator": "Chicago Transit Authority", "public_transport": "stop_position", "railway": "stop", "subway": "yes"}}, {"type": "node", "id": 736035821, "lat": 41.9045719, "lon": -87.669287}, {"type": "node", "id": 736035822, "lat": 41.9047543, "lon": -87.6696185}, {"type": "node", "id": 736637716, "lat": 41.8857336, "lon": -87.6334344}, {"type": "node", "id": 873051690, "lat": 41.8780334, "lon": -87.6292842}, {"type": "node", "id": 1606917431, "lat": 41.885582, "lon": -87.6295459}, {"type": "node", "id": 1613640656, "lat": 41.8758517, "lon": -87.6292335}, {"type": "node", "id": 1613640678, "lat": 41.8757327, "lon": -87.6293131}, {"type": "node", "id": 1613640702, "lat": 41.8756495, "lon": -87.6294707}, {"type": "node", "id": 2200032209, "lat": 41.8909966, "lon": -87.6722207}, {"type": "node", "id": 2200032211, "lat": 41.8909975, "lon": -87.6721343}, {"type": "node", "id": 2200032617, "lat": 41.8911846, "lon": -87.6722261}, {"type": "node", "id": 2200032621, "lat": 41.8911855, "lon": -87.6721398}, {"type": "node", "id": 2200064580, "lat": 41.8956493, "lon": -87.6714785}, {"type": "node", "id": 2200064590, "lat": 41.8956503, "lon": -87.6714124}, {"type": "node", "id": 2200065266, "lat": 41.8957409, "lon": -87.6714151}, {"type": "node", "id": 2200065269, "lat": 41.8957422, "lon": -87.6714022}, {"type": "node", "id": 2200065894, "lat": 41.8958771, "lon": -87.6714853}, {"type": "node", "id": 2200065897, "lat": 41.895878, "lon": -87.6714063}, {"type": "node", "id": 2200107680, "lat": 41.900711, "lon": -87.6672093}, {"type": "node", "id": 2200107714, "lat": 41.9007148, "lon": -87.6669172}, {"type": "node", "id": 2200107795, "lat": 41.9007262, "lon": -87.6672257}, {"type": "node", "id": 2200107958, "lat": 41.9007578, "lon": -87.6672272}, {"type": "node", "id": 2200108058, "lat": 41.9007769, "lon": -87.6672086}, {"type": "node", "id": 2200108076, "lat": 41.9007807, "lon": -87.6669202}, {"type": "node", "id": 2200109452, "lat": 41.9010733, "lon": -87.6636682}, {"type": "node", "id": 2200109752, "lat": 41.9011176, "lon": -87.6637375}, {"type": "node", "id": 2200111013, "lat": 41.9012804, "lon": -87.6634272}, {"type": "node", "id": 2200111113, "lat": 41.9013247, "lon": -87.6634966}, {"type": "node", "id": 2200116752, "lat": 41.9028728, "lon": -87.6670803}, {"type": "node", "id": 2200116765, "lat": 41.902875, "lon": -87.6670013}, {"type": "node", "id": 2200116824, "lat": 41.9029016, "lon": -87.669453}, {"type": "node", "id": 2200116828, "lat": 41.9029037, "lon": -87.6693446}, {"type": "node", "id": 2200116829, "lat": 41.9029038, "lon": -87.669363}, {"type": "node", "id": 2200116842, "lat": 41.9029093, "lon": -87.6703144}, {"type": "node", "id": 2200116845, "lat": 41.9029102, "lon": -87.670239}, {"type": "node", "id": 2200117156, "lat": 41.9031632, "lon": -87.6703227}, {"type": "node", "id": 2200117157, "lat": 41.9031641, "lon": -87.6702474}, {"type": "node", "id": 2200117168, "lat": 41.9031774, "lon": -87.669463}, {"type": "node", "id": 2200117170, "lat": 41.9031796, "lon": -87.6693565}, {"type": "node", "id": 2200117172, "lat": 41.9031796, "lon": -87.6693601}, {"type": "node", "id": 2200117190, "lat": 41.9032186, "lon": -87.6670914}, {"type": "node", "id": 2200117197, "lat": 41.9032209, "lon": -87.6670124}, {"type": "node", "id": 2200128756, "lat": 41.9034027, "lon": -87.6725904}, {"type": "node", "id": 2200128760, "lat": 41.9034035, "lon": -87.6725041}, {"type": "node", "id": 2200129088, "lat": 41.9036003, "lon": -87.6725976}, {"type": "node", "id": 2200129091, "lat": 41.9036012, "lon": -87.6725094}, {"type": "node", "id": 2203580582, "lat": 41.8900939, "lon": -87.6578717}, {"type": "node", "id": 2203580583, "lat": 41.8900957, "lon": -87.6574769}, {"type": "node", "id": 2203580648, "lat": 41.8901189, "lon": -87.6551243}, {"type": "node", "id": 2203580662, "lat": 41.8901248, "lon": -87.6547276}, {"type": "node", "id": 2203580748, "lat": 41.8901667, "lon": -87.6578728}, {"type": "node", "id": 2203580750, "lat": 41.8901685, "lon": -87.6574779}, {"type": "node", "id": 2203580768, "lat": 41.8901779, "lon": -87.6551273}, {"type": "node", "id": 2203580772, "lat": 41.8901838, "lon": -87.6547288}, {"type": "node", "id": 2203583448, "lat": 41.8907222, "lon": -87.6599457}, {"type": "node", "id": 2203583453, "lat": 41.890723, "lon": -87.6598557}, {"type": "node", "id": 2203583502, "lat": 41.8907441, "lon": -87.6599454}, {"type": "node", "id": 2203583549, "lat": 41.8908013, "lon": -87.6598567}, {"type": "node", "id": 2203583552, "lat": 41.8908096, "lon": -87.6598731}, {"type": "node", "id": 2203583587, "lat": 41.8908631, "lon": -87.6598726}, {"type": "node", "id": 2203583591, "lat": 41.8908712, "lon": -87.6598596}, {"type": "node", "id": 2203583715, "lat": 41.8909404, "lon": -87.6599489}, {"type": "node", "id": 2203583724, "lat": 41.8909426, "lon": -87.6598607}, {"type": "node", "id": 2389087619, "lat": 41.9031904, "lon": -87.6664792}, {"type": "node", "id": 2389087620, "lat": 41.8890637, "lon": -87.644432}, {"type": "node", "id": 2389087622, "lat": 41.8950465, "lon": -87.6536404}, {"type": "node", "id": 2389087623, "lat": 41.8856856, "lon": -87.6298882}, {"type": "node", "id": 2389087624, "lat": 41.875672, "lon": -87.6316469, "tags": {"name": "LaSalle", "network": "CTA", "operator": "Chicago Transit Authority", "public_transport": "stop_position", "railway": "stop", "subway": "yes"}}, {"type": "node", "id": 2389087625, "lat": 41.878032, "lon": -87.629366}, {"type": "node", "id": 2389087626, "lat": 41.8756651, "lon": -87.6338745}, {"type": "node", "id": 2389087627, "lat": 41.8757682, "lon": -87.6293804}, {"type": "node", "id": 2389087628, "lat": 41.8807251, "lon": -87.6294424, "tags": {"name": "Monroe", "network": "CTA", "operator": "Chicago Transit Authority", "public_transport": "stop_position", "railway": "stop", "subway": "yes"}}, {"type": "node", "id": 2389087629, "lat": 41.875707, "lon": -87.6294988}, {"type": "node", "id": 2389087631, "lat": 41.8856169, "lon": -87.6296672}, {"type": "node", "id": 2389087632, "lat": 41.8756779, "lon": -87.6352309}, {"type": "node", "id": 2389087633, "lat": 41.8758168, "lon": -87.6293457}, {"type": "node", "id": 2389087635, "lat": 41.8856642, "lon": -87.639349}, {"type": "node", "id": 2389087636, "lat": 41.8758689, "lon": -87.629313}, {"type": "node", "id": 2389087637, "lat": 41.878173, "lon": -87.6293704, "tags": {"name": "Jackson", "network": "CTA", "operator": "Chicago Transit Authority", "public_transport": "stop_position", "railway": "stop", "subway": "yes"}}, {"type": "node", "id": 2389087638, "lat": 41.9028819, "lon": -87.6658907}, {"type": "node", "id": 2389087639, "lat": 41.8757342, "lon": -87.6294224}, {"type": "node", "id": 2389087640, "lat": 41.8911449, "lon": -87.6476749, "tags": {"name": "Grand", "network": "CTA", "operator": "Chicago Transit Authority", "public_transport": "stop_position", "railway": "stop", "subway": "yes"}}, {"type": "node", "id": 2389087641, "lat": 41.9045209, "lon": -87.6693317}, {"type": "node", "id": 2389087642, "lat": 41.8857439, "lon": -87.6399297}, {"type": "node", "id": 2389087643, "lat": 41.8856621, "lon": -87.629752}, {"type": "node", "id": 2389087644, "lat": 41.8856727, "lon": -87.6334341}, {"type": "node", "id": 2389087645, "lat": 41.8961627, "lon": -87.6553624, "tags": {"name": "Chicago", "network": "CTA", "operator": "Chicago Transit Authority", "public_transport": "stop_position", "railway": "stop", "subway": "yes"}}, {"type": "node", "id": 2389087646, "lat": 41.8899783, "lon": -87.6458537}, {"type": "node", "id": 2389087647, "lat": 41.9038608, "lon": -87.6679388}, {"type": "node", "id": 2389087648, "lat": 41.8856975, "lon": -87.6397925}, {"type": "node", "id": 2389087649, "lat": 41.8832093, "lon": -87.6294884, "tags": {"name": "Washington", "network": "CTA", "operator": "Chicago Transit Authority", "public_transport": "stop_position", "railway": "stop", "subway": "yes"}}, {"type": "node", "id": 2389087650, "lat": 41.8759406, "lon": -87.6293007}, {"type": "node", "id": 2389087651, "lat": 41.8855579, "lon": -87.6296217}, {"type": "node", "id": 2389087652, "lat": 41.8858169, "lon": -87.6400702}, {"type": "node", "id": 2389087653, "lat": 41.903519, "lon": -87.6672111, "tags": {"name": "Division", "network": "CTA", "operator": "Chicago Transit Authority", "public_transport": "stop_position", "railway": "stop", "subway": "yes"}}, {"type": "node", "id": 2389087654, "lat": 41.9049233, "lon": -87.6699939}, {"type": "node", "id": 2389087657, "lat": 41.8756906, "lon": -87.6295838}, {"type": "node", "id": 2389087658, "lat": 41.8787534, "lon": -87.6293804}, {"type": "node", "id": 2389087659, "lat": 41.8867738, "lon": -87.6413784}, {"type": "node", "id": 2389087660, "lat": 41.8854784, "lon": -87.6295904}, {"type": "node", "id": 2389087661, "lat": 41.9047049, "lon": -87.6696667}, {"type": "node", "id": 2496841186, "lat": 41.8963373, "lon": -87.6670898, "tags": {"addr:city": "Chicago", "addr:housenumber": "811", "addr:postcode": "60622", "addr:state": "IL", "addr:street": "North Ashland Avenue", "amenity": "restaurant", "name": "Taqueria Traspasada", "phone": "+1-312-850-2069"}}, {"type": "node", "id": 2535218213, "lat": 41.8910659, "lon": -87.6718335, "tags": {"addr:city": "Chicago", "addr:housenumber": "1758", "addr:postcode": "60622", "addr:state": "IL", "addr:street": "West Grand Avenue", "amenity": "bar", "delivery": "yes", "name": "Output Lounge & Sports Bar", "phone": "312-929-2515", "website": "outputlounge.com"}}, {"type": "node", "id": 2535218224, "lat": 41.8910216, "lon": -87.6714159, "tags": {"amenity": "restaurant", "cuisine": "pizza", "name": "Tortorice's Pizza"}}, {"type": "node", "id": 3077026133, "lat": 41.9031202, "lon": -87.6708279, "tags": {"addr:city": "Chicago", "addr:housenumber": "1721", "addr:postcode": "60622", "addr:state": "IL", "addr:street": "West Division Street", "amenity": "restaurant", "name": "Bordel", "phone": "+1-773-227-8600", "website": "https://www.bordelchicago.com/"}}, {"type": "node", "id": 3077038433, "lat": 41.9034271, "lon": -87.6720145, "tags": {"amenity": "cafe", "name": "Caffe Streets", "opening_hours": "Mo-Sa 07:00-21:00; Su 07:00-19:00"}}, {"type": "node", "id": 3077039734, "lat": 41.903163, "lon": -87.6680126, "tags": {"amenity": "cafe", "name": "Intelligensia"}}, {"type": "node", "id": 3188221400, "lat": 41.8755967, "lon": -87.6375939}, {"type": "node", "id": 3188221401, "lat": 41.8756575, "lon": -87.6376008}, {"type": "node", "id": 3575070907, "lat": 41.9031148, "lon": -87.6725199, "tags": {"amenity": "pub", "name": "Mac's American Food & Drink"}}, {"type": "node", "id": 3575070910, "lat": 41.9031028, "lon": -87.6720505, "tags": {"addr:city": "Chicago", "addr:housenumber": "6240", "addr:postcode": "60622", "addr:state": "IL", "addr:street": "North Wood Street", "amenity": "bar", "name": "Gold Star Bar", "phone": "+1-773-227-8700"}}, {"type": "node", "id": 3575070912, "lat": 41.9034881, "lon": -87.6705887, "tags": {"amenity": "restaurant", "cuisine": "regional", "name": "Carriage House"}}, {"type": "node", "id": 3575070913, "lat": 41.9034821, "lon": -87.6702749, "tags": {"addr:city": "Chicago", "addr:housenumber": "1670", "addr:postcode": "60622", "addr:state": "IL", "addr:street": "West Division Street", "amenity": "bar", "name": "Bangers & Lace", "phone": "+1-773-252-6499", "website": "https://www.bangersandlacebar.com/"}}, {"type": "node", "id": 3575072895, "lat": 41.9028054, "lon": -87.6672521, "tags": {"amenity": "restaurant", "cuisine": "mexican", "name": "Authentaco"}}, {"type": "node", "id": 3575072896, "lat": 41.9026397, "lon": -87.6677134, "tags": {"amenity": "restaurant", "cuisine": "mexican", "name": "La Pasadita"}}, {"type": "node", "id": 3575072897, "lat": 41.9004836, "lon": -87.6676383, "tags": {"addr:city": "Chicago", "addr:housenumber": "1024", "addr:postcode": "60622", "addr:state": "IL", "addr:street": "North Ashland Avenue", "addr:street:name": "Ashland", "addr:street:prefix": "North", "addr:street:type": "Avenue", "amenity": "restaurant", "cuisine": "mexican", "name": "Alegrias Seafood Chicago", "opening_hours": "Mo-Th, Su 10:00-22:00; Fr-Sa 10:00-23:00", "phone": "+1-773-252-7200", "website": "http://alegriasseafoodchicago.com"}}, {"type": "node", "id": 3575084293, "lat": 41.8970869, "lon": -87.6650571, "tags": {"addr:city": "Chicago", "addr:housenumber": "832", "addr:postcode": "60622", "addr:state": "IL", "addr:street": "North Greenview Avenue", "amenity": "bar", "name": "The Chipp Inn", "outdoor_seating": "no", "phone": "+1-312-421-9052"}}, {"type": "node", "id": 3575084295, "lat": 41.8962923, "lon": -87.663429, "tags": {"addr:city": "Chicago", "addr:housenumber": "1424", "addr:postcode": "60622", "addr:state": "IL", "addr:street": "West Chicago Avenue", "amenity": "pub", "email": "info@fivestarbar.com", "name": "Five Star Bar", "outdoor_seating": "yes", "phone": "+1-312-850-2555", "website": "http://www.fivestarbar.com/"}}, {"type": "node", "id": 3575084296, "lat": 41.8963372, "lon": -87.6629342, "tags": {"addr:city": "Chicago", "addr:housenumber": "1412", "addr:postcode": "60622", "addr:state": "IL", "addr:street": "West Chicago Avenue", "amenity": "bar", "name": "Lush Wine & Spirits", "phone": "+1-312-666-6900", "website": "http://www.luswineandspirits.com/"}}, {"type": "node", "id": 3575084297, "lat": 41.8962244, "lon": -87.6668569, "tags": {"amenity": "restaurant", "cuisine": "thai", "name": "Manee Thai"}}, {"type": "node", "id": 3596874096, "lat": 41.8975839, "lon": -87.6670559, "tags": {"addr:city": "Chicago", "addr:housenumber": "851", "addr:postcode": "60622", "addr:state": "IL", "addr:street": "North Ashland Avenue", "amenity": "restaurant", "cuisine": "american", "delivery": "no", "name": "Ruxbin", "phone": "(312) 624\u20138509", "smoking": "no", "takeaway": "no", "website": "http://www.ruxbinchicago.com"}}, {"type": "node", "id": 3618178425, "lat": 41.8961397, "lon": -87.6554969, "tags": {"addr:city": "Chicago", "addr:housenumber": "1105", "addr:postcode": "60622", "addr:state": "IL", "addr:street": "West Chicago Avenue", "amenity": "cafe", "name": "Big Shoulders Coffee", "opening_hours": "Mo-Fr 06:00-19:00; Sa-Su 07:30-17:00"}}, {"type": "node", "id": 3652941309, "lat": 41.9030503, "lon": -87.6662514, "tags": {"amenity": "restaurant", "cuisine": "sushi", "name": "Usagi Ya"}}, {"type": "node", "id": 3652941314, "lat": 41.9024913, "lon": -87.665369, "tags": {"amenity": "restaurant", "cuisine": "chinese", "name": "China Court"}}, {"type": "node", "id": 3652941315, "lat": 41.9022238, "lon": -87.6649962, "tags": {"addr:city": "Chicago", "addr:housenumber": "1132", "addr:postcode": "60642", "addr:state": "IL", "addr:street": "North Milwaukee Avenue", "amenity": "restaurant", "name": "Kin Sushi & Thai Cuisine", "phone": "+1 773-772-2722", "website": "https://www.kinchicago.com/"}}, {"type": "node", "id": 3659464567, "lat": 41.9031435, "lon": -87.6700847, "tags": {"amenity": "cafe", "brand": "Starbucks", "brand:wikidata": "Q37158", "brand:wikipedia": "en:Starbucks", "cuisine": "coffee_shop", "name": "Starbucks", "official_name": "Starbucks Coffee", "takeaway": "yes"}}, {"type": "node", "id": 3659464570, "lat": 41.9031217, "lon": -87.6709797, "tags": {"amenity": "pub", "name": "Anthem"}}, {"type": "node", "id": 3659464573, "lat": 41.9034404, "lon": -87.6716776, "tags": {"amenity": "restaurant", "name": "Mana Food Bar"}}, {"type": "node", "id": 4564043792, "lat": 41.895873, "lon": -87.6693545, "tags": {"addr:city": "Chicago", "addr:housenumber": "1651", "addr:postcode": "60622", "addr:state": "IL", "addr:street": "West Chicago Avenue", "amenity": "cafe", "cuisine": "coffee_shop", "name": "Pickwick Coffee"}}, {"type": "node", "id": 4599121319, "lat": 41.8958892, "lon": -87.6704013, "tags": {"addr:city": "Chicago", "addr:housenumber": "1715", "addr:postcode": "60622", "addr:state": "IL", "addr:street": "West Chicago Avenue", "amenity": "restaurant", "cuisine": "thai", "name": "JJ Thai Street Food", "phone": "+1-312-929-4435", "website": "http://www.jjthaistreetfood.com/"}}, {"type": "node", "id": 4599121320, "lat": 41.8961658, "lon": -87.6715393, "tags": {"addr:city": "Chicago", "addr:housenumber": "1746", "addr:postcode": "60622", "addr:state": "IL", "addr:street": "West Chicago Avenue", "amenity": "bar", "name": "Forbidden Root Restaurant & Brewery", "phone": "+1-312-929-2202", "website": "http://www.forbiddenroot.com"}}, {"type": "node", "id": 4599121321, "lat": 41.8958623, "lon": -87.6717217, "tags": {"addr:city": "Chicago", "addr:housenumber": "1751", "addr:postcode": "60622", "addr:state": "IL", "addr:street": "West Chicago Avenue", "amenity": "restaurant", "cuisine": "japanese", "name": "Yuzu Sushi + Robata Grill", "phone": "+1-815-900-9525", "website": "https://www.yuzuchicago.com/"}}, {"type": "node", "id": 4697798553, "lat": 41.894242, "lon": -87.659813, "tags": {"addr:city": "Chicago", "addr:housenumber": "1303", "addr:postcode": "60642", "addr:state": "IL", "addr:street": "West Huron Street", "amenity": "restaurant", "cuisine": "mexican", "name": "Taqueria El Jardin", "opening_hours": "09:00-19:30", "outdoor_seating": "no", "smoking": "no", "takeaway": "yes"}}, {"type": "node", "id": 5028745128, "lat": 41.8959528, "lon": -87.6660177, "tags": {"addr:postcode": "60622", "amenity": "restaurant", "cuisine": "mexican;french", "name": "Mexique", "phone": "(312)850-0288"}}, {"type": "node", "id": 5272952064, "lat": 41.891221, "lon": -87.6476367, "tags": {"name": "Grand", "network": "CTA", "operator": "Chicago Transit Authority", "public_transport": "stop_position", "railway": "stop", "subway": "yes"}}, {"type": "node", "id": 5272952065, "lat": 41.8856844, "lon": -87.6312903, "tags": {"name": "Clark/Lake", "network": "CTA", "operator": "Chicago Transit Authority", "public_transport": "stop_position", "railway": "stop", "subway": "yes"}}, {"type": "node", "id": 5272952066, "lat": 41.8857373, "lon": -87.6312876, "tags": {"name": "Clark/Lake", "network": "CTA", "operator": "Chicago Transit Authority", "public_transport": "stop_position", "railway": "stop", "subway": "yes"}}, {"type": "node", "id": 5272952067, "lat": 41.883209, "lon": -87.6294539, "tags": {"name": "Washington", "network": "CTA", "operator": "Chicago Transit Authority", "public_transport": "stop_position", "railway": "stop", "subway": "yes"}}, {"type": "node", "id": 5272957251, "lat": 41.8962122, "lon": -87.6553004, "tags": {"name": "Chicago", "network": "CTA", "operator": "Chicago Transit Authority", "public_transport": "stop_position", "railway": "stop", "subway": "yes"}}, {"type": "node", "id": 5272959956, "lat": 41.8781723, "lon": -87.6292891, "tags": {"name": "Jackson", "network": "CTA", "operator": "Chicago Transit Authority", "public_transport": "stop_position", "railway": "stop", "subway": "yes"}}, {"type": "node", "id": 5272959957, "lat": 41.8807275, "lon": -87.62938, "tags": {"name": "Monroe", "network": "CTA", "operator": "Chicago Transit Authority", "public_transport": "stop_position", "railway": "stop", "subway": "yes"}}, {"type": "node", "id": 5272963174, "lat": 41.8756111, "lon": -87.6316453, "tags": {"name": "LaSalle", "network": "CTA", "operator": "Chicago Transit Authority", "public_transport": "stop_position", "railway": "stop", "subway": "yes"}}, {"type": "node", "id": 5299997866, "lat": 41.896462, "lon": -87.6550805, "tags": {"addr:city": "Chicago", "addr:housenumber": "1062", "addr:postcode": "60642", "addr:state": "IL", "addr:street": "West Chicago Avenue", "amenity": "restaurant", "name": "Windy City Cafe", "phone": "+1-312-492-8010", "website": "https://windycity-cafe.com/"}}, {"type": "node", "id": 5460671009, "lat": 41.8905209, "lon": -87.6591892, "tags": {"addr:city": "Chicago", "addr:housenumber": "459", "addr:postcode": "60642", "addr:state": "IL", "addr:street": "North Ogden Avenue", "amenity": "bar", "name": "G & O", "opening_hours": "Mo-Fr 16:00-02:00; Sa 10:00-03:00; Su 10:00-00:00", "phone": "+1-312-888-3367", "website": "http://grandandogden.com/"}}, {"type": "node", "id": 5460735957, "lat": 41.8897346, "lon": -87.6620754, "tags": {"addr:city": "Chicago", "addr:housenumber": "1381", "addr:postcode": "60642", "addr:state": "IL", "addr:street": "West Hubbard Street", "amenity": "restaurant", "cuisine": "american;breakfast", "name": "The Breakfast Club & Grill", "phone": "+1-312-666-2372", "website": "https://thebreakfastclubchicago.com/"}}, {"type": "node", "id": 5460758421, "lat": 41.8912522, "lon": -87.6559754, "tags": {"addr:city": "Chicago", "addr:housenumber": "1132", "addr:postcode": "60642", "addr:state": "IL", "addr:street": "West Grand Avenue", "amenity": "restaurant", "cuisine": "american", "name": "TWO Restaurant", "opening_hours": "Tu-Th 17:00-22:00; Fr-Sa 17:00-23:00; Su 17:00-21:00", "phone": "+1-312-624-8363", "website": "http://113two.com/"}}, {"type": "node", "id": 5460871124, "lat": 41.8963394, "lon": -87.6677065, "tags": {"addr:city": "Chicago", "addr:housenumber": "1604", "addr:postcode": "60622", "addr:state": "IL", "addr:street": "West Chicago Avenue", "amenity": "bar", "name": "Beatnik", "opening_hours": "Tu-Fr 17:00-02:00; Sa 11:00-03:00; Su 11:00-02:00", "phone": "+1-312-929-4945", "website": "https://www.beatnikchicago.com/"}}, {"type": "node", "id": 5792394594, "lat": 41.8896255, "lon": -87.670578, "tags": {"addr:city": "Chicago", "addr:housenumber": "1725", "addr:postcode": "60622", "addr:state": "IL", "addr:street": "West Hubbard Street", "amenity": "bar", "name": "On Tour Brewin", "outdoor_seating": "no", "phone": "+1-312-796-3119", "website": "https://ontourbrewing.com/"}}, {"type": "node", "id": 5829654085, "lat": 41.8958975, "lon": -87.6701778, "tags": {"addr:city": "Chicago", "addr:housenumber": "1709", "addr:postcode": "60622", "addr:state": "IL", "addr:street": "West Chicago Avenue", "amenity": "restaurant", "cuisine": "german", "name": "Funkenhausen", "opening_hours": "Mo-Th 17:00-23:00; Fr-Sa 17:00-00:00; Su 17:00-22:00", "phone": "+1-312-929-4727", "website": "https://www.funkenhausen.com/"}}, {"type": "node", "id": 5916848688, "lat": 41.8923569, "lon": -87.6620789, "tags": {"addr:city": "Chicago", "addr:housenumber": "543", "addr:postcode": "60642", "addr:state": "IL", "addr:street": "North Noble Street", "amenity": "restaurant", "name": "Nini's Deli", "phone": "+1-312-243-9822", "website": "https://ninisdeli.com/"}}, {"type": "node", "id": 6250223840, "lat": 41.8901294, "lon": -87.6595267, "tags": {"addr:city": "Chicago", "addr:housenumber": "439", "addr:postcode": "60642", "addr:state": "IL", "addr:street": "North Ogden Avenue", "amenity": "bar", "name": "439 Nightclub"}}, {"type": "node", "id": 6262038806, "lat": 41.9008233, "lon": -87.6627954, "tags": {"addr:city": "Chicago", "addr:housenumber": "1046", "addr:postcode": "60622", "addr:state": "IL", "addr:street": "North Milwaukee Avenue", "amenity": "cafe", "name": "Arabia Caf\u00e9 & Hookah Lounge", "phone": "+1-773-276-2345"}}, {"type": "node", "id": 6265172903, "lat": 41.8963785, "lon": -87.6644256, "tags": {"addr:city": "Chicago", "addr:housenumber": "1450", "addr:postcode": "60654", "addr:state": "IL", "addr:street": "North Greenview Avenue", "amenity": "restaurant", "cuisine": "spanish;tapas;small_plates", "name": "Bar Biscay", "phone": "+1-312-455-8900", "website": "https://www.barbiscay.com"}}, {"type": "node", "id": 6265647624, "lat": 41.8963937, "lon": -87.6641441, "tags": {"addr:city": "Chicago", "addr:housenumber": "1444", "addr:postcode": "60642", "addr:state": "IL", "addr:street": "West Chicago Avenue", "amenity": "bar", "name": "Beauty Bar", "phone": "+1-312-226-8828", "website": "http://www.thebeautybar.com/"}}, {"type": "node", "id": 6268994648, "lat": 41.9035368, "lon": -87.6712593, "tags": {"addr:city": "Chicago", "addr:housenumber": "1732", "addr:postcode": "60622", "addr:state": "IL", "addr:street": "West Division Street", "amenity": "restaurant", "name": "Bonchon - Division St.", "phone": "+1-773-360-7460", "website": "https://bonchon.com/"}}, {"type": "node", "id": 6269384932, "lat": 41.8909218, "lon": -87.6561974, "tags": {"addr:city": "Chicago", "addr:housenumber": "1139", "addr:postcode": "60642", "addr:state": "IL", "addr:street": "West Grand Avenue", "amenity": "restaurant", "name": "Butterfly Sushi Bar & Thai Cuisine", "phone": "+1-312- 563-5555", "website": "http://www.butterflysushi2go.com/"}}, {"type": "node", "id": 6269627500, "lat": 41.8959189, "lon": -87.6638671, "tags": {"addr:city": "Chicago", "addr:housenumber": "1437", "addr:postcode": "60642", "addr:state": "IL", "addr:street": "West Chicago Avenue", "amenity": "restaurant", "name": "Cafe Central", "phone": "+1-312-243-6776"}}, {"type": "node", "id": 6283222471, "lat": 41.9008216, "lon": -87.6627776, "tags": {"addr:city": "Chicago", "addr:housenumber": "1046", "addr:postcode": "60622", "addr:state": "IL", "addr:street": "North Milwaukee Avenue", "amenity": "cafe", "name": "Coffee On Milwaukee", "phone": "+1-773-276-3200"}}, {"type": "node", "id": 6285894590, "lat": 41.8932185, "lon": -87.6676308, "tags": {"addr:city": "Chicago", "addr:housenumber": "624", "addr:postcode": "60622", "addr:state": "IL", "addr:street": "North Ashland Avenue", "amenity": "restaurant", "name": "El Potosino Grill", "phone": "+1-312-285-2711", "website": "http://orderelpotosinogrill.com/"}}, {"type": "node", "id": 6286791027, "lat": 41.9032233, "lon": -87.6576052, "tags": {"addr:city": "Chicago", "addr:housenumber": "1777", "addr:postcode": "60642", "addr:state": "IL", "addr:street": "North Elston Avenue", "amenity": "bar", "name": "Estate", "phone": "+1-312-523-4296", "website": "http://estateultrabar.com"}}, {"type": "node", "id": 6290954452, "lat": 41.8963373, "lon": -87.6638657, "tags": {"addr:city": "Chicago", "addr:housenumber": "1434", "addr:postcode": "60642", "addr:state": "IL", "addr:street": "West Chicago Avenue", "amenity": "restaurant", "name": "Flo", "phone": "+1-312-243-0477", "website": "https://flochicago.com/"}}, {"type": "node", "id": 6294267462, "lat": 41.8965552, "lon": -87.667071, "tags": {"addr:city": "Chicago", "addr:housenumber": "815", "addr:postcode": "60622", "addr:state": "IL", "addr:street": "North Ashland Avenue", "amenity": "cafe", "name": "Healthy and Simple", "phone": "+1-312-624-8971"}}, {"type": "node", "id": 6294395924, "lat": 41.895838, "lon": -87.6693982, "tags": {"addr:city": "Chicago", "addr:housenumber": "1651", "addr:postcode": "60622", "addr:state": "IL", "addr:street": "West Chicago Avenue", "amenity": "cafe", "name": "HERO Coffee Bar", "phone": "+1-312-285-2857", "website": "https://www.herocoffeebars.com/"}}, {"type": "node", "id": 6294534344, "lat": 41.8923742, "lon": -87.6619407, "tags": {"addr:city": "Chicago", "addr:housenumber": "1363", "addr:postcode": "60642", "addr:state": "IL", "addr:street": "West Ohio Street", "amenity": "restaurant", "name": "Home Team Pizza", "phone": "+1-312-291-8666", "website": "http://www.hometeampizzachicago.us/"}}, {"type": "node", "id": 6297680946, "lat": 41.9034846, "lon": -87.6688574, "tags": {"addr:city": "Chicago", "addr:housenumber": "1632", "addr:postcode": "60622", "addr:state": "IL", "addr:street": "West Division Street", "amenity": "cafe", "name": "Scone City", "phone": "+1-773-904-8722", "website": "http://sconecity.com/"}}, {"type": "node", "id": 6298799785, "lat": 41.89088, "lon": -87.6583534, "tags": {"addr:city": "Chicago", "addr:housenumber": "1223", "addr:postcode": "60642", "addr:state": "IL", "addr:street": "West Grand Avenue", "amenity": "cafe", "name": "Sip Coffee House & Garden", "phone": "+1-312-563-1123", "website": "http://www.sipcoffeehouse.com/"}}, {"type": "node", "id": 6298813013, "lat": 41.895807, "lon": -87.6689374, "tags": {"addr:city": "Chicago", "addr:housenumber": "1641", "addr:postcode": "60622", "addr:state": "IL", "addr:street": "West Chicago Avenue", "amenity": "restaurant", "name": "Six06 Cafe Bar", "phone": "+1-312-929-4911", "website": "http://cafe606.com/"}}, {"type": "node", "id": 6300667059, "lat": 41.8963169, "lon": -87.6647172, "tags": {"addr:city": "Chicago", "addr:housenumber": "1458", "addr:postcode": "60642", "addr:state": "IL", "addr:street": "West Chicago Avenue", "amenity": "cafe", "name": "Standing Passengers", "phone": "+1-312-374-3177", "website": "https://www.standingpassengers.com/"}}, {"type": "node", "id": 6301631402, "lat": 41.9030061, "lon": -87.6716801, "tags": {"addr:city": "Chicago", "addr:housenumber": "1745", "addr:postcode": "60622", "addr:state": "IL", "addr:street": "West Division Street", "amenity": "cafe", "name": "Starfruit Cafe", "phone": "+1-773-395-9300"}}, {"type": "node", "id": 6304001071, "lat": 41.8912668, "lon": -87.6618238, "tags": {"addr:city": "Chicago", "addr:housenumber": "1372", "addr:postcode": "60642", "addr:state": "IL", "addr:street": "West Grand Avenue", "amenity": "restaurant", "name": "Tempesta Market", "phone": "+1-312-929-2551", "website": "http://tempestamarket.com/"}}, {"type": "node", "id": 6304017578, "lat": 41.8989063, "lon": -87.6670205, "tags": {"addr:city": "Chicago", "addr:housenumber": "933", "addr:postcode": "60622", "addr:state": "IL", "addr:street": "North Ashland Avenue", "amenity": "restaurant", "cuisine": "american;american_new;new_american", "name": "Temporis", "opening_hours": "Tu-Sa 17:00-21:00", "phone": "+1-773-697-4961", "website": "https://www.temporischicago.com/"}}, {"type": "node", "id": 6306671835, "lat": 41.9027511, "lon": -87.6708155, "tags": {"addr:city": "Chicago", "addr:housenumber": "1115", "addr:postcode": "60622", "addr:state": "IL", "addr:street": "North Hermitage Avenue", "amenity": "cafe", "name": "Tropikava", "phone": "+1-773-840-7774", "website": "https://www.tropikava.com/"}}, {"type": "node", "id": 6307019781, "lat": 41.8913101, "lon": -87.6585687, "tags": {"addr:city": "Chicago", "addr:housenumber": "501", "addr:postcode": "60642", "addr:state": "IL", "addr:street": "North Ogden Avenue", "amenity": "restaurant", "name": "Twisted Spoke", "phone": "+1-312-666-1500", "website": "http://twistedspoke.com/"}}, {"type": "node", "id": 6315603271, "lat": 41.8932944, "lon": -87.6620632, "tags": {"addr:city": "Chicago", "addr:housenumber": "1367", "addr:postcode": "60642", "addr:state": "IL", "addr:street": "West Erie Street", "amenity": "bar", "name": "The Irish Nobleman", "phone": "+1-312-374-3487", "website": "http://www.irishnobleman.com/"}}, {"type": "node", "id": 6315665345, "lat": 41.8957112, "lon": -87.6548491, "tags": {"addr:city": "Chicago", "addr:housenumber": "770", "addr:postcode": "60642", "addr:state": "IL", "addr:street": "North Milwaukee Avenue", "amenity": "bar", "name": "The Matchbox", "phone": "+1-312-666-9292"}}, {"type": "node", "id": 6319264224, "lat": 41.8991184, "lon": -87.666976, "tags": {"addr:city": "Chicago", "addr:housenumber": "939", "addr:postcode": "60622", "addr:state": "IL", "addr:street": "North Ashland Avenue", "amenity": "restaurant", "name": "Kimchi Pop", "phone": "+1-872-802-4424", "website": "https://www.kimchipopchicago.com/"}}, {"type": "node", "id": 6319897991, "lat": 41.8963535, "lon": -87.6639632, "tags": {"addr:city": "Chicago", "addr:housenumber": "1438", "addr:postcode": "60642", "addr:state": "IL", "addr:street": "West Chicago Avenue", "amenity": "restaurant", "name": "La Calavera Chicago", "phone": "+1-312-255-7925", "website": "http://www.calaverachicago.com/"}}, {"type": "node", "id": 6320612929, "lat": 41.8962815, "lon": -87.6678216, "tags": {"addr:city": "Chicago", "addr:housenumber": "1610", "addr:postcode": "60622", "addr:state": "IL", "addr:street": "West Chicago Avenue", "amenity": "bar", "name": "Loop Tavern", "phone": "+1-312-226-6740"}}, {"type": "node", "id": 6321516956, "lat": 41.9025114, "lon": -87.6678565, "tags": {"addr:city": "Chicago", "addr:housenumber": "1132", "addr:postcode": "60622", "addr:state": "IL", "addr:street": "North Ashland Avenue", "amenity": "restaurant", "name": "Mariscos La Costa", "phone": "+1-773-360-1226", "website": "https://www.lacostachicago.com/"}}, {"type": "node", "id": 6323827056, "lat": 41.8913263, "lon": -87.6554785, "tags": {"addr:city": "Chicago", "addr:housenumber": "1118", "addr:postcode": "60642", "addr:state": "IL", "addr:street": "West Grand Avenue", "amenity": "restaurant", "name": "Oggi Trattoria", "phone": "+1-312-733-0442", "website": "http://www.oggitrattoria.org/"}}, {"type": "node", "id": 6324088187, "lat": 41.8959969, "lon": -87.6621632, "tags": {"addr:city": "Chicago", "addr:housenumber": "1371", "addr:postcode": "60642", "addr:state": "IL", "addr:street": "West Chicago Avenue", "amenity": "restaurant", "name": "Opart Thai House", "phone": "+1-312-988-0986", "website": "https://www.opartthai.com"}}, {"type": "node", "id": 6394391045, "lat": 41.889422, "lon": -87.6667839, "tags": {"addr:city": "Chicago", "addr:housenumber": "417", "addr:postcode": "60622", "addr:state": "IL", "addr:street": "North Ashland Avenue", "amenity": "bar", "brewery": "yes", "description": "District Brew Yards is a taproom for three breweries: Burnt City Brewing, Bold Dog Beer Co., Around the Bend Beer Co. ", "name": "District Brew Yards"}}, {"type": "node", "id": 6397120472, "lat": 41.8963061, "lon": -87.6648107, "tags": {"addr:city": "Chicago", "addr:housenumber": "1460", "addr:postcode": "60642", "addr:state": "IL", "addr:street": "West Chicago Avenue", "amenity": "restaurant", "cuisine": "asian;japanese", "name": "Jeong", "opening_hours": "Tu-Sa 17:00-22:00", "phone": "+1-312-877-5016", "website": "http://jeongchicago.com"}}, {"type": "node", "id": 6410352419, "lat": 41.9031079, "lon": -87.6709525, "tags": {"addr:city": "Chicago", "addr:housenumber": "1659", "addr:postcode": "60622", "addr:state": "IL", "addr:street": "West Division Street", "amenity": "restaurant", "cuisine": "argentinian;empanada", "name": "5411 Empanadas - Division", "opening_hours": "Mo-Th 07:00-21:00; Fr 07:00-22:00; Sa 08:00-22:00; Su 08:00-21:00", "phone": "+1-773-227-3064", "website": "http://www.5411empanadas.com"}}, {"type": "node", "id": 6774960135, "lat": 41.8982361, "lon": -87.6584179}, {"type": "node", "id": 6842452391, "lat": 41.9018301, "lon": -87.6676707, "tags": {"addr:housenumber": "1108", "addr:street": "North Ashland Avenue", "amenity": "cafe", "cuisine": "ice_cream;smoothies", "name": "Coco Ice Cream"}}, {"type": "node", "id": 6991303059, "lat": 41.8857352, "lon": -87.6323843, "tags": {"highway": "traffic_signals", "traffic_signals": "traffic_lights"}}, {"type": "node", "id": 7015621558, "lat": 41.8857268, "lon": -87.6381883}, {"type": "node", "id": 7330265713, "lat": 41.9034729, "lon": -87.6718662, "tags": {"addr:city": "Chicago", "addr:housenumber": "1746", "addr:postcode": "60622", "addr:state": "IL", "addr:street": "West Division Street", "amenity": "restaurant", "cuisine": "italian;pasta", "name": "Tortello", "phone": "+1-773-360-1293"}}, {"type": "node", "id": 7598267988, "lat": 41.8962003, "lon": -87.6719856, "tags": {"addr:housenumber": "1760", "amenity": "restaurant", "name": "Koko's Mediterranean"}}, {"type": "node", "id": 7598304985, "lat": 41.8958747, "lon": -87.6667787, "tags": {"addr:housenumber": "1549", "amenity": "restaurant", "name": "Spicy Fingers Seafood Kitchen"}}, {"type": "node", "id": 7607793125, "lat": 41.8756808, "lon": -87.6306661, "tags": {"railway": "switch"}}, {"type": "node", "id": 7607793126, "lat": 41.8756222, "lon": -87.6304099, "tags": {"railway": "switch"}}, {"type": "node", "id": 7607793127, "lat": 41.8756193, "lon": -87.6306682, "tags": {"railway": "switch"}}, {"type": "node", "id": 7607793128, "lat": 41.8756833, "lon": -87.6304013, "tags": {"railway": "switch"}}, {"type": "node", "id": 7662839840, "lat": 41.885735, "lon": -87.6326313}, {"type": "node", "id": 7675964055, "lat": 41.8836614, "lon": -87.6295087}, {"type": "node", "id": 7676191090, "lat": 41.8922758, "lon": -87.6492293}, {"type": "node", "id": 7676191091, "lat": 41.8933257, "lon": -87.6508241}, {"type": "node", "id": 7676191092, "lat": 41.8959631, "lon": -87.654909}, {"type": "node", "id": 7676191093, "lat": 41.8965232, "lon": -87.655796}, {"type": "node", "id": 7676191096, "lat": 41.8975476, "lon": -87.6573753}, {"type": "node", "id": 7676191098, "lat": 41.8981388, "lon": -87.6582711}, {"type": "way", "id": 209839358, "nodes": [2200064580, 2200065894, 2200065897, 2200065269, 2200065266, 2200064590, 2200064580], "tags": {"addr:housenumber": "1745", "addr:street": "West Chicago Avenue", "addr:street:name": "Chicago", "addr:street:prefix": "West", "addr:street:type": "Avenue", "amenity": "restaurant", "building": "yes", "building:levels": "1", "chicago:building_id": "340087", "cuisine": "mexican", "name": "El Taco Veloz"}}, {"type": "way", "id": 209839539, "nodes": [2200032209, 2200032617, 2200032621, 2200032211, 2200032209], "tags": {"addr:housenumber": "1800", "addr:street": "West Grand Avenue", "addr:street:name": "Grand", "addr:street:prefix": "West", "addr:street:type": "Avenue", "amenity": "restaurant", "building": "yes", "building:levels": "2", "chicago:building_id": "348688", "cuisine": "breakfast", "name": "Breakfast House"}}, {"type": "way", "id": 209846451, "nodes": [2200107680, 2200107795, 2200107958, 2200108058, 2200108076, 2200107714, 2200107680], "tags": {"addr:housenumber": "1035", "addr:street": "North Ashland Avenue", "addr:street:name": "Ashland", "addr:street:prefix": "North", "addr:street:type": "Avenue", "amenity": "restaurant", "building": "yes", "building:levels": "1", "chicago:building_id": "327552", "cuisine": "mexican", "name": "El Barco Mariscos"}}, {"type": "way", "id": 209846687, "nodes": [2200109452, 2200109752, 2200111113, 2200111013, 2200109452], "tags": {"addr:city": "Chicago", "addr:housenumber": "1072", "addr:postcode": "60642", "addr:state": "IL", "addr:street": "North Milwaukee Avenue", "addr:street:name": "Milwaukee", "addr:street:prefix": "North", "addr:street:type": "Avenue", "amenity": "restaurant", "building": "yes", "building:levels": "2", "chicago:building_id": "326171", "name": "The Frontier", "phone": "+1-773-772-4322", "website": "https://www.thefrontierchicago.com/", "wikidata": "Q16993845", "wikipedia": "en:Frontier (restaurant)"}}, {"type": "way", "id": 209847822, "nodes": [2200116752, 2200117190, 2200117197, 2200116765, 2200116752], "tags": {"addr:city": "Chicago", "addr:housenumber": "1549", "addr:postcode": "60642", "addr:state": "IL", "addr:street": "West Division Street", "addr:street:name": "Division", "addr:street:prefix": "West", "addr:street:type": "Street", "amenity": "restaurant", "building": "yes", "building:levels": "1", "chicago:building_id": "322607", "cuisine": "polish", "name": "Podhalanka", "phone": "+1-773-486-6655"}}, {"type": "way", "id": 209847967, "nodes": [2200116824, 2200117168, 2200117172, 2200117170, 2200116828, 2200116829, 2200116824], "tags": {"addr:city": "Chicago", "addr:housenumber": "1649", "addr:postcode": "60622", "addr:state": "IL", "addr:street": "West Division Street", "addr:street:name": "Division", "addr:street:prefix": "West", "addr:street:type": "Street", "amenity": "bar", "building": "yes", "building:levels": "2", "chicago:building_id": "322703", "name": "Rite Liquors", "phone": "+1-773-486-6257", "website": "http://riteliquors-chicago.com/"}}, {"type": "way", "id": 209848060, "nodes": [2200116842, 2200117156, 2200117157, 2200116845, 2200116842], "tags": {"addr:city": "Chicago", "addr:housenumber": "1707", "addr:postcode": "60622", "addr:street": "West Division Street", "addr:street:name": "Division", "addr:street:prefix": "West", "addr:street:type": "Street", "amenity": "restaurant", "building": "yes", "building:levels": "3", "chicago:building_id": "322747", "cuisine": "pizza", "name": "Pizza Metro", "opening_hours": "Su-Th 11:00-00:15; Fr-Sa 11:00-02:15", "phone": "773-278-1753", "website": "http://mypizzametro.com/"}}, {"type": "way", "id": 209853881, "nodes": [2200128756, 2200129088, 2200129091, 2200128760, 2200128756], "tags": {"addr:housenumber": "1800", "addr:street": "West Division Street", "addr:street:name": "Division", "addr:street:prefix": "West", "addr:street:type": "Street", "amenity": "bar", "building": "yes", "chicago:building_id": "322010", "name": "Phyllis' Musical Inn"}}, {"type": "way", "id": 210269961, "nodes": [2203583502, 2203583715, 2203583724, 2203583591, 2203583587, 2203583552, 2203583549, 2203583453, 2203583448, 2203583502], "tags": {"addr:city": "Chicago", "addr:housenumber": "1321", "addr:postcode": "60642", "addr:street": "West Grand Avenue", "addr:street:name": "Grand", "addr:street:prefix": "West", "addr:street:type": "Avenue", "amenity": "restaurant", "building": "yes", "chicago:building_id": "348949", "cuisine": "pizza", "name": "Coalfire", "phone": "312.226.2625", "website": "http://coalfirechicago.com/"}}, {"type": "way", "id": 210270387, "nodes": [2203580648, 2203580768, 2203580772, 2203580662, 2203580648], "tags": {"addr:city": "Chicago", "addr:housenumber": "440", "addr:postcode": "60642", "addr:state": "IL", "addr:street": "North Aberdeen Street", "addr:street:name": "Aberdeen", "addr:street:prefix": "North", "addr:street:type": "Street", "amenity": "bar", "building": "yes", "chicago:building_id": "350040", "name": "The Aberdeen Tap", "opening_hours": "Su-Fr 11:00-02:00; Sa 11:00-03:00", "phone": "+1-312-929-3845", "website": "http://theaberdeentap.com/", "wheelchair": "limited"}}, {"type": "way", "id": 210270390, "nodes": [2203580582, 2203580748, 2203580750, 2203580583, 2203580582], "tags": {"addr:housenumber": "440", "addr:street": "North Racine Avenue", "addr:street:name": "Racine", "addr:street:prefix": "North", "addr:street:type": "Avenue", "amenity": "restaurant", "building": "yes", "chicago:building_id": "350062", "name": "Mart Anthony's"}}, {"type": "way", "id": 230398414, "nodes": [2389087654, 2389087661, 2389087641, 2389087647, 2389087653, 2389087619, 2389087638, 2389087645, 2389087622, 2389087640, 2389087646, 2389087620, 2389087659, 2389087652, 2389087642, 2389087648, 2389087635, 2389087644, 5272952065, 2389087623, 2389087643, 2389087631, 2389087651, 2389087660, 7675964055, 2389087649, 2389087628, 2389087658, 2389087637, 2389087625, 2389087650, 2389087636, 2389087633, 2389087627, 2389087639, 2389087629, 2389087657, 7607793128, 7607793125, 2389087624, 2389087626, 2389087632, 3188221401], "tags": {"electrified": "rail", "frequency": "0", "gauge": "1435", "layer": "-2", "level": "0", "name": "Dearborn Street Subway", "oneway": "yes", "operator": "Chicago Transit Authority", "railway": "subway", "tunnel": "yes", "voltage": "600"}}, {"type": "way", "id": 312901443, "nodes": [3188221400, 258281900, 258281901, 5272963174, 7607793127, 7607793126, 258957456, 1613640702, 258281903, 1613640678, 706968780, 1613640656, 706968781, 873051690, 5272959956, 5272959957, 5272952067, 258957458, 1606917431, 706968782, 258957459, 706968784, 5272952066, 6991303059, 258957340, 7662839840, 736637716, 7015621558, 258281905, 707905319, 707905321, 258281906, 365489352, 707905651, 258281907, 5272952064, 7676191090, 7676191091, 258281909, 7676191092, 5272957251, 7676191093, 7676191096, 7676191098, 6774960135, 365489153, 736035819, 736035820, 365489154, 736035821, 736035822, 258025450], "tags": {"electrified": "rail", "frequency": "0", "gauge": "1435", "layer": "-2", "level": "-1", "name": "Dearborn Street Subway", "oneway": "yes", "operator": "Chicago Transit Authority", "railway": "subway", "tunnel": "yes", "voltage": "600"}}]}