{"version": 0.6, "generator": "Overpass API 0.7.56.1004 6cd3eaec", "osm3s": {"timestamp_osm_base": "2020-07-21T23:07:02Z", "copyright": "The data included in this document is from www.openstreetmap.org. The data is made available under ODbL."}, "elements": [{"type": "node", "id": 1130094835, "lat": 41.922644, "lon": -87.697483, "tags": {"addr:city": "Chicago", "addr:housenumber": "2230", "addr:postcode": "60647", "addr:street": "North California Avenue", "amenity": "bar", "food": "yes", "name": "Logan Bar", "outdoor_seating": "yes", "phone": "+1-773-252-1110", "website": "loganchicago.com", "wheelchair": "yes"}}, {"type": "node", "id": 1262345400, "lat": 41.923399, "lon": -87.698384, "tags": {"addr:city": "Chicago", "addr:housenumber": "2320", "addr:postcode": "60647", "addr:street": "North Milwaukee Avenue", "amenity": "restaurant", "cuisine": "mexican", "name": "2 Amigos", "smoking": "no", "takeaway": "yes"}}, {"type": "node", "id": 1262346097, "lat": 41.9236445, "lon": -87.6988013, "tags": {"addr:city": "Chicago", "addr:housenumber": "2338", "addr:postcode": "60647", "addr:street": "North Milwaukee Avenue", "amenity": "bar", "atm": "yes", "food": "no", "name": "Cole's Bar", "outdoor_seating": "no", "smoking": "no"}}, {"type": "node", "id": 1585431689, "lat": 41.9175173, "lon": -87.7092157, "tags": {"amenity": "restaurant", "cuisine": "mexican", "name": "Soul del Sur"}}, {"type": "node", "id": 1700855278, "lat": 41.9244862, "lon": -87.7112831, "tags": {"amenity": "cafe", "name": "Cafe Bella"}}, {"type": "node", "id": 1700855339, "lat": 41.9244801, "lon": -87.713164, "tags": {"addr:city": "Chicago", "addr:housenumber": "3425", "addr:postcode": "60647", "addr:state": "IL", "addr:street": "West Fullerton Avenue", "amenity": "bar", "name": "The Burlington", "phone": "+1-773-384-3243", "website": "theburlingtonbar.com"}}, {"type": "node", "id": 1755524965, "lat": 41.917421, "lon": -87.7128202}, {"type": "node", "id": 1755524994, "lat": 41.9174233, "lon": -87.7127375}, {"type": "node", "id": 1755525195, "lat": 41.9175015, "lon": -87.7127404}, {"type": "node", "id": 1755525196, "lat": 41.9175016, "lon": -87.7127569}, {"type": "node", "id": 1755525296, "lat": 41.9175495, "lon": -87.7127399}, {"type": "node", "id": 1755525297, "lat": 41.9175497, "lon": -87.7127601}, {"type": "node", "id": 1755525551, "lat": 41.9176282, "lon": -87.7128292}, {"type": "node", "id": 1755525555, "lat": 41.9176305, "lon": -87.7127428}, {"type": "node", "id": 1755605926, "lat": 41.9243256, "lon": -87.7148772}, {"type": "node", "id": 1755605929, "lat": 41.9243266, "lon": -87.7148037}, {"type": "node", "id": 1755606003, "lat": 41.92439, "lon": -87.7148619}, {"type": "node", "id": 1755606004, "lat": 41.9243901, "lon": -87.7148784}, {"type": "node", "id": 1755606044, "lat": 41.9244117, "lon": -87.7148065}, {"type": "node", "id": 1755606047, "lat": 41.9244133, "lon": -87.7148635}, {"type": "node", "id": 1755606048, "lat": 41.9244134, "lon": -87.71488}, {"type": "node", "id": 1755606062, "lat": 41.9244171, "lon": -87.7147955}, {"type": "node", "id": 1755606103, "lat": 41.9244445, "lon": -87.714797}, {"type": "node", "id": 1755606122, "lat": 41.9244514, "lon": -87.7148043}, {"type": "node", "id": 1755606174, "lat": 41.9244917, "lon": -87.7148829}, {"type": "node", "id": 1755606176, "lat": 41.9244926, "lon": -87.7148058}, {"type": "node", "id": 2196202533, "lat": 41.9175502, "lon": -87.7012866}, {"type": "node", "id": 2196202677, "lat": 41.9176383, "lon": -87.691975}, {"type": "node", "id": 2196202683, "lat": 41.9176422, "lon": -87.6917584}, {"type": "node", "id": 2196202738, "lat": 41.9177234, "lon": -87.7014016}, {"type": "node", "id": 2196202741, "lat": 41.9177234, "lon": -87.7012512}, {"type": "node", "id": 2196202833, "lat": 41.917758, "lon": -87.6917659}, {"type": "node", "id": 2196202906, "lat": 41.9177593, "lon": -87.6918226}, {"type": "node", "id": 2196202907, "lat": 41.9177896, "lon": -87.6918307}, {"type": "node", "id": 2196202979, "lat": 41.9177639, "lon": -87.6918958}, {"type": "node", "id": 2196202980, "lat": 41.9177911, "lon": -87.6918836}, {"type": "node", "id": 2196212544, "lat": 41.9199429, "lon": -87.693305}, {"type": "node", "id": 2196212651, "lat": 41.9199844, "lon": -87.6933707}, {"type": "node", "id": 2196213642, "lat": 41.9201501, "lon": -87.6930714}, {"type": "node", "id": 2196213756, "lat": 41.9201916, "lon": -87.6931372}, {"type": "node", "id": 2196219001, "lat": 41.9215776, "lon": -87.6956256}, {"type": "node", "id": 2196219109, "lat": 41.9216007, "lon": -87.6955813}, {"type": "node", "id": 2196219159, "lat": 41.9216076, "lon": -87.6955922}, {"type": "node", "id": 2196219243, "lat": 41.9216164, "lon": -87.6956877}, {"type": "node", "id": 2196219263, "lat": 41.9216286, "lon": -87.6956595}, {"type": "node", "id": 2196219376, "lat": 41.9216341, "lon": -87.6956673}, {"type": "node", "id": 2196219430, "lat": 41.9216422, "lon": -87.6956433}, {"type": "node", "id": 2196219524, "lat": 41.9216498, "lon": -87.6955275}, {"type": "node", "id": 2196219791, "lat": 41.9216762, "lon": -87.6955934}, {"type": "node", "id": 2196219836, "lat": 41.9216817, "lon": -87.6956007}, {"type": "node", "id": 2196219846, "lat": 41.9216844, "lon": -87.6955841}, {"type": "node", "id": 2196223815, "lat": 41.9222373, "lon": -87.6970668}, {"type": "node", "id": 2196224182, "lat": 41.92233, "lon": -87.6972055}, {"type": "node", "id": 2196224337, "lat": 41.9223909, "lon": -87.6970506}, {"type": "node", "id": 2196224360, "lat": 41.9224214, "lon": -87.6970962}, {"type": "node", "id": 2196224379, "lat": 41.9224336, "lon": -87.6968315}, {"type": "node", "id": 2196224793, "lat": 41.9224959, "lon": -87.6969228}, {"type": "node", "id": 2196231356, "lat": 41.9236958, "lon": -87.6970468}, {"type": "node", "id": 2196231359, "lat": 41.9236974, "lon": -87.6970927}, {"type": "node", "id": 2196231368, "lat": 41.9237006, "lon": -87.6971772}, {"type": "node", "id": 2196231378, "lat": 41.9237018, "lon": -87.6971441}, {"type": "node", "id": 2196231381, "lat": 41.9237024, "lon": -87.6970063}, {"type": "node", "id": 2196231382, "lat": 41.9237024, "lon": -87.6972562}, {"type": "node", "id": 2196231383, "lat": 41.9237026, "lon": -87.6970394}, {"type": "node", "id": 2196231387, "lat": 41.9237034, "lon": -87.697179}, {"type": "node", "id": 2196231402, "lat": 41.9237112, "lon": -87.6971054}, {"type": "node", "id": 2196231405, "lat": 41.9237114, "lon": -87.6971348}, {"type": "node", "id": 2196231455, "lat": 41.9237299, "lon": -87.6972578}, {"type": "node", "id": 2196231485, "lat": 41.9237354, "lon": -87.6972669}, {"type": "node", "id": 2196231530, "lat": 41.9237436, "lon": -87.6970077}, {"type": "node", "id": 2196231531, "lat": 41.9237438, "lon": -87.6970463}, {"type": "node", "id": 2196231640, "lat": 41.9237547, "lon": -87.6972685}, {"type": "node", "id": 2196231710, "lat": 41.9237601, "lon": -87.6972593}, {"type": "node", "id": 2196231762, "lat": 41.923767, "lon": -87.6972611}, {"type": "node", "id": 2196231771, "lat": 41.9237699, "lon": -87.6970479}, {"type": "node", "id": 2196695425, "lat": 41.9241082, "lon": -87.6991295}, {"type": "node", "id": 2196695561, "lat": 41.9241487, "lon": -87.6991953}, {"type": "node", "id": 2196695766, "lat": 41.9241913, "lon": -87.6992647}, {"type": "node", "id": 2196696161, "lat": 41.9242805, "lon": -87.69941}, {"type": "node", "id": 2196696257, "lat": 41.9242987, "lon": -87.6989277}, {"type": "node", "id": 2196696452, "lat": 41.924335, "lon": -87.6989873}, {"type": "node", "id": 2196696471, "lat": 41.9243377, "lon": -87.6989917}, {"type": "node", "id": 2196697224, "lat": 41.92441, "lon": -87.6989119}, {"type": "node", "id": 2196697314, "lat": 41.9244147, "lon": -87.6989119}, {"type": "node", "id": 2196697466, "lat": 41.9244412, "lon": -87.6989855}, {"type": "node", "id": 2196697468, "lat": 41.9244412, "lon": -87.6989892}, {"type": "node", "id": 2196697476, "lat": 41.924442, "lon": -87.6989891}, {"type": "node", "id": 2196697718, "lat": 41.9244864, "lon": -87.6991699}, {"type": "node", "id": 2196697732, "lat": 41.9244891, "lon": -87.6991698}, {"type": "node", "id": 2196698996, "lat": 41.9246571, "lon": -87.6991752}, {"type": "node", "id": 2196699000, "lat": 41.9246591, "lon": -87.6990002}, {"type": "node", "id": 2393555254, "lat": 41.9175501, "lon": -87.7013997}, {"type": "node", "id": 2403040378, "lat": 41.924632, "lon": -87.699928, "tags": {"addr:city": "Chicago", "addr:housenumber": "2385", "addr:postcode": "60647", "addr:street": "North Milwaukee Avenue", "amenity": "cafe", "drive_through": "no", "internet_access": "wlan", "name": "Gaslight Coffee Roasters", "outdoor_seating": "no", "smoking": "no", "takeaway": "yes", "wheelchair": "yes"}}, {"type": "node", "id": 2461374190, "lat": 41.922552, "lon": -87.697519, "tags": {"addr:city": "Chicago", "addr:housenumber": "2226", "addr:postcode": "60647", "addr:state": "IL", "addr:street": "North California Avenue", "amenity": "restaurant", "cuisine": "mexican", "name": "Taqueria Moran", "phone": "+1-773-235-2663", "wheelchair": "limited"}}, {"type": "node", "id": 2591867080, "lat": 41.917247, "lon": -87.7101436, "tags": {"addr:city": "Chicago", "addr:housenumber": "3281", "addr:postcode": "60647", "addr:state": "IL", "addr:street": "West Armitage Avenue", "amenity": "bar", "name": "Best Intentions", "phone": "+1-312-818-1254", "website": "http://www.bestintentionschicago.com/"}}, {"type": "node", "id": 2665801433, "lat": 41.917717, "lon": -87.6919771}, {"type": "node", "id": 2665801438, "lat": 41.9177654, "lon": -87.6919791}, {"type": "node", "id": 2732205615, "lat": 41.9233284, "lon": -87.6978085, "tags": {"addr:city": "Chicago", "addr:housenumber": "2313", "addr:postcode": "60647", "addr:state": "IL", "addr:street": "North Milwaukee Avenue", "amenity": "cafe", "name": "Cafe Mustache", "phone": "+1-773-687-9063", "website": "http://www.cafemustache.com/"}}, {"type": "node", "id": 2761648471, "lat": 41.9237455, "lon": -87.6983641, "tags": {"addr:city": "Chicago", "addr:housenumber": "2333", "addr:postcode": "60647", "addr:state": "IL", "addr:street": "North Milwaukee Avenue", "amenity": "restaurant", "name": "The Chicago Diner", "phone": "+1-773-252-3211", "website": "http://www.veggiediner.com/", "wheelchair:description": "they have a ramp to get over the small entrance step"}}, {"type": "node", "id": 2761689189, "lat": 41.921848, "lon": -87.6974778, "tags": {"amenity": "bar", "name": "Township"}}, {"type": "node", "id": 2761695654, "lat": 41.91902, "lon": -87.6971023, "tags": {"amenity": "cafe", "name": "Bang Bang Pie Shop"}}, {"type": "node", "id": 2789537651, "lat": 41.9173555, "lon": -87.6984206, "tags": {"addr:city": "Chicago", "addr:housenumber": "2829", "addr:postcode": "60647", "addr:state": "IL", "addr:street": "West Armitage Avenue", "amenity": "restaurant", "cuisine": "mexican", "name": "Dos Urban Cantina", "opening_hours": "Tu-Th 17:00-21:00; Fr-Sa 17:00-23:00; Su 17:00-21:00", "phone": "+1-773-661-6452", "website": "https://dosurbancantina.com", "wheelchair": "no"}}, {"type": "node", "id": 3232688565, "lat": 41.9220029, "lon": -87.6974958, "tags": {"amenity": "restaurant", "name": "Masada"}}, {"type": "node", "id": 3551841162, "lat": 41.9176933, "lon": -87.6982559, "tags": {"addr:city": "Chicago", "addr:housenumber": "2824", "addr:postcode": "60647", "addr:state": "IL", "addr:street": "West Armitage Avenue", "amenity": "restaurant", "cuisine": "italian", "name": "Osteria Langhe", "phone": "+1-773-661-1582", "website": "https://www.osterialanghe.com/"}}, {"type": "node", "id": 3551845150, "lat": 41.9172774, "lon": -87.7072038, "tags": {"addr:city": "Chicago", "addr:housenumber": "3201", "addr:postcode": "60647", "addr:state": "IL", "addr:street": "West Armitage Avenue", "amenity": "restaurant", "name": "Scofflaw", "phone": "+1-773-252-9700", "website": "https://www.scofflawchicago.com/"}}, {"type": "node", "id": 3551845848, "lat": 41.9172729, "lon": -87.7075819, "tags": {"amenity": "restaurant", "name": "Sink|Swim"}}, {"type": "node", "id": 3563902071, "lat": 41.9196387, "lon": -87.691747, "tags": {"amenity": "restaurant", "brand": "Wasabi", "brand:wikidata": "Q23891278", "brand:wikipedia": "en:Wasabi (restaurant)", "cuisine": "japanese", "name": "Wasabi"}}, {"type": "node", "id": 3570191046, "lat": 41.9128303, "lon": -87.6972374, "tags": {"amenity": "restaurant", "cuisine": "puerto_rican", "name": "El Nuevo Borinquen"}}, {"type": "node", "id": 3570237498, "lat": 41.9239504, "lon": -87.6994139, "tags": {"addr:city": "Chicago", "addr:housenumber": "2354", "addr:postcode": "60647", "addr:state": "IL", "addr:street": "North Milwaukee Avenue", "amenity": "bar", "name": "East Room", "phone": "+1-773-698-8774", "website": "http://www.eastroomchicago.com/"}}, {"type": "node", "id": 3570243600, "lat": 41.91811, "lon": -87.6978544, "tags": {"amenity": "restaurant", "cuisine": "chinese", "name": "China Fast Wok"}}, {"type": "node", "id": 3570245693, "lat": 41.917622, "lon": -87.7012335}, {"type": "node", "id": 3570245694, "lat": 41.9176832, "lon": -87.7012494}, {"type": "node", "id": 3570245695, "lat": 41.9176832, "lon": -87.7012371}, {"type": "node", "id": 3570245696, "lat": 41.9176213, "lon": -87.7012893}, {"type": "node", "id": 3574998907, "lat": 41.9172747, "lon": -87.7078352, "tags": {"amenity": "restaurant", "cuisine": "puerto_rican", "name": "La Bomba"}}, {"type": "node", "id": 3575000275, "lat": 41.9172369, "lon": -87.7108623, "tags": {"addr:city": "Chicago", "addr:country": "US", "addr:housenumber": "3313-3315", "addr:postcode": "60647", "addr:state": "IL", "addr:street": "West Armitage Avenue", "amenity": "restaurant", "cuisine": "vegetarian;vegan;american", "delivery": "yes", "diet:vegan": "yes", "diet:vegetarian": "only", "name": "Ground Control", "phone": "+1-773-772-9446", "website": "https://www.groundcontrolchicago.com/"}}, {"type": "node", "id": 3575018318, "lat": 41.9183967, "lon": -87.6970911, "tags": {"addr:city": "Chicago", "addr:housenumber": "2023", "addr:postcode": "60647", "addr:state": "IL", "addr:street": "North California Avenue", "amenity": "cafe", "cuisine": "coffee_shop", "name": "La Strada Cafe Bar", "phone": "+1-708-627-0403", "website": "https://www.lastradacafebar.com/"}}, {"type": "node", "id": 3581811864, "lat": 41.917563, "lon": -87.703649, "tags": {"amenity": "restaurant", "cuisine": "pizza", "name": "Dante's Pizzeria"}}, {"type": "node", "id": 3581811866, "lat": 41.9107207, "lon": -87.7070256, "tags": {"amenity": "restaurant", "cuisine": "sushi", "name": "Zoku Sushi"}}, {"type": "node", "id": 3581811869, "lat": 41.9098615, "lon": -87.7134735, "tags": {"addr:city": "Chicago", "addr:housenumber": "3437", "addr:postcode": "60651", "addr:state": "IL", "addr:street": "West North Avenue", "amenity": "restaurant", "name": "La Encantada", "phone": "+1-773-489-5026", "website": "https://www.laencantadashoppingcenter.com/"}}, {"type": "node", "id": 3659163381, "lat": 41.9171509, "lon": -87.7065151, "tags": {"addr:city": "Chicago", "addr:housenumber": "3129", "addr:postcode": "60647", "addr:state": "IL", "addr:street": "West Armitage Avenue", "amenity": "restaurant", "name": "Logan Eats", "phone": "+1-773-697-7330", "website": "https://www.loganeats.com/"}}, {"type": "node", "id": 3659163383, "lat": 41.9175442, "lon": -87.70471, "tags": {"amenity": "restaurant", "name": "Cheng Chopsticks"}}, {"type": "node", "id": 3659169362, "lat": 41.9176017, "lon": -87.698441, "tags": {"amenity": "restaurant", "name": "SFR"}}, {"type": "node", "id": 3659172691, "lat": 41.9100888, "lon": -87.6938521, "tags": {"addr:city": "Chicago", "addr:housenumber": "2465", "addr:postcode": "60622", "addr:state": "IL", "addr:street": "West North Avenue", "amenity": "bar", "name": "Boulevard Sports Lounge", "phone": "+1-773-687-8456", "website": "http://www.boulevardsportslounge.com/"}}, {"type": "node", "id": 3659172692, "lat": 41.910114, "lon": -87.6927745, "tags": {"amenity": "cafe", "name": "Se\u00f1or Pan Cafe"}}, {"type": "node", "id": 3673559735, "lat": 41.9103602, "lon": -87.7013592, "tags": {"addr:city": "Chicago", "addr:housenumber": "2958", "addr:postcode": "60647", "addr:state": "IL", "addr:street": "West North Avenue", "amenity": "restaurant", "name": "Humboldt Haus", "phone": "+1-773-697-9590"}}, {"type": "node", "id": 3673564376, "lat": 41.9103428, "lon": -87.703029, "tags": {"addr:city": "Chicago", "addr:housenumber": "3018", "addr:postcode": "60647", "addr:state": "IL", "addr:street": "West North Avenue", "amenity": "bar", "name": "Humble Bar & Lounge", "phone": "+1-773-661-2419"}}, {"type": "node", "id": 3819197957, "lat": 41.924249, "lon": -87.6988885, "tags": {"addr:city": "Chicago", "addr:housenumber": "2357", "addr:postcode": "60647", "addr:state": "IL", "addr:street": "North Milwaukee Avenue", "addr:unit": "2", "amenity": "bar", "name": "The Heavy Feather", "website": "https://www.heavyfeatherchicago.com/"}}, {"type": "node", "id": 3819197958, "lat": 41.9246316, "lon": -87.6994251, "tags": {"amenity": "cafe", "name": "DAS"}}, {"type": "node", "id": 3882069859, "lat": 41.9244787, "lon": -87.7134416, "tags": {"amenity": "bar", "name": "Acapulco Night Club"}}, {"type": "node", "id": 3882086458, "lat": 41.9244563, "lon": -87.7140572, "tags": {"amenity": "restaurant", "cuisine": "puerto_rican", "name": "Cafeteria Marcela's"}}, {"type": "node", "id": 3996419870, "lat": 41.917355, "lon": -87.698579, "tags": {"amenity": "restaurant", "cuisine": "pizza", "name": "Ugo's"}}, {"type": "node", "id": 4039273390, "lat": 41.9135894, "lon": -87.6972582, "tags": {"addr:city": "Chicago", "addr:country": "US", "addr:housenumber": "1752", "addr:postcode": "60647", "addr:state": "IL", "addr:street": "North California Avenue", "amenity": "cafe", "name": "Donut Delight"}}, {"type": "node", "id": 4072448988, "lat": 41.9172859, "lon": -87.7074829, "tags": {"addr:city": "Chicago", "addr:housenumber": "3209", "addr:postcode": "60647", "addr:state": "IL", "addr:street": "West Armitage Avenue", "amenity": "restaurant", "cuisine": "american;american_new;new_american", "name": "Giant", "phone": "+1-773-252-0997", "website": "http://www.giantrestaurant.com"}}, {"type": "node", "id": 4499383715, "lat": 41.9099427, "lon": -87.7090096, "tags": {"amenity": "restaurant", "cuisine": "mexican", "name": "La Perla Tapatia"}}, {"type": "node", "id": 4541895189, "lat": 41.9171209, "lon": -87.711505, "tags": {"addr:city": "Chicago", "addr:country": "US", "addr:housenumber": "3327", "addr:postcode": "60647", "addr:state": "IL", "addr:street": "West Armitage Avenue", "amenity": "restaurant", "cuisine": "mexican", "name": "Tacos Garcias"}}, {"type": "node", "id": 4676051017, "lat": 41.9172177, "lon": -87.7110484, "tags": {"addr:city": "Chicago", "addr:country": "US", "addr:housenumber": "3317", "addr:postcode": "60647", "addr:state": "IL", "addr:street": "West Armitage Avenue", "amenity": "cafe", "name": "Damn Fine Coffee Bar", "phone": "+1-773-904-7051", "website": "http://www.damnfinechicago.com/"}}, {"type": "node", "id": 4741715729, "lat": 41.9242272, "lon": -87.7143073, "tags": {"addr:city": "Chicago", "addr:housenumber": "3509", "addr:postcode": "60647", "addr:state": "IL", "addr:street": "West Fullerton Avenue", "amenity": "restaurant", "name": "Park & Field", "outdoor_seating": "yes", "phone": "+1-765-426-6657", "smoking": "no", "website": "http://parkandfieldchicago.com/"}}, {"type": "node", "id": 4886579356, "lat": 41.9207382, "lon": -87.693428, "tags": {"addr:city": "Chicago", "addr:housenumber": "2169", "addr:postcode": "60647", "addr:state": "IL", "addr:street": "North Milwaukee Avenue", "amenity": "restaurant", "name": "Serai", "phone": "+1-872-206-8368", "website": "http://www.seraichicago.com/"}}, {"type": "node", "id": 5171385697, "lat": 41.9209586, "lon": -87.6938554, "tags": {"addr:city": "Chicago", "addr:housenumber": "2211", "addr:postcode": "60647", "addr:state": "IL", "addr:street": "North Milwaukee Avenue", "amenity": "bar", "name": "Navigator Taproom", "phone": "+1-773-687-9135", "smoking": "no", "website": "https://www.navigatortaproom.com/"}}, {"type": "node", "id": 5301228166, "lat": 41.9196328, "lon": -87.6969945, "tags": {"addr:city": "Chicago", "addr:housenumber": "2101", "addr:postcode": "60647", "addr:state": "IL", "addr:street": "North California Avenue", "addr:unit": "Basement", "amenity": "bar", "name": "Golden Teardrops", "operator": "Land & Sea Dept.", "phone": "+1-773-770-3414", "website": "http://goldenteardrops.com/"}}, {"type": "node", "id": 5301228167, "lat": 41.9195959, "lon": -87.6970841, "tags": {"addr:city": "Chicago", "addr:housenumber": "2101", "addr:postcode": "60647", "addr:state": "IL", "addr:street": "North California Avenue", "amenity": "restaurant", "name": "Lonesome Rose", "operator": "Land & Sea Dept.", "phone": "+1-773-770-3414", "website": "http://lonesomerose.com/"}}, {"type": "node", "id": 5340079272, "lat": 41.9211195, "lon": -87.7121435, "tags": {"addr:city": "Chicago", "addr:housenumber": "2200", "addr:postcode": "60647", "addr:state": "IL", "addr:street": "North Kimball Avenue", "amenity": "restaurant", "cuisine": "dominican", "entrance": "yes", "name": "Punta Cana Restaurant", "phone": "+1-773-292-7400", "website": "http://www.puntacanadominicanrestaurant.com/"}}, {"type": "node", "id": 5701445166, "lat": 41.9175853, "lon": -87.6998369, "tags": {"addr:city": "Chicago", "addr:housenumber": "2910", "addr:postcode": "60647", "addr:state": "IL", "addr:street": "West Armitage Avenue", "amenity": "restaurant", "cuisine": "mexican", "facebook": "https://www.facebook.com/Freshjapeno/", "fax": "+1-773-227-9840", "name": "Super Jalapeno Grill", "opening_hours": "Mo-Sa 10:00-22:00; Su 11:00-22:00", "payment:american_express": "yes", "payment:cash": "yes", "payment:discover_card": "yes", "payment:mastercard": "yes", "payment:visa": "yes", "phone": "+1-773-227-9850", "website": "http://superjalapenochicago.com"}}, {"type": "node", "id": 5718019379, "lat": 41.9175048, "lon": -87.708007, "tags": {"addr:city": "Chicago", "addr:housenumber": "3222", "addr:postcode": "60647", "addr:state": "IL", "addr:street": "West Armitage Avenue", "amenity": "restaurant", "cuisine": "mexican", "name": "El Heredero", "outdoor_seating": "no", "smoking": "no", "takeaway": "yes"}}, {"type": "node", "id": 5769288152, "lat": 41.9177215, "lon": -87.7072785, "tags": {"addr:city": "Chicago", "addr:housenumber": "3204", "addr:postcode": "60647", "addr:state": "IL", "addr:street": "West Armitage Avenue", "amenity": "bar", "name": "The Moonlighter", "operator": "Scofflaw Group", "outdoor_seating": "yes"}}, {"type": "node", "id": 5794904574, "lat": 41.909773, "lon": -87.7071905, "tags": {"addr:city": "Chicago", "addr:housenumber": "1552", "addr:postcode": "60651", "addr:state": "IL", "addr:street": "North Kedzie Avenue", "amenity": "restaurant", "cuisine": "colombian", "delivery": "yes", "name": "ArePA George", "opening_hours": "Tu-Fr 11:00-19:00; Sa 11:00-20:00; Su 11:00-16:00", "outdoor_seating": "no", "phone": "+1-773-969-7945", "smoking": "no", "takeaway": "yes"}}, {"type": "node", "id": 6249982165, "lat": 41.9101156, "lon": -87.6927943, "tags": {"addr:city": "Chicago", "addr:housenumber": "2615", "addr:postcode": "60647", "addr:state": "IL", "addr:street": "West North Avenue", "amenity": "restaurant", "cuisine": "cuban", "name": "1492 Cuban Fusion", "phone": "+1-773 227-9601", "website": "http://1492cubanfusion.com/"}}, {"type": "node", "id": 6280505896, "lat": 41.9244495, "lon": -87.7110497, "tags": {"addr:city": "Chicago", "addr:housenumber": "3311", "addr:postcode": "60647", "addr:state": "IL", "addr:street": "West Fullerton Avenue", "amenity": "cafe", "name": "Caribella", "phone": "+1-773-360-8873", "website": "https://caribellachicago.com/"}}, {"type": "node", "id": 6283266140, "lat": 41.9222963, "lon": -87.6958529, "tags": {"addr:city": "Chicago", "addr:housenumber": "2261", "addr:postcode": "60647", "addr:state": "IL", "addr:street": "North Milwaukee Avenue", "amenity": "cafe", "name": "Colectivo Coffee", "phone": "+1-773-799-8557", "website": "http://colectivocoffee.com/cafes/logan-square/"}}, {"type": "node", "id": 6286662313, "lat": 41.9242728, "lon": -87.6990832, "tags": {"addr:city": "Chicago", "addr:housenumber": "2363", "addr:postcode": "60647", "addr:state": "IL", "addr:street": "North Milwaukee Avenue", "amenity": "bar", "name": "Emporium - Logan Square", "phone": "+1-773-360-8774", "website": "https://emporiumchicago.com/"}}, {"type": "node", "id": 6291889411, "lat": 41.9172303, "lon": -87.7078513, "tags": {"addr:city": "Chicago", "addr:housenumber": "3219", "addr:postcode": "60647", "addr:state": "IL", "addr:street": "West Armitage Avenue", "amenity": "bar", "name": "Go Tavern and Liquors", "phone": "+1-773-227-4052", "website": "https://www.gotavern.com/"}}, {"type": "node", "id": 6298802685, "lat": 41.9244457, "lon": -87.7039141, "tags": {"addr:city": "Chicago", "addr:housenumber": "3039", "addr:postcode": "60647", "addr:state": "IL", "addr:street": "West Fullerton Avenue", "amenity": "cafe", "name": "Sip of Hope", "phone": "+1-773-661-6986", "website": "https://sipofhope.com/"}}, {"type": "node", "id": 6298848604, "lat": 41.9242137, "lon": -87.6989691, "tags": {"addr:city": "Chicago", "addr:housenumber": "2357", "addr:postcode": "60647", "addr:state": "IL", "addr:street": "North Milwaukee Avenue", "amenity": "bar", "name": "Slippery Slope", "phone": "+1-773-799-8504", "website": "http://www.slipperyslopechicago.com/"}}, {"type": "node", "id": 6300387387, "lat": 41.9244367, "lon": -87.7109014, "tags": {"addr:city": "Chicago", "addr:housenumber": "3039", "addr:postcode": "60647", "addr:state": "IL", "addr:street": "West Fullerton Avenue", "amenity": "restaurant", "name": "Penumbra Restaurant & Wine Bar", "phone": "+1-773-772-2343", "website": "https://www.penumbrawinebar.com/"}}, {"type": "node", "id": 6300575607, "lat": 41.9195848, "lon": -87.6915995, "tags": {"addr:city": "Chicago", "addr:housenumber": "2101", "addr:postcode": "60647", "addr:state": "IL", "addr:street": "North Milwaukee Avenue", "amenity": "restaurant", "name": "Ramen Wasabi", "phone": "+1-773-227-8180", "website": "http://www.wasabichicago.com/"}}, {"type": "node", "id": 6301752863, "lat": 41.9102381, "lon": -87.7151597, "tags": {"addr:city": "Chicago", "addr:housenumber": "3524", "addr:postcode": "60647", "addr:state": "IL", "addr:street": "West North Avenue", "amenity": "bar", "name": "Steve\u2019s Sports Bar & Lounge", "phone": "+1-773-384-2778"}}, {"type": "node", "id": 6302052366, "lat": 41.9176452, "lon": -87.6997624, "tags": {"addr:city": "Chicago", "addr:housenumber": "2906", "addr:postcode": "60647", "addr:state": "IL", "addr:street": "West Armitage Avenue", "amenity": "restaurant", "name": "The Spice Room", "phone": "+1-773-360-8689", "website": "http://thespiceroomchicago.com/"}}, {"type": "node", "id": 6303047086, "lat": 41.9176924, "lon": -87.695898, "tags": {"addr:city": "Chicago", "addr:housenumber": "2728", "addr:postcode": "60647", "addr:state": "IL", "addr:street": "West Armitage Avenue", "amenity": "restaurant", "name": "Table, Donkey and Stick", "phone": "+1-773-486-8525", "website": "http://tabledonkeystick.com/"}}, {"type": "node", "id": 6303119987, "lat": 41.9175485, "lon": -87.7079694, "tags": {"addr:city": "Chicago", "addr:housenumber": "3222", "addr:postcode": "60647", "addr:state": "IL", "addr:street": "West Armitage Avenue", "amenity": "restaurant", "name": "Taqueria El Heredero", "phone": "+1-312-267-2431", "website": "http://taqueriaelheredero.com/"}}, {"type": "node", "id": 6315668706, "lat": 41.9175996, "lon": -87.7073905, "tags": {"addr:city": "Chicago", "addr:housenumber": "3204", "addr:postcode": "60647", "addr:state": "IL", "addr:street": "West Armitage Avenue", "amenity": "restaurant", "name": "The Moonlighter", "phone": "+1-773-360-8896", "website": "https://www.themoonlighterchicago.com/"}}, {"type": "node", "id": 6319221993, "lat": 41.9173465, "lon": -87.6965099, "tags": {"addr:city": "Chicago", "addr:housenumber": "2745", "addr:postcode": "60647", "addr:state": "IL", "addr:street": "West Armitage Avenue", "amenity": "cafe", "name": "Katherine Anne Confections", "phone": "+1-773-245-1630", "website": "http://www.katherine-anne.com/"}}, {"type": "node", "id": 6324391369, "lat": 41.9245086, "lon": -87.6995198, "tags": {"addr:city": "Chicago", "addr:housenumber": "2375", "addr:postcode": "60647", "addr:state": "IL", "addr:street": "North Milwaukee Avenue", "amenity": "restaurant", "name": "The Radler", "phone": "+1-773-276-0270", "website": "https://www.dasradler.com/"}}, {"type": "node", "id": 6842444176, "lat": 41.924633, "lon": -87.6989436, "tags": {"addr:city": "Chicago", "addr:housenumber": "2839", "addr:postcode": "60647", "addr:state": "IL", "addr:street": "West Fullerton Avenue", "amenity": "cafe", "brand": "La Colombe Coffee Roasters", "brand:wikidata": "Q23461663", "brand:wikipedia": "en:La Colombe Coffee Roasters", "cuisine": "coffee_shop", "name": "La Colombe Coffee Roasters", "short_name": "La Colombe", "takeaway": "yes"}}, {"type": "way", "id": 163885473, "nodes": [1755524965, 1755525551, 1755525555, 1755525296, 1755525297, 1755525196, 1755525195, 1755524994, 1755524965], "tags": {"addr:city": "Chicago", "addr:housenumber": "3420", "addr:postcode": "60647", "addr:street": "West Armitage Avenue", "addr:street:name": "Armitage", "addr:street:prefix": "West", "addr:street:type": "Avenue", "amenity": "bar", "building": "yes", "building:levels": "2", "name": "Rosa's Lounge", "phone": "+1 773-342-0452", "smoking": "no", "website": "http://rosaslounge.com/"}}, {"type": "way", "id": 163896559, "nodes": [1755605926, 1755606004, 1755606003, 1755606047, 1755606048, 1755606174, 1755606176, 1755606122, 1755606103, 1755606062, 1755606044, 1755605929, 1755605926], "tags": {"addr:housenumber": "3525", "addr:postcode": "60647", "addr:street": "West Fullerton Avenue", "addr:street:name": "Fullerton", "addr:street:prefix": "West", "addr:street:type": "Avenue", "amenity": "restaurant", "building": "yes", "chicago:building_id": "265636", "cuisine": "pizza", "name": "Festa Pizzeria"}}, {"type": "way", "id": 209404317, "nodes": [2196212544, 2196212651, 2196213756, 2196213642, 2196212544], "tags": {"addr:housenumber": "2148", "addr:street": "North Milwaukee Avenue", "addr:street:name": "Milwaukee", "addr:street:prefix": "North", "addr:street:type": "Avenue", "amenity": "restaurant", "building": "yes", "building:levels": "1", "chicago:building_id": "278149", "cuisine": "mexican", "name": "Taqueria Los Comales #11"}}, {"type": "way", "id": 209404898, "nodes": [2196219001, 2196219243, 2196219376, 2196219263, 2196219430, 2196219836, 2196219791, 2196219846, 2196219524, 2196219109, 2196219159, 2196219001], "tags": {"addr:housenumber": "2246", "addr:street": "North Milwaukee Avenue", "addr:street:name": "Milwaukee", "addr:street:prefix": "North", "addr:street:type": "Avenue", "amenity": "restaurant", "building": "yes", "building:levels": "1", "chicago:building_id": "273261", "cuisine": "american", "name": "Victory Grill", "takeaway": "only"}}, {"type": "way", "id": 209404946, "nodes": [2196223815, 2196224182, 2196224360, 2196224337, 2196224793, 2196224379, 2196223815], "tags": {"addr:city": "Chicago", "addr:housenumber": "2294", "addr:postcode": "60647", "addr:state": "IL", "addr:street": "North Milwaukee Avenue", "addr:street:name": "Milwaukee", "addr:street:prefix": "North", "addr:street:type": "Avenue", "amenity": "restaurant", "building": "retail", "building:levels": "1", "chicago:building_id": "270777", "name": "Cozy Corner Diner", "phone": "+1-773-276-2215", "website": "http://www.cozycornerrestaurant.com/cozy-corner-logan-square/"}}, {"type": "way", "id": 209405301, "nodes": [2196231356, 2196231359, 2196231402, 2196231405, 2196231378, 2196231368, 2196231387, 2196231382, 2196231455, 2196231485, 2196231640, 2196231710, 2196231762, 2196231771, 2196231531, 2196231530, 2196231381, 2196231383, 2196231356], "tags": {"addr:housenumber": "2331", "addr:street": "North California Avenue", "addr:street:name": "California", "addr:street:prefix": "North", "addr:street:type": "Avenue", "amenity": "restaurant", "building": "yes", "building:levels": "3", "chicago:building_id": "267027", "cuisine": "mexican", "name": "Don Chema"}}, {"type": "way", "id": 209405949, "nodes": [2196202677, 2665801433, 2665801438, 2196202979, 2196202980, 2196202907, 2196202906, 2196202833, 2196202683, 2196202677], "tags": {"addr:city": "Chicago", "addr:housenumber": "2540", "addr:postcode": "60647", "addr:state": "IL", "addr:street": "West Armitage Avenue", "addr:street:name": "Armitage", "addr:street:prefix": "West", "addr:street:type": "Avenue", "amenity": "restaurant", "building": "yes", "building:levels": "1", "chicago:building_id": "286278", "cuisine": "Hispanic,_Cuban", "name": "90 Miles Cuban Cafe", "phone": "+1-773-227-2822", "website": "https://www.90milescubancafe.com/"}}, {"type": "way", "id": 209406792, "nodes": [2196202738, 2196202741, 3570245694, 3570245695, 3570245693, 3570245696, 2196202533, 2393555254, 2196202738], "tags": {"addr:city": "Chicago", "addr:housenumber": "2952", "addr:postcode": "60647", "addr:state": "IL", "addr:street": "West Armitage Avenue", "addr:street:name": "Armitage", "addr:street:prefix": "West", "addr:street:type": "Avenue", "amenity": "restaurant", "building": "yes", "building:levels": "1", "chicago:building_id": "286728", "cuisine": "american", "name": "Parson's Chicken & Fish", "outdoor_seating": "yes", "phone": "+1-773-384-3333", "smoking": "no", "website": "http://www.parsonschickenandfish.com/"}}, {"type": "way", "id": 209454050, "nodes": [2196695766, 2196697466, 2196697314, 2196697224, 2196696471, 2196696452, 2196696257, 2196695425, 2196695561, 2196695766], "tags": {"addr:housenumber": "2359-2361", "addr:street": "North Milwaukee Avenue", "addr:street:name": "Milwaukee", "addr:street:prefix": "North", "addr:street:type": "Avenue", "amenity": "bar", "building": "yes", "building:levels": "1", "chicago:building_id": "850887", "name": "Chicago Distilling Company"}}, {"type": "way", "id": 209456231, "nodes": [2196696161, 2196697718, 2196697732, 2196698996, 2196699000, 2196697476, 2196697468, 2196695766, 2196696161], "tags": {"addr:housenumber": "2841-2843", "addr:street": "West Fullerton Avenue", "addr:street:name": "Fullerton", "addr:street:prefix": "West", "addr:street:type": "Avenue", "amenity": "bar", "building": "yes", "building:levels": "1", "chicago:building_id": "850893", "name": "Emporium Logan Square"}}]}