{"version": 0.6, "generator": "Overpass API 0.7.56.3 eb200aeb", "osm3s": {"timestamp_osm_base": "2020-07-17T21:20:03Z", "copyright": "The data included in this document is from www.openstreetmap.org. The data is made available under ODbL."}, "elements": [{"type": "node", "id": 2148681609, "lat": 41.8383584, "lon": -87.6068198}, {"type": "node", "id": 2148681610, "lat": 41.8383873, "lon": -87.6066832}, {"type": "node", "id": 2148681611, "lat": 41.8386097, "lon": -87.6069156}, {"type": "node", "id": 2148681612, "lat": 41.8386353, "lon": -87.6067833}, {"type": "node", "id": 2206127138, "lat": 41.8240516, "lon": -87.6228886}, {"type": "node", "id": 2206127140, "lat": 41.8240547, "lon": -87.6225827}, {"type": "node", "id": 2206127318, "lat": 41.8241123, "lon": -87.6228897}, {"type": "node", "id": 2206127322, "lat": 41.8241154, "lon": -87.6225838}, {"type": "node", "id": 2209874854, "lat": 41.8384489, "lon": -87.606856}, {"type": "node", "id": 2209874856, "lat": 41.8384773, "lon": -87.6067194}, {"type": "node", "id": 2209874857, "lat": 41.8385132, "lon": -87.6068802}, {"type": "node", "id": 2209874858, "lat": 41.8385417, "lon": -87.6067444}, {"type": "node", "id": 7194066386, "lat": 41.8386156, "lon": -87.6067751}, {"type": "way", "id": 204887609, "nodes": [2148681611, 2148681612, 7194066386, 2209874858, 2209874856, 2148681610, 2148681609, 2209874854, 2209874857, 2148681611], "tags": {"amenity": "restaurant", "building": "yes", "name": "31st Street Beach House"}}, {"type": "way", "id": 210526771, "nodes": [2206127140, 2206127138, 2206127318, 2206127322, 2206127140], "tags": {"addr:housenumber": "3851", "addr:postcode": "60653", "addr:street": "South Michigan Avenue", "addr:street:name": "Michigan", "addr:street:prefix": "South", "addr:street:type": "Avenue", "amenity": "restaurant", "building": "yes", "chicago:building_id": "886140", "cuisine": "meat", "name": "Chicago Rib House"}}]}