{"version": 0.6, "generator": "Overpass API 0.7.56.1004 6cd3eaec", "osm3s": {"timestamp_osm_base": "2020-07-22T04:30:02Z", "copyright": "The data included in this document is from www.openstreetmap.org. The data is made available under ODbL."}, "elements": [{"type": "node", "id": 1699222286, "lat": 41.8237297, "lon": -87.6887584, "tags": {"amenity": "restaurant", "name": "Tio Luis"}}, {"type": "node", "id": 2001846358, "lat": 41.8268079, "lon": -87.68314, "tags": {"amenity": "restaurant", "cuisine": "burger", "name": "Lindy's Chili"}}, {"type": "node", "id": 2001850413, "lat": 41.8319143, "lon": -87.675847, "tags": {"amenity": "restaurant", "name": "Huck Finn Restaurant"}}, {"type": "node", "id": 2001851198, "lat": 41.8324359, "lon": -87.6755413, "tags": {"addr:city": "Chicago", "addr:housenumber": "2000", "addr:postcode": "60608", "addr:street": "West 34th Street", "amenity": "restaurant", "cuisine": "fish,_Mexican,_seafood", "name": "La Palapa Mariscos", "opening_hours": "Su-Th 10:00-22:00; Fr-Sa 10:00-23:00"}}, {"type": "node", "id": 6303046490, "lat": 41.8306416, "lon": -87.675137, "tags": {"addr:city": "Chicago", "addr:housenumber": "1958", "addr:postcode": "60609", "addr:state": "IL", "addr:street": "West 35th Street", "amenity": "cafe", "name": "T Opera Cafe", "phone": "+1-773-823-7410"}}, {"type": "node", "id": 6321500564, "lat": 41.8275902, "lon": -87.6950014, "tags": {"addr:city": "Chicago", "addr:housenumber": "3620", "addr:postcode": "60632", "addr:state": "IL", "addr:street": "South California Avenue", "amenity": "bar", "name": "Mario & Sandra\u2019s", "phone": "+1-773-524-1327", "website": "marioandsandras.com"}}]}