{"version": 0.6, "generator": "Overpass API 0.7.56.1004 6cd3eaec", "osm3s": {"timestamp_osm_base": "2020-07-22T00:39:02Z", "copyright": "The data included in this document is from www.openstreetmap.org. The data is made available under ODbL."}, "elements": [{"type": "node", "id": 1745517144, "lat": 41.9674484, "lon": -87.7684218}, {"type": "node", "id": 1745517149, "lat": 41.9674495, "lon": -87.7683722}, {"type": "node", "id": 1745517356, "lat": 41.9674962, "lon": -87.7683736}, {"type": "node", "id": 1745517359, "lat": 41.9674974, "lon": -87.7683405}, {"type": "node", "id": 1745517541, "lat": 41.9675646, "lon": -87.7683418}, {"type": "node", "id": 1745517548, "lat": 41.9675658, "lon": -87.7683105}, {"type": "node", "id": 1745517601, "lat": 41.9675982, "lon": -87.7684738}, {"type": "node", "id": 1745517611, "lat": 41.9675993, "lon": -87.768426}, {"type": "node", "id": 1745517815, "lat": 41.9676764, "lon": -87.7684768}, {"type": "node", "id": 1745517831, "lat": 41.9676797, "lon": -87.7683132}, {"type": "node", "id": 1745518192, "lat": 41.9679588, "lon": -87.7606604}, {"type": "node", "id": 1745518238, "lat": 41.9679805, "lon": -87.7606161}, {"type": "node", "id": 1745518263, "lat": 41.9680095, "lon": -87.7607055}, {"type": "node", "id": 1745518390, "lat": 41.9680661, "lon": -87.7604443}, {"type": "node", "id": 1745518690, "lat": 41.9681171, "lon": -87.7604917}, {"type": "node", "id": 1745526356, "lat": 41.9694732, "lon": -87.7627962}, {"type": "node", "id": 1745526416, "lat": 41.9694787, "lon": -87.7627851}, {"type": "node", "id": 1745526774, "lat": 41.9694964, "lon": -87.7627592}, {"type": "node", "id": 1745526891, "lat": 41.9695119, "lon": -87.7628547}, {"type": "node", "id": 1745527030, "lat": 41.9695344, "lon": -87.7626816}, {"type": "node", "id": 1745527281, "lat": 41.969556, "lon": -87.7626171}, {"type": "node", "id": 1745527366, "lat": 41.9695716, "lon": -87.7627107}, {"type": "node", "id": 1745527428, "lat": 41.9695785, "lon": -87.762718}, {"type": "node", "id": 1745527899, "lat": 41.9696335, "lon": -87.762462}, {"type": "node", "id": 1745528296, "lat": 41.9696776, "lon": -87.762502}, {"type": "node", "id": 1749666420, "lat": 41.9764995, "lon": -87.7691234}, {"type": "node", "id": 1749666667, "lat": 41.9766354, "lon": -87.7688574}, {"type": "node", "id": 1749666768, "lat": 41.976669, "lon": -87.7692782}, {"type": "node", "id": 1749667082, "lat": 41.9768049, "lon": -87.7690122}, {"type": "node", "id": 4137634824, "lat": 41.967518, "lon": -87.7678363}, {"type": "node", "id": 4137634825, "lat": 41.9675148, "lon": -87.7678368}, {"type": "node", "id": 4137634826, "lat": 41.9675145, "lon": -87.7678586}, {"type": "node", "id": 4137634827, "lat": 41.9674915, "lon": -87.7678583}, {"type": "node", "id": 4137634828, "lat": 41.967491, "lon": -87.7679143}, {"type": "node", "id": 4137634829, "lat": 41.9674525, "lon": -87.7679131}, {"type": "node", "id": 4137634830, "lat": 41.967452, "lon": -87.767953}, {"type": "node", "id": 4137634831, "lat": 41.9673782, "lon": -87.767948}, {"type": "node", "id": 4137634832, "lat": 41.9673805, "lon": -87.7678244}, {"type": "node", "id": 4137634833, "lat": 41.9673741, "lon": -87.7678238}, {"type": "node", "id": 4137634834, "lat": 41.9673773, "lon": -87.7676415}, {"type": "node", "id": 4137634835, "lat": 41.9675064, "lon": -87.767644}, {"type": "node", "id": 4137634836, "lat": 41.967505, "lon": -87.7677433}, {"type": "node", "id": 4137634837, "lat": 41.9675166, "lon": -87.7677433}, {"type": "node", "id": 4137634838, "lat": 41.9675166, "lon": -87.767772}, {"type": "node", "id": 4137634839, "lat": 41.9675189, "lon": -87.7677719}, {"type": "node", "id": 4137634846, "lat": 41.9674539, "lon": -87.7679131}, {"type": "node", "id": 4172392093, "lat": 41.97003, "lon": -87.7628353}, {"type": "node", "id": 4172392094, "lat": 41.9698623, "lon": -87.7631699}, {"type": "node", "id": 4172392095, "lat": 41.9697858, "lon": -87.7631007}, {"type": "node", "id": 4172392096, "lat": 41.9697432, "lon": -87.7631857}, {"type": "node", "id": 4172392097, "lat": 41.9697022, "lon": -87.7631474}, {"type": "node", "id": 4172392098, "lat": 41.9699171, "lon": -87.7627296}, {"type": "node", "id": 4172392103, "lat": 41.9708434, "lon": -87.7632141, "tags": {"addr:city": "Chicago", "addr:housenumber": "4945", "addr:postcode": "60630", "addr:state": "IL", "addr:street": "North Milwaukee Avenue", "amenity": "restaurant", "cuisine": "sushi", "delivery": "yes", "name": "Gorilla Sushi Bar", "takeaway": "yes"}}, {"type": "node", "id": 4186479468, "lat": 41.9705905, "lon": -87.7626602, "tags": {"addr:city": "Chicago", "addr:housenumber": "5364", "addr:postcode": "60630", "addr:state": "IL", "addr:street": "West Gale Street", "amenity": "restaurant", "cuisine": "american", "delivery": "no", "name": "Jefferson Park Grill"}}, {"type": "node", "id": 4186479471, "lat": 41.9680695, "lon": -87.7610792}, {"type": "node", "id": 4186479475, "lat": 41.9681174, "lon": -87.761121}, {"type": "node", "id": 4186479476, "lat": 41.9679337, "lon": -87.7613616}, {"type": "node", "id": 4186479477, "lat": 41.9679822, "lon": -87.7614041}, {"type": "node", "id": 4186821640, "lat": 41.969289, "lon": -87.7609822, "tags": {"addr:city": "Chicago", "addr:housenumber": "4859", "addr:postcode": "60630", "addr:state": "IL", "addr:street": "North Milwaukee Avenue", "amenity": "restaurant", "cuisine": "filipino", "name": "Kawayan"}}, {"type": "node", "id": 4263932170, "lat": 41.9775973, "lon": -87.7691061, "tags": {"addr:city": "Chicago", "addr:housenumber": "5333", "addr:postcode": "60630", "addr:state": "IL", "addr:street": "North Milwaukee Avenue", "amenity": "bar", "name": "Ham Tree Inn", "phone": "+1-773-792-2072"}}, {"type": "node", "id": 4269213208, "lat": 41.9658908, "lon": -87.7598708, "tags": {"addr:city": "Chicago", "addr:housenumber": "4716", "addr:postcode": "60630", "addr:state": "IL", "addr:street": "North Milwaukee Avenue", "amenity": "restaurant", "cuisine": "chinese", "name": "China Star"}}, {"type": "node", "id": 5623406086, "lat": 41.9692208, "lon": -87.7609158, "tags": {"addr:city": "Chicago", "addr:housenumber": "4855", "addr:postcode": "60630", "addr:state": "IL", "addr:street": "North Milwaukee Avenue", "amenity": "restaurant", "cuisine": "chinese", "delivery": "yes", "name": "Excelsior Garden", "outdoor_seating": "no", "takeaway": "yes"}}, {"type": "node", "id": 5769296254, "lat": 41.9751574, "lon": -87.7521628, "tags": {"addr:city": "Chicago", "addr:housenumber": "4945", "addr:postcode": "60630", "addr:state": "IL", "addr:street": "West Foster Avenue", "amenity": "bar", "name": "Rabbit\u2019s Bar and Grill", "outdoor_seating": "yes", "phone": "+1-773-736-5766", "website": "http://www.rabbitsbar.com/"}}, {"type": "node", "id": 6300634167, "lat": 41.9728492, "lon": -87.7454955, "tags": {"addr:city": "Chicago", "addr:housenumber": "5033", "addr:postcode": "60630", "addr:state": "IL", "addr:street": "North Elston Avenue", "amenity": "cafe", "name": "Red Ribbon", "phone": "+1-773-685-5888", "website": "http://redribbonbakeshop.us/"}}, {"type": "node", "id": 6321708060, "lat": 41.9705803, "lon": -87.7628638, "tags": {"addr:city": "Chicago", "addr:housenumber": "4933", "addr:postcode": "60630", "addr:state": "IL", "addr:street": "North Milwaukee Avenue", "amenity": "bar", "name": "Rex Tavern", "phone": "+1-773-202-9444", "website": "http://www.rextavernchicago.com/"}}, {"type": "node", "id": 6322982333, "lat": 41.9754335, "lon": -87.7522985, "tags": {"addr:city": "Chicago", "addr:housenumber": "5200", "addr:postcode": "60630", "addr:state": "IL", "addr:street": "North Elston Avenue", "amenity": "restaurant", "name": "Mother Cluckers Kitchen", "phone": "+1-773-685-4630", "website": "http://mothercluckerskitchen.com/"}}, {"type": "node", "id": 6324500111, "lat": 41.9631548, "lon": -87.7569774, "tags": {"addr:city": "Chicago", "addr:housenumber": "4530", "addr:postcode": "60630", "addr:state": "IL", "addr:street": "North Milwaukee Avenue", "amenity": "bar", "name": "The Windsor Tavern", "phone": "+1-773-736-3400"}}, {"type": "node", "id": 6412876024, "lat": 41.9679347, "lon": -87.7676669, "tags": {"addr:city": "Chicago", "addr:housenumber": "4800", "addr:postcode": "60630", "addr:state": "IL", "addr:street": "North Central Avenue", "amenity": "restaurant", "cuisine": "colombian", "name": "El Asadero Colombiano", "opening_hours": "Su-Th 10:00-22:00; Fr-Sa 10:00-23:00", "outdoor_seating": "no"}}, {"type": "node", "id": 6412876025, "lat": 41.9695853, "lon": -87.7624103}, {"type": "node", "id": 6412876026, "lat": 41.9694429, "lon": -87.7626862}, {"type": "node", "id": 6412876027, "lat": 41.9694425, "lon": -87.7627287}, {"type": "way", "id": 162704482, "nodes": [1745518263, 1745518690, 1745518390, 1745518238, 1745518192, 1745518263], "tags": {"addr:city": "Chicago", "addr:housenumber": "4801", "addr:postcode": "60630", "addr:state": "IL", "addr:street": "North Milwaukee Avenue", "addr:street:name": "Milwaukee", "addr:street:prefix": "North", "addr:street:type": "Avenue", "amenity": "cafe", "building": "yes", "building:levels": "1", "chicago:building_id": "844615", "cuisine": "coffee_shop", "name": "Costa Cafe"}}, {"type": "way", "id": 162705754, "nodes": [1745526416, 1745526356, 1745526891, 1745527428, 1745527366, 1745528296, 1745527899, 1745527281, 1745527030, 1745526774, 1745526416], "tags": {"addr:city": "Chicago", "addr:housenumber": "4874", "addr:postcode": "60630", "addr:state": "IL", "addr:street": "North Milwaukee Avenue", "addr:street:name": "Milwaukee", "addr:street:prefix": "North", "addr:street:type": "Avenue", "amenity": "bar", "building": "yes", "building:levels": "2", "chicago:building_id": "101987", "name": "Jefferson Inn", "phone": "+1-773-283-5522", "smoking": "isolated"}}, {"type": "way", "id": 162714729, "nodes": [1745517144, 1745517611, 1745517601, 1745517815, 1745517831, 1745517548, 1745517541, 1745517359, 1745517356, 1745517149, 1745517144], "tags": {"addr:city": "Chicago", "addr:housenumber": "5619", "addr:postcode": "60630", "addr:state": "IL", "addr:street": "West Lawrence Avenue", "addr:street:name": "Lawrence", "addr:street:prefix": "West", "addr:street:type": "Avenue", "amenity": "restaurant", "building": "yes", "building:levels": "2", "chicago:building_id": "108454", "cuisine": "polish", "name": "Smakosz Restaurant"}}, {"type": "way", "id": 163220727, "nodes": [1749666420, 1749666768, 1749667082, 1749666667, 1749666420], "tags": {"addr:city": "Chicago", "addr:housenumber": "5310", "addr:postcode": "60630", "addr:state": "IL", "addr:street": "North Milwaukee Avenue", "addr:street:name": "Milwaukee", "addr:street:prefix": "North", "addr:street:type": "Avenue", "amenity": "restaurant", "building": "yes", "building:levels": "1", "chicago:building_id": "76488", "cuisine": "pancake", "name": "Elly's Pancake House"}}, {"type": "way", "id": 412295229, "nodes": [4137634824, 4137634825, 4137634826, 4137634827, 4137634828, 4137634846, 4137634829, 4137634830, 4137634831, 4137634832, 4137634833, 4137634834, 4137634835, 4137634836, 4137634837, 4137634838, 4137634839, 4137634824], "tags": {"addr:city": "Chicago", "addr:housenumber": "5601", "addr:postcode": "60630", "addr:state": "IL", "addr:street": "West Lawrence Avenue", "amenity": "cafe", "brand": "Starbucks", "brand:wikidata": "Q37158", "brand:wikipedia": "en:Starbucks", "building": "retail", "chicago:building_id": "109027", "cuisine": "coffee_shop", "drive_through": "yes", "name": "Starbucks", "official_name": "Starbucks Coffee", "takeaway": "yes"}}, {"type": "way", "id": 416495647, "nodes": [4172392093, 4172392094, 4172392095, 4172392096, 4172392097, 4172392098, 4172392093], "tags": {"addr:city": "Chicago", "addr:housenumber": "4914", "addr:postcode": "60630", "addr:state": "IL", "addr:street": "North Milwaukee Avenue", "amenity": "restaurant", "building": "yes", "chicago:building_id": "100756", "cuisine": "american", "name": "Gale Street Inn", "phone": "+1-773-725-1300", "website": "http://www.galestreet.com/"}}, {"type": "way", "id": 418199446, "nodes": [4186479475, 4186479471, 4186479476, 4186479477, 4186479475], "tags": {"addr:city": "Chicago", "addr:housenumber": "4808", "addr:postcode": "60630", "addr:state": "IL", "addr:street": "North Milwaukee Avenue", "amenity": "restaurant", "building": "yes", "cuisine": "mexican", "name": "Taqueria La Estrella"}}, {"type": "way", "id": 684481665, "nodes": [1745527899, 6412876025, 6412876026, 6412876027, 1745526356, 1745526416, 1745526774, 1745527030, 1745527281, 1745527899], "tags": {"addr:city": "Chicago", "addr:housenumber": "4872", "addr:postcode": "60630", "addr:state": "IL", "addr:street": "North Milwaukee Avenue", "amenity": "cafe", "building": "yes", "internet_access": "wlan", "name": "Weston's Coffee & Tap Co.", "opening_hours": "Mo-Th 6:30-19:00; Fr 6:30-20:30; Sa 7:30-20:30; Su 7:30-19:00", "outdoor_seating": "no", "phone": "+1-708-669-7625", "website": "http://www.westonscoffee.com/"}}]}