{"version": 0.6, "generator": "Overpass API 0.7.56.3 eb200aeb", "osm3s": {"timestamp_osm_base": "2020-07-17T16:42:03Z", "copyright": "The data included in this document is from www.openstreetmap.org. The data is made available under ODbL."}, "elements": [{"type": "node", "id": 2198014416, "lat": 41.706277, "lon": -87.6704836}, {"type": "node", "id": 2198014425, "lat": 41.7062817, "lon": -87.6703408}, {"type": "node", "id": 2198014583, "lat": 41.7063198, "lon": -87.6705235}, {"type": "node", "id": 2198014592, "lat": 41.706321, "lon": -87.6704869}, {"type": "node", "id": 2198014623, "lat": 41.706338, "lon": -87.6703439}, {"type": "node", "id": 2198014625, "lat": 41.7063381, "lon": -87.6703677}, {"type": "node", "id": 2198014724, "lat": 41.706397, "lon": -87.6703414}, {"type": "node", "id": 2198014727, "lat": 41.7063971, "lon": -87.6703707}, {"type": "node", "id": 2198014740, "lat": 41.7064077, "lon": -87.6705281}, {"type": "node", "id": 2198014751, "lat": 41.7064089, "lon": -87.6705134}, {"type": "node", "id": 2198014800, "lat": 41.706446, "lon": -87.6705149}, {"type": "node", "id": 2198014807, "lat": 41.7064505, "lon": -87.6703445}, {"type": "node", "id": 2198062348, "lat": 41.7120309, "lon": -87.682075}, {"type": "node", "id": 2198062350, "lat": 41.7120317, "lon": -87.6819742}, {"type": "node", "id": 2198062371, "lat": 41.7120453, "lon": -87.6824301}, {"type": "node", "id": 2198062376, "lat": 41.7120515, "lon": -87.6820748}, {"type": "node", "id": 2198062487, "lat": 41.7121249, "lon": -87.6824329}, {"type": "node", "id": 2198062492, "lat": 41.7121261, "lon": -87.6823945}, {"type": "node", "id": 2198062500, "lat": 41.7121315, "lon": -87.6823944}, {"type": "node", "id": 2198062520, "lat": 41.7121388, "lon": -87.6819768}, {"type": "node", "id": 6297687975, "lat": 41.705468, "lon": -87.6819711, "tags": {"addr:city": "Chicago", "addr:housenumber": "10330", "addr:postcode": "60643", "addr:state": "IL", "addr:street": "South Western Avenue", "amenity": "bar", "name": "Sean\u2019s Rhino Bar & Grill", "phone": "+1-773-238-2060"}}, {"type": "node", "id": 7037148666, "lat": 41.7214119, "lon": -87.6673233, "tags": {"addr:city": "Chicago", "addr:housenumber": "1766", "addr:postcode": "60643", "addr:state": "IL", "addr:street": "West 95th Street", "amenity": "cafe", "name": "Two Mile Coffee Bar. Co", "opening_hours": "Mo-Fr 06:00-11:00", "website": "http://twomilecoffee.com/"}}, {"type": "way", "id": 209607588, "nodes": [2198014416, 2198014592, 2198014583, 2198014740, 2198014751, 2198014800, 2198014807, 2198014724, 2198014727, 2198014625, 2198014623, 2198014425, 2198014416], "tags": {"addr:city": "Chicago", "addr:housenumber": "1933", "addr:postcode": "60643", "addr:state": "IL", "addr:street": "West 103rd Street", "addr:street:name": "103rd", "addr:street:prefix": "West", "addr:street:type": "Street", "amenity": "cafe", "brand": "Starbucks", "brand:wikidata": "Q37158", "brand:wikipedia": "en:Starbucks", "building": "yes", "chicago:building_id": "733128", "cuisine": "coffee_shop", "internet_access": "yes", "name": "Starbucks", "official_name": "Starbucks Coffee", "smoking": "outside", "takeaway": "yes"}}, {"type": "way", "id": 209619037, "nodes": [2198062348, 2198062376, 2198062371, 2198062487, 2198062492, 2198062500, 2198062520, 2198062350, 2198062348], "tags": {"addr:housenumber": "9956-9960", "addr:street": "South Western Avenue", "addr:street:name": "Western", "addr:street:prefix": "South", "addr:street:type": "Avenue", "amenity": "restaurant", "building": "yes", "building:levels": "2", "chicago:building_id": "720308", "cuisine": "pizza", "name": "Foxes Pub"}}]}