{"version": 0.6, "generator": "Overpass API 0.7.56.3 eb200aeb", "osm3s": {"timestamp_osm_base": "2020-07-04T03:06:02Z", "copyright": "The data included in this document is from www.openstreetmap.org. The data is made available under ODbL."}, "elements": [{"type": "node", "id": 1751919202, "lat": 41.7405704, "lon": -87.7221766}, {"type": "node", "id": 1751919215, "lat": 41.7405727, "lon": -87.7220708}, {"type": "node", "id": 1751919245, "lat": 41.740578, "lon": -87.7218212}, {"type": "node", "id": 1751919382, "lat": 41.7406365, "lon": -87.7221792}, {"type": "node", "id": 1751919414, "lat": 41.7406441, "lon": -87.7218237}, {"type": "node", "id": 6459442878, "lat": 41.7392952, "lon": -87.721248, "tags": {"addr:city": "Chicago", "addr:housenumber": "8433", "addr:postcode": "60652", "addr:state": "IL", "addr:street": "South Pulaski Road", "amenity": "restaurant", "cuisine": "pizza;italian", "name": "Vito & Nick's Pizzeria", "phone": "+1-773-735-2050", "website": "http://vitoandnicks.com"}}, {"type": "way", "id": 163522887, "nodes": [1751919382, 1751919414, 1751919245, 1751919215, 1751919202, 1751919382], "tags": {"addr:housenumber": "8352", "addr:street": "South Pulaski Road", "addr:street:name": "Pulaski", "addr:street:prefix": "South", "addr:street:type": "Road", "amenity": "restaurant", "building": "yes", "chicago:building_id": "838710", "name": "Angie's"}}]}