{"version": 0.6, "generator": "Overpass API 0.7.56.3 eb200aeb", "osm3s": {"timestamp_osm_base": "2020-07-21T20:28:02Z", "copyright": "The data included in this document is from www.openstreetmap.org. The data is made available under ODbL."}, "elements": [{"type": "node", "id": 1747201848, "lat": 41.7923742, "lon": -87.7861556}, {"type": "node", "id": 1747201850, "lat": 41.7923776, "lon": -87.7860107}, {"type": "node", "id": 1747201960, "lat": 41.7925347, "lon": -87.7861634}, {"type": "node", "id": 1747201963, "lat": 41.7925382, "lon": -87.7860203}, {"type": "node", "id": 1747203549, "lat": 41.793244, "lon": -87.7755186}, {"type": "node", "id": 1747203746, "lat": 41.7932918, "lon": -87.7751893}, {"type": "node", "id": 1747203856, "lat": 41.7933053, "lon": -87.775202}, {"type": "node", "id": 1747203909, "lat": 41.7933279, "lon": -87.7750463}, {"type": "node", "id": 1747204096, "lat": 41.7933951, "lon": -87.7750952}, {"type": "node", "id": 1747204109, "lat": 41.7933977, "lon": -87.7750677}, {"type": "node", "id": 1747204123, "lat": 41.7934028, "lon": -87.7755646}, {"type": "node", "id": 1747204169, "lat": 41.7934288, "lon": -87.775539}, {"type": "node", "id": 1747204310, "lat": 41.7934937, "lon": -87.7751237}, {"type": "node", "id": 6256391158, "lat": 41.7923623, "lon": -87.7919753, "tags": {"addr:city": "Chicago", "addr:housenumber": "6806", "addr:postcode": "60638", "addr:state": "IL", "addr:street": "West Archer Avenue", "amenity": "cafe", "cuisine": "coffee_shop", "name": "A Cup of Joe", "phone": "+1-312-438-8562"}}, {"type": "node", "id": 6305166454, "lat": 41.7919347, "lon": -87.7895022, "tags": {"addr:city": "Chicago", "addr:housenumber": "6707", "addr:postcode": "60638", "addr:state": "IL", "addr:street": "West Archer Avenue", "amenity": "bar", "name": "Tom\u2019s Tap", "phone": "+1-773-229-1060"}}, {"type": "node", "id": 6326506182, "lat": 41.7923738, "lon": -87.7937307, "tags": {"addr:city": "Chicago", "addr:housenumber": "6854", "addr:postcode": "60638", "addr:state": "IL", "addr:street": "West Archer Avenue", "amenity": "bar", "name": "Lawlor Bar", "phone": "+1-773-229-2277"}}, {"type": "node", "id": 7330242279, "lat": 41.7923291, "lon": -87.7925236, "tags": {"addr:city": "Chicago", "addr:housenumber": "6822", "addr:postcode": "60638", "addr:state": "IL", "addr:street": "West Archer Avenue", "amenity": "restaurant", "name": "Ash GastroPub", "phone": "+1-773-424-5450"}}, {"type": "node", "id": 7698726649, "lat": 41.7934718, "lon": -87.7752639}, {"type": "way", "id": 162926818, "nodes": [1747204310, 1747204096, 1747204109, 1747203909, 1747203856, 1747203746, 1747203549, 1747204123, 1747204169, 7698726649, 1747204310], "tags": {"addr:city": "Chicago", "addr:housenumber": "6221", "addr:postcode": "60638", "addr:state": "IL", "addr:street": "South Archer Avenue", "addr:street:name": "Archer", "addr:street:prefix": "South", "addr:street:type": "Avenue", "amenity": "restaurant", "building": "yes", "chicago:building_id": "854514", "cuisine": "pizza", "name": "Home Run Inn Pizza", "wikidata": "Q16995746", "wikipedia": "en:Home Run Inn"}}, {"type": "way", "id": 162929079, "nodes": [1747201848, 1747201960, 1747201963, 1747201850, 1747201848], "tags": {"addr:housenumber": "6544", "addr:street": "West Archer Avenue", "addr:street:name": "Archer", "addr:street:prefix": "West", "addr:street:type": "Avenue", "amenity": "restaurant", "building": "yes", "building:levels": "2", "chicago:building_id": "491510", "name": "Lindys Chili"}}]}