{"version": 0.6, "generator": "Overpass API 0.7.56.3 eb200aeb", "osm3s": {"timestamp_osm_base": "2020-07-04T02:38:02Z", "copyright": "The data included in this document is from www.openstreetmap.org. The data is made available under ODbL."}, "elements": [{"type": "node", "id": 1575900981, "lat": 41.799602, "lon": -87.5945746}, {"type": "node", "id": 1655451070, "lat": 41.8000422, "lon": -87.59524, "tags": {"addr:housenumber": "1236", "addr:street": "East 53rd Street", "amenity": "restaurant", "cuisine": "italian", "name": "Leona's"}}, {"type": "node", "id": 1655576384, "lat": 41.7995902, "lon": -87.5944784}, {"type": "node", "id": 1655576411, "lat": 41.7996559, "lon": -87.5944804}, {"type": "node", "id": 1655576534, "lat": 41.7997437, "lon": -87.5944817}, {"type": "node", "id": 1655576543, "lat": 41.7997429, "lon": -87.5945752}, {"type": "node", "id": 1655576582, "lat": 41.7995891, "lon": -87.5945744}, {"type": "node", "id": 4114593404, "lat": 41.7999422, "lon": -87.5960664, "tags": {"addr:city": "Chicago", "addr:housenumber": "1206", "addr:postcode": "60615", "addr:state": "IL", "addr:street": "East 53rd Street", "amenity": "restaurant", "cuisine": "middle_eastern", "name": "Cedars Mediterranean Kitchen"}}, {"type": "node", "id": 5526423170, "lat": 41.799339, "lon": -87.5948596, "tags": {"addr:housenumber": "1301", "addr:street": "East 53rd Street", "amenity": "restaurant", "cuisine": "bbq;fried_chicken", "name": "Budlong Hot Chicken"}}, {"type": "node", "id": 5674085876, "lat": 41.8098666, "lon": -87.5931455, "tags": {"addr:city": "Chicago", "addr:housenumber": "1358", "addr:postcode": "60653", "addr:street": "East 47th Street", "amenity": "restaurant", "brand": "The Original Pancake House", "brand:wikidata": "Q7755384", "brand:wikipedia": "en:The Original Pancake House", "cuisine": "breakfast;pancake", "name": "The Original Pancake House", "website": "https://www.ophchicagoland.com/hyde-park/"}}, {"type": "node", "id": 5773659979, "lat": 41.799642, "lon": -87.5943698, "tags": {"addr:city": "Chicago", "addr:housenumber": "1312", "addr:postcode": "60615", "addr:state": "IL", "addr:street": "East 53rd Street", "amenity": "restaurant", "cuisine": "pizza;italian;japanese;sandwich", "name": "Sitdown Cafe and Sushi Bar", "outdoor_seating": "yes"}}, {"type": "node", "id": 6282277094, "lat": 41.8099623, "lon": -87.5996723, "tags": {"addr:city": "Chicago", "addr:housenumber": "1060", "addr:postcode": "60653", "addr:state": "IL", "addr:street": "East 47th Street", "addr:unit": "FL 1", "amenity": "cafe", "name": "Carver 47 Cafe", "phone": "+1-773-285-1211", "website": "https://littleblackpearl.squarespace.com/carver-47/"}}, {"type": "node", "id": 6848141104, "lat": 41.7999965, "lon": -87.5965105, "tags": {"addr:city": "Chicago", "addr:housenumber": "5231", "addr:postcode": "60615", "addr:state": "IL", "addr:street": "South Woodlawn Avenue", "amenity": "restaurant", "cuisine": "chinese", "name": "Nicky's Chinese Food", "opening_hours": "Mo-Su 10:30-0:00", "phone": "773-324-5340"}}, {"type": "way", "id": 152775893, "nodes": [1655576543, 1655576534, 1655576411, 1655576384, 1655576582, 1575900981, 1655576543], "tags": {"addr:city": "Chicago", "addr:housenumber": "1310", "addr:postcode": "60615", "addr:state": "IL", "addr:street": "East 53rd Street", "amenity": "restaurant", "building": "yes", "capacity": "20", "cuisine": "mexican", "delivery": "no", "name": "Antoni 1 Grill & Catering", "takeaway": "yes"}}]}