{"version": 0.6, "generator": "Overpass API 0.7.56.1004 6cd3eaec", "osm3s": {"timestamp_osm_base": "2020-07-22T01:10:02Z", "copyright": "The data included in this document is from www.openstreetmap.org. The data is made available under ODbL."}, "elements": [{"type": "node", "id": 2202681974, "lat": 41.7788496, "lon": -87.7171939}, {"type": "node", "id": 2202681976, "lat": 41.7788514, "lon": -87.7170084}, {"type": "node", "id": 2202681981, "lat": 41.778861, "lon": -87.7170083}, {"type": "node", "id": 2202682086, "lat": 41.779028, "lon": -87.7171959}, {"type": "node", "id": 2202682089, "lat": 41.7790291, "lon": -87.7171368}, {"type": "node", "id": 2202682242, "lat": 41.7791718, "lon": -87.7171391}, {"type": "node", "id": 2202682245, "lat": 41.7791725, "lon": -87.71702}, {"type": "node", "id": 6300600928, "lat": 41.7909988, "lon": -87.7227968, "tags": {"addr:city": "Chicago", "addr:housenumber": "5611", "addr:postcode": "60629", "addr:state": "IL", "addr:street": "South Pulaski Road", "amenity": "cafe", "name": "Razpachos Neveria", "phone": "+1-773-570-7011", "website": "http://www.razpachos.com/"}}, {"type": "node", "id": 6316796904, "lat": 41.7928966, "lon": -87.7282348, "tags": {"addr:city": "Chicago", "addr:housenumber": "4201", "addr:postcode": "60632", "addr:state": "IL", "addr:street": "West 55th Street", "amenity": "bar", "name": "West 55th Street", "outdoor_seating": "yes", "phone": "+1-773-582-8839"}}, {"type": "node", "id": 6320614684, "lat": 41.778995, "lon": -87.7170967, "tags": {"addr:city": "Chicago", "addr:housenumber": "3742", "addr:postcode": "60629", "addr:state": "IL", "addr:street": "West 63rd Street", "amenity": "cafe", "name": "Los Pekes Ice Cream & Coffee", "phone": "+1-773-526-1482", "website": "(773) 526-1482"}}, {"type": "way", "id": 210151972, "nodes": [2202682086, 2202682089, 2202682242, 2202682245, 2202681981, 2202681976, 2202681974, 2202682086], "tags": {"addr:housenumber": "3742", "addr:street": "West 63rd Street", "addr:street:name": "63rd", "addr:street:prefix": "West", "addr:street:type": "Street", "amenity": "cafe", "building": "yes", "building:levels": "1", "chicago:building_id": "828232"}}]}