{"version": 0.6, "generator": "Overpass API 0.7.56.3 eb200aeb", "osm3s": {"timestamp_osm_base": "2020-07-04T04:16:02Z", "copyright": "The data included in this document is from www.openstreetmap.org. The data is made available under ODbL."}, "elements": [{"type": "node", "id": 372966521, "lat": 41.9675021, "lon": -87.8067742}, {"type": "node", "id": 1750408454, "lat": 41.9799251, "lon": -87.8032822}, {"type": "node", "id": 1750408595, "lat": 41.9799476, "lon": -87.803385}, {"type": "node", "id": 1750408869, "lat": 41.9800399, "lon": -87.8032375}, {"type": "node", "id": 1750408871, "lat": 41.9800402, "lon": -87.803239}, {"type": "node", "id": 1750409340, "lat": 41.9801939, "lon": -87.8031777}, {"type": "node", "id": 1750409448, "lat": 41.9802385, "lon": -87.8033844}, {"type": "node", "id": 2178138005, "lat": 41.9675403, "lon": -87.8067538}, {"type": "node", "id": 2178138083, "lat": 41.96754, "lon": -87.8067751}, {"type": "node", "id": 2178138378, "lat": 41.967752, "lon": -87.8067589}, {"type": "node", "id": 2178138466, "lat": 41.9677563, "lon": -87.8064403}, {"type": "node", "id": 2178138468, "lat": 41.9675067, "lon": -87.8064343}, {"type": "node", "id": 2876689578, "lat": 41.9812402, "lon": -87.806711, "tags": {"amenity": "restaurant", "cuisine": "mexican", "name": "Taco Buritto King"}}, {"type": "node", "id": 5711709192, "lat": 41.9804252, "lon": -87.8026084, "tags": {"amenity": "restaurant", "cuisine": "italian;pizza", "delivery": "yes", "name": "Dino's Italian Pizza & Italian Restaurant", "opening_hours": "Mo-Su 11:00-23:00", "outdoor_seating": "yes", "takeaway": "yes"}}, {"type": "node", "id": 6321581774, "lat": 41.9811358, "lon": -87.806009, "tags": {"addr:city": "Chicago", "addr:housenumber": "7134", "addr:postcode": "60656", "addr:state": "IL", "addr:street": "West Higgins Avenue", "amenity": "cafe", "name": "Mather\u2019s More Than a Cafe", "phone": "+1-773-774-4804", "website": "https://www.matherlifeways.com/mathers-more-than-a-cafe"}}, {"type": "way", "id": 163327019, "nodes": [1750409448, 1750409340, 1750408869, 1750408871, 1750408454, 1750408595, 1750409448], "tags": {"addr:city": "Chicago", "addr:housenumber": "7021", "addr:postcode": "60656", "addr:state": "IL", "addr:street": "West Higgins Avenue", "addr:street:name": "Higgins", "addr:street:prefix": "West", "addr:street:type": "Avenue", "amenity": "restaurant", "building": "yes", "building:levels": "1", "chicago:building_id": "844512", "cuisine": "Colombian", "name": "Congas", "phone": "(773) 968-4259"}}, {"type": "way", "id": 207552981, "nodes": [372966521, 2178138083, 2178138005, 2178138378, 2178138466, 2178138468, 372966521], "tags": {"addr:city": "Harwood Heights", "addr:housenumber": "4751", "addr:postcode": "60706", "addr:street": "North Harlem Avenue", "amenity": "restaurant", "building": "yes", "cuisine": "american", "name": "Family Palace"}}]}