{"version": 0.6, "generator": "Overpass API 0.7.56.3 eb200aeb", "osm3s": {"timestamp_osm_base": "2020-07-04T03:53:02Z", "copyright": "The data included in this document is from www.openstreetmap.org. The data is made available under ODbL."}, "elements": [{"type": "node", "id": 1575900981, "lat": 41.799602, "lon": -87.5945746}, {"type": "node", "id": 1585474916, "lat": 41.7975164, "lon": -87.5862893}, {"type": "node", "id": 1585474940, "lat": 41.7980385, "lon": -87.584779}, {"type": "node", "id": 1585474960, "lat": 41.7980323, "lon": -87.5852705}, {"type": "node", "id": 1585474992, "lat": 41.7979862, "lon": -87.5862996}, {"type": "node", "id": 1585475024, "lat": 41.7974893, "lon": -87.5856813}, {"type": "node", "id": 1585475035, "lat": 41.7977617, "lon": -87.5852644}, {"type": "node", "id": 1585475082, "lat": 41.7977814, "lon": -87.5850681}, {"type": "node", "id": 1585475087, "lat": 41.7977832, "lon": -87.584921}, {"type": "node", "id": 1585475095, "lat": 41.7980331, "lon": -87.5856924}, {"type": "node", "id": 1585475102, "lat": 41.7977665, "lon": -87.5849206}, {"type": "node", "id": 1585475106, "lat": 41.7977641, "lon": -87.5850678}, {"type": "node", "id": 1585475108, "lat": 41.7980256, "lon": -87.5861959}, {"type": "node", "id": 1585475144, "lat": 41.7977683, "lon": -87.5847729}, {"type": "node", "id": 1585475146, "lat": 41.7979853, "lon": -87.5863437}, {"type": "node", "id": 1585475185, "lat": 41.7974812, "lon": -87.5862891}, {"type": "node", "id": 1585475193, "lat": 41.7976977, "lon": -87.5856854}, {"type": "node", "id": 1585475198, "lat": 41.7975158, "lon": -87.5863348}, {"type": "node", "id": 1585475202, "lat": 41.7980284, "lon": -87.5860522}, {"type": "node", "id": 1585475206, "lat": 41.7976977, "lon": -87.5856794}, {"type": "node", "id": 1585475229, "lat": 41.7980242, "lon": -87.5863015}, {"type": "node", "id": 1585475236, "lat": 41.7976093, "lon": -87.585684}, {"type": "node", "id": 1585475260, "lat": 41.7980317, "lon": -87.585821}, {"type": "node", "id": 1585475262, "lat": 41.7976093, "lon": -87.585678}, {"type": "node", "id": 1655451070, "lat": 41.8000422, "lon": -87.59524, "tags": {"addr:housenumber": "1236", "addr:street": "East 53rd Street", "amenity": "restaurant", "cuisine": "italian", "name": "Leona's"}}, {"type": "node", "id": 1655576384, "lat": 41.7995902, "lon": -87.5944784}, {"type": "node", "id": 1655576411, "lat": 41.7996559, "lon": -87.5944804}, {"type": "node", "id": 1655576534, "lat": 41.7997437, "lon": -87.5944817}, {"type": "node", "id": 1655576543, "lat": 41.7997429, "lon": -87.5945752}, {"type": "node", "id": 1655576582, "lat": 41.7995891, "lon": -87.5945744}, {"type": "node", "id": 1888612339, "lat": 41.7993839, "lon": -87.5889162, "tags": {"amenity": "restaurant", "cuisine": "italian", "name": "Pizza Capri"}}, {"type": "node", "id": 1888621190, "lat": 41.7996938, "lon": -87.5886587, "tags": {"amenity": "restaurant", "cuisine": "american", "name": "Mellow Yellow"}}, {"type": "node", "id": 1888626512, "lat": 41.7996838, "lon": -87.5883288, "tags": {"amenity": "restaurant", "cuisine": "american", "name": "Valois"}}, {"type": "node", "id": 1924565982, "lat": 41.7966977, "lon": -87.5996599}, {"type": "node", "id": 1924566154, "lat": 41.7954267, "lon": -87.5996308}, {"type": "node", "id": 1925417584, "lat": 41.7966019, "lon": -87.5981729}, {"type": "node", "id": 1925417585, "lat": 41.7954409, "lon": -87.5981418}, {"type": "node", "id": 2212461863, "lat": 41.7990502, "lon": -87.5903004}, {"type": "node", "id": 2212461871, "lat": 41.7990532, "lon": -87.5901225}, {"type": "node", "id": 2212461882, "lat": 41.7990601, "lon": -87.5901224}, {"type": "node", "id": 2212461885, "lat": 41.7990612, "lon": -87.5900912}, {"type": "node", "id": 2212462061, "lat": 41.7991828, "lon": -87.5903036}, {"type": "node", "id": 2212462065, "lat": 41.7991859, "lon": -87.5900953}, {"type": "node", "id": 2269174583, "lat": 41.7965929, "lon": -87.5988896}, {"type": "node", "id": 2269174586, "lat": 41.7967123, "lon": -87.5988965}, {"type": "node", "id": 2269174589, "lat": 41.796076, "lon": -87.5981588}, {"type": "node", "id": 2625982796, "lat": 41.7998148, "lon": -87.5876046, "tags": {"addr:city": "Chicago", "addr:housenumber": "1530", "addr:postcode": "60615", "addr:state": "IL", "addr:street": "East 53rd Street", "amenity": "cafe", "brand": "Starbucks", "brand:wikidata": "Q37158", "brand:wikipedia": "en:Starbucks", "cuisine": "coffee_shop", "name": "Starbucks", "official_name": "Starbucks Coffee", "takeaway": "yes"}}, {"type": "node", "id": 3218813269, "lat": 41.79896, "lon": -87.5876687, "tags": {"addr:city": "Chicago", "addr:housenumber": "5311", "addr:postcode": "60615", "addr:state": "IL", "addr:street": "South Lake Park Avenue West", "amenity": "restaurant", "bar": "yes", "name": "The Promontory", "outdoor_seating": "yes", "phone": "+1-312-801-2100", "website": "https://www.promontorychicago.com/"}}, {"type": "node", "id": 4114593404, "lat": 41.7999422, "lon": -87.5960664, "tags": {"addr:city": "Chicago", "addr:housenumber": "1206", "addr:postcode": "60615", "addr:state": "IL", "addr:street": "East 53rd Street", "amenity": "restaurant", "cuisine": "middle_eastern", "name": "Cedars Mediterranean Kitchen"}}, {"type": "node", "id": 4114640708, "lat": 41.799405, "lon": -87.5899259, "tags": {"addr:city": "Chicago", "addr:housenumber": "1447", "addr:postcode": "60615", "addr:state": "IL", "addr:street": "East 53rd Street", "amenity": "restaurant", "brand": "Nando's", "brand:wikidata": "Q3472954", "brand:wikipedia": "en:Nando's", "cuisine": "chicken;portuguese", "name": "Nando's"}}, {"type": "node", "id": 4114640709, "lat": 41.799425, "lon": -87.5895057, "tags": {"addr:city": "Chicago", "addr:housenumber": "1459", "addr:postcode": "60615", "addr:state": "IL", "addr:street": "East 53rd Street", "amenity": "restaurant", "cuisine": "indian", "name": "Rajun Cajun"}}, {"type": "node", "id": 4114640710, "lat": 41.799426, "lon": -87.5886398, "tags": {"addr:city": "Chicago", "addr:housenumber": "1509", "addr:postcode": "60615", "addr:state": "IL", "addr:street": "East 53rd Street", "amenity": "restaurant", "cuisine": "asian", "name": "Chant"}}, {"type": "node", "id": 4114697507, "lat": 41.8004149, "lon": -87.5881445, "tags": {"addr:city": "Chicago", "addr:housenumber": "1518", "addr:postcode": "60615", "addr:state": "IL", "addr:street": "East Harper Court", "amenity": "restaurant", "diet:vegan": "yes", "name": "Native Foods Cafe"}}, {"type": "node", "id": 4119093893, "lat": 41.8032008, "lon": -87.5866903, "tags": {"addr:city": "Chicago", "addr:housenumber": "5030", "addr:postcode": "60615", "addr:state": "IL", "addr:street": "South Cornell Avenue", "amenity": "cafe", "internet_access": "wlan", "name": "Bridgeport Coffee", "opening_hours": "Mo-Fr 06:00-20:00; Sa-Su 07:00-20:00", "phone": "+1 773-947-0348", "website": "https://bridgeportcoffee.net/"}}, {"type": "node", "id": 5526420067, "lat": 41.7958829, "lon": -87.5985012, "tags": {"amenity": "restaurant", "name": "LSTC Refectory"}}, {"type": "node", "id": 5526423170, "lat": 41.799339, "lon": -87.5948596, "tags": {"addr:housenumber": "1301", "addr:street": "East 53rd Street", "amenity": "restaurant", "cuisine": "bbq;fried_chicken", "name": "Budlong Hot Chicken"}}, {"type": "node", "id": 5674085876, "lat": 41.8098666, "lon": -87.5931455, "tags": {"addr:city": "Chicago", "addr:housenumber": "1358", "addr:postcode": "60653", "addr:street": "East 47th Street", "amenity": "restaurant", "brand": "The Original Pancake House", "brand:wikidata": "Q7755384", "brand:wikipedia": "en:The Original Pancake House", "cuisine": "breakfast;pancake", "name": "The Original Pancake House", "website": "https://www.ophchicagoland.com/hyde-park/"}}, {"type": "node", "id": 5706244256, "lat": 41.7996677, "lon": -87.5893002, "tags": {"addr:city": "Chicago", "addr:housenumber": "1462", "addr:postcode": "60615", "addr:state": "IL", "addr:street": "East 53rd Street", "amenity": "restaurant", "cuisine": "southern", "name": "Virtue", "phone": "+1-773-947-8831", "website": "https://www.virtuerestaurant.com"}}, {"type": "node", "id": 5773659979, "lat": 41.799642, "lon": -87.5943698, "tags": {"addr:city": "Chicago", "addr:housenumber": "1312", "addr:postcode": "60615", "addr:state": "IL", "addr:street": "East 53rd Street", "amenity": "restaurant", "cuisine": "pizza;italian;japanese;sandwich", "name": "Sitdown Cafe and Sushi Bar", "outdoor_seating": "yes"}}, {"type": "node", "id": 5873884645, "lat": 41.7991037, "lon": -87.5838597, "tags": {"addr:city": "Chicago", "addr:housenumber": "5319", "addr:postcode": "60615", "addr:state": "IL", "addr:street": "South Hyde Park Boulevard", "amenity": "restaurant", "cuisine": "burger", "name": "Mikkey's Retro Grill", "opening_hours": "Su-Th 11:00-00:00, Fr 11:00-(sunset-00:30), Sa (sunset+00:30)-02:00", "phone": "(773) 675-8525", "website": "http://mikkeys.com/"}}, {"type": "node", "id": 5873900689, "lat": 41.7994936, "lon": -87.5838694, "tags": {"addr:city": "Chicago", "addr:housenumber": "5301", "addr:postcode": "60615", "addr:state": "IL", "addr:street": "South Hyde Park Boulevard", "amenity": "cafe", "cuisine": "coffee_shop", "name": "Sip & Savor", "phone": "+1-773-952-4532", "website": "http://www.sipandsavorchicago.com/"}}, {"type": "node", "id": 5973273795, "lat": 41.7993786, "lon": -87.591926, "tags": {"addr:city": "Chicago", "addr:housenumber": "5300", "addr:postcode": "60615", "addr:state": "IL", "addr:street": "South Dorchester Avenue", "amenity": "restaurant", "cuisine": "mexican", "name": "Hyde Park Taco Station", "website": "http://hptacostation.com/"}}, {"type": "node", "id": 6272547623, "lat": 41.7997751, "lon": -87.5848676, "tags": {"addr:city": "Chicago", "addr:housenumber": "1644", "addr:postcode": "60615", "addr:state": "IL", "addr:street": "East 53rd Street", "amenity": "restaurant", "name": "Bibliophile", "phone": "+1-872-244-3704", "website": "https://www.bibliophile.us"}}, {"type": "node", "id": 6282277094, "lat": 41.8099623, "lon": -87.5996723, "tags": {"addr:city": "Chicago", "addr:housenumber": "1060", "addr:postcode": "60653", "addr:state": "IL", "addr:street": "East 47th Street", "addr:unit": "FL 1", "amenity": "cafe", "name": "Carver 47 Cafe", "phone": "+1-773-285-1211", "website": "https://littleblackpearl.squarespace.com/carver-47/"}}, {"type": "node", "id": 6289300231, "lat": 41.7993946, "lon": -87.5861891, "tags": {"addr:city": "Chicago", "addr:housenumber": "1601", "addr:postcode": "60615", "addr:state": "IL", "addr:street": "East 53rd Street", "amenity": "bar", "name": "Falcon Inn"}}, {"type": "node", "id": 6297644045, "lat": 41.801484, "lon": -87.5889339, "tags": {"addr:city": "Chicago", "addr:housenumber": "5121", "addr:postcode": "60615", "addr:state": "IL", "addr:street": "South Harper Avenue", "amenity": "bar", "name": "The Hyde"}}, {"type": "node", "id": 6314468408, "lat": 41.7996538, "lon": -87.5924057, "tags": {"addr:city": "Chicago", "addr:housenumber": "1368", "addr:postcode": "60615", "addr:state": "IL", "addr:street": "East 53rd Street", "amenity": "restaurant", "cuisine": "soul", "name": "The Soul Shack"}}, {"type": "node", "id": 6314861224, "lat": 41.8005317, "lon": -87.5885893, "tags": {"addr:city": "Chicago", "addr:housenumber": "1510", "addr:postcode": "60615", "addr:state": "IL", "addr:street": "East Harper Court", "amenity": "bar", "name": "Ja\u2019 Grill Hyde Park", "phone": "+1-773-752-5375", "website": "http://jagrill.com/"}}, {"type": "node", "id": 6322586993, "lat": 41.7992767, "lon": -87.5915431, "tags": {"addr:city": "Chicago", "addr:housenumber": "1411", "addr:postcode": "60615", "addr:state": "IL", "addr:street": "East 53rd Street", "amenity": "bar", "name": "Mesler Kitchen | Bar | Lounge", "phone": "+1-773-289-1005", "website": "https://sophyhotel.com/mesler-kitchen"}}, {"type": "node", "id": 6848141104, "lat": 41.7999965, "lon": -87.5965105, "tags": {"addr:city": "Chicago", "addr:housenumber": "5231", "addr:postcode": "60615", "addr:state": "IL", "addr:street": "South Woodlawn Avenue", "amenity": "restaurant", "cuisine": "chinese", "name": "Nicky's Chinese Food", "opening_hours": "Mo-Su 10:30-0:00", "phone": "773-324-5340"}}, {"type": "node", "id": 6848164610, "lat": 41.8022989, "lon": -87.5894227, "tags": {"addr:city": "Chicago", "addr:housenumber": "1461", "addr:postcode": "60615", "addr:state": "IL", "addr:street": "East Hyde Park Boulevard", "amenity": "restaurant", "cuisine": "chicken;caribbean", "name": "Uncle Joe's Jerk Chieken", "phone": "773-241-5550"}}, {"type": "way", "id": 145096460, "nodes": [1585474960, 1585474940, 1585475144, 1585475102, 1585475087, 1585475082, 1585475106, 1585475035, 1585474960], "tags": {"addr:city": "Chicago", "addr:housenumber": "5401", "addr:postcode": "60615", "addr:street": "South Cornell Avenue", "addr:street:name": "Cornell", "addr:street:prefix": "South", "addr:street:type": "Avenue", "amenity": "university", "building": "university", "building:levels": "9", "chicago:building_id": "468675", "denomination": "catholic", "name": "Residence Hall - Catholic Theological Union", "religion": "christian"}}, {"type": "way", "id": 145096478, "nodes": [1585475108, 1585475229, 1585474992, 1585475146, 1585475198, 1585474916, 1585475185, 1585475024, 1585475236, 1585475262, 1585475206, 1585475193, 1585475095, 1585475260, 1585475202, 1585475108], "tags": {"addr:city": "Chicago", "addr:housenumber": "5416", "addr:postcode": "60615", "addr:state": "IL", "addr:street": "South Cornell Avenue", "addr:street:name": "Cornell", "addr:street:prefix": "South", "addr:street:type": "Avenue", "amenity": "university", "building": "university", "chicago:building_id": "837688", "denomination": "catholic", "name": "Academic Conference Center - Catholic Theological Union", "religion": "christian"}}, {"type": "way", "id": 152775893, "nodes": [1655576543, 1655576534, 1655576411, 1655576384, 1655576582, 1575900981, 1655576543], "tags": {"addr:city": "Chicago", "addr:housenumber": "1310", "addr:postcode": "60615", "addr:state": "IL", "addr:street": "East 53rd Street", "amenity": "restaurant", "building": "yes", "capacity": "20", "cuisine": "mexican", "delivery": "no", "name": "Antoni 1 Grill & Catering", "takeaway": "yes"}}, {"type": "way", "id": 182197318, "nodes": [1925417584, 2269174589, 1925417585, 1924566154, 1924565982, 2269174586, 2269174583, 1925417584], "tags": {"amenity": "university", "name": "Lutheran School of Theology", "wikidata": "Q6705732", "wikipedia": "en:Lutheran School of Theology at Chicago"}}, {"type": "way", "id": 211224886, "nodes": [2212462061, 2212462065, 2212461885, 2212461882, 2212461871, 2212461863, 2212462061], "tags": {"addr:city": "Chicago", "addr:housenumber": "5311", "addr:postcode": "60615", "addr:state": "IL", "addr:street": "South Blackstone Avenue", "addr:street:name": "Blackstone", "addr:street:prefix": "South", "addr:street:type": "Avenue", "amenity": "restaurant", "brand": "Giordano's Pizzeria", "brand:wikidata": "Q5563393", "brand:wikipedia": "en:Giordano's Pizzeria", "building": "retail", "building:levels": "1", "chicago:building_id": "867937", "cuisine": "pizza", "name": "Giordano's Pizzeria"}}]}