{"version": 0.6, "generator": "Overpass API 0.7.56.3 eb200aeb", "osm3s": {"timestamp_osm_base": "2020-07-04T04:30:03Z", "copyright": "The data included in this document is from www.openstreetmap.org. The data is made available under ODbL."}, "elements": [{"type": "node", "id": 34877706, "lat": 41.9420321, "lon": -87.7149228}, {"type": "node", "id": 258282963, "lat": 41.9277023, "lon": -87.7056926}, {"type": "node", "id": 258284108, "lat": 41.9417264, "lon": -87.7143213}, {"type": "node", "id": 258284109, "lat": 41.9405094, "lon": -87.7127549}, {"type": "node", "id": 308439083, "lat": 41.9362157, "lon": -87.7124384}, {"type": "node", "id": 308439353, "lat": 41.9413194, "lon": -87.7135488}, {"type": "node", "id": 308439354, "lat": 41.9409403, "lon": -87.7130338}, {"type": "node", "id": 369650955, "lat": 41.9324964, "lon": -87.7123526}, {"type": "node", "id": 369650956, "lat": 41.9319658, "lon": -87.7120584}, {"type": "node", "id": 369650957, "lat": 41.9317581, "lon": -87.7118}, {"type": "node", "id": 736037253, "lat": 41.9399108, "lon": -87.7126047}, {"type": "node", "id": 736037262, "lat": 41.9322091, "lon": -87.7122345}, {"type": "node", "id": 736037263, "lat": 41.9283499, "lon": -87.7064678}, {"type": "node", "id": 1743245275, "lat": 41.9313728, "lon": -87.7267107}, {"type": "node", "id": 1743245279, "lat": 41.9313746, "lon": -87.7265398}, {"type": "node", "id": 1743245610, "lat": 41.9316212, "lon": -87.7267157}, {"type": "node", "id": 1743245611, "lat": 41.931623, "lon": -87.7265448}, {"type": "node", "id": 1755651481, "lat": 41.9353526, "lon": -87.7183265}, {"type": "node", "id": 1755651625, "lat": 41.9353913, "lon": -87.7183904}, {"type": "node", "id": 1755651879, "lat": 41.9354689, "lon": -87.7182702}, {"type": "node", "id": 1755651931, "lat": 41.9354812, "lon": -87.7182573}, {"type": "node", "id": 1755651933, "lat": 41.9354814, "lon": -87.7182922}, {"type": "node", "id": 1755651980, "lat": 41.935495, "lon": -87.7182792}, {"type": "node", "id": 1755652034, "lat": 41.9355108, "lon": -87.7181559}, {"type": "node", "id": 1755652178, "lat": 41.9355496, "lon": -87.7182198}, {"type": "node", "id": 2285171996, "lat": 41.936156, "lon": -87.7193663, "tags": {"addr:city": "Chicago", "addr:housenumber": "3030", "addr:postcode": "60618", "addr:state": "IL", "addr:street": "North Milwaukee Avenue", "amenity": "restaurant", "name": "Staropolska Restaurant", "phone": "+1-773-342-0779", "website": "http://www.staropolskarestaurant.com/"}}, {"type": "node", "id": 2443252531, "lat": 41.9299174, "lon": -87.7087118, "tags": {"name": "Logan Square", "network": "CTA", "operator": "Chicago Transit Authority", "public_transport": "stop_position", "railway": "stop", "subway": "yes"}}, {"type": "node", "id": 2443252534, "lat": 41.9277311, "lon": -87.7056492}, {"type": "node", "id": 2443252540, "lat": 41.9399169, "lon": -87.7125472}, {"type": "node", "id": 2443252544, "lat": 41.9325033, "lon": -87.7122947}, {"type": "node", "id": 2443252547, "lat": 41.9391243, "lon": -87.7124596, "tags": {"name": "Belmont", "network": "CTA", "operator": "Chicago Transit Authority", "public_transport": "stop_position", "railway": "stop", "subway": "yes"}}, {"type": "node", "id": 2443252554, "lat": 41.9362165, "lon": -87.7123804}, {"type": "node", "id": 2443252559, "lat": 41.9317895, "lon": -87.71176}, {"type": "node", "id": 2443252562, "lat": 41.9409658, "lon": -87.7129858}, {"type": "node", "id": 2443252568, "lat": 41.9283802, "lon": -87.7064263}, {"type": "node", "id": 2443252572, "lat": 41.9413526, "lon": -87.7135114}, {"type": "node", "id": 2443252575, "lat": 41.9319912, "lon": -87.7120108}, {"type": "node", "id": 2443252578, "lat": 41.9420655, "lon": -87.7148849}, {"type": "node", "id": 2443252582, "lat": 41.940523, "lon": -87.7126992}, {"type": "node", "id": 2443252585, "lat": 41.9322259, "lon": -87.7121807}, {"type": "node", "id": 2443252588, "lat": 41.9417619, "lon": -87.7142881}, {"type": "node", "id": 3551892777, "lat": 41.9343813, "lon": -87.7158349, "tags": {"amenity": "restaurant", "cuisine": "mexican", "name": "Tacos Tequilas"}}, {"type": "node", "id": 3551896302, "lat": 41.9337049, "lon": -87.7152636, "tags": {"amenity": "restaurant", "cuisine": "thai", "name": "The Spice"}}, {"type": "node", "id": 3551904715, "lat": 41.9333478, "lon": -87.713791, "tags": {"amenity": "restaurant", "brand": "Giordano's Pizzeria", "brand:wikidata": "Q5563393", "brand:wikipedia": "en:Giordano's Pizzeria", "cuisine": "pizza", "name": "Giordano's Pizzeria"}}, {"type": "node", "id": 3551926769, "lat": 41.9377162, "lon": -87.7212864, "tags": {"amenity": "restaurant", "cuisine": "polish", "name": "Red Apple Buffet"}}, {"type": "node", "id": 3551945144, "lat": 41.9393459, "lon": -87.7163315, "tags": {"amenity": "bar", "name": "Late Bar"}}, {"type": "node", "id": 3551946808, "lat": 41.9393511, "lon": -87.7172411, "tags": {"addr:city": "Chicago", "addr:housenumber": "3556", "addr:postcode": "60618", "addr:state": "IL", "addr:street": "West Belmont Avenue", "amenity": "bar", "name": "Chuck's & Ed's Tavern"}}, {"type": "node", "id": 3563909260, "lat": 41.931975, "lon": -87.7223584, "tags": {"amenity": "restaurant", "cuisine": "salvadoran", "name": "El Guanaco"}}, {"type": "node", "id": 3572450423, "lat": 41.939013, "lon": -87.7241868, "tags": {"amenity": "restaurant", "cuisine": "mexican", "name": "El Gallo Bravo #2"}}, {"type": "node", "id": 3627809229, "lat": 41.9345296, "lon": -87.7174228, "tags": {"amenity": "bar", "name": "Podhale"}}, {"type": "node", "id": 3627809230, "lat": 41.93435, "lon": -87.7174148, "tags": {"amenity": "bar", "name": "Podlasie Club"}}, {"type": "node", "id": 3627809231, "lat": 41.9354831, "lon": -87.7219538, "tags": {"amenity": "bar", "name": "Ski's Lounge"}}, {"type": "node", "id": 3641114043, "lat": 41.931781, "lon": -87.7192571, "tags": {"amenity": "pub", "name": "Bialystok Pub"}}, {"type": "node", "id": 3882556825, "lat": 41.9371181, "lon": -87.7267952, "tags": {"amenity": "restaurant", "brand": "Wingstop", "brand:wikidata": "Q8025339", "brand:wikipedia": "en:Wingstop", "cuisine": "wings", "name": "Wingstop"}}, {"type": "node", "id": 3882579326, "lat": 41.9392769, "lon": -87.7227531, "tags": {"addr:city": "Chicago", "addr:housenumber": "3808", "addr:postcode": "60618", "addr:state": "IL", "addr:street": "West Belmont Avenue", "amenity": "pub", "name": "Edelweiss Tavern", "phone": "+1-773-293-7707", "website": "http://www.edelweisstavern.net/"}}, {"type": "node", "id": 3882580215, "lat": 41.9410645, "lon": -87.7262185, "tags": {"amenity": "bar", "name": "Milano Cafe & Bar"}}, {"type": "node", "id": 3882580216, "lat": 41.9406036, "lon": -87.7260147, "tags": {"amenity": "cafe", "name": "Outdoor Grill"}}, {"type": "node", "id": 5272957250, "lat": 41.9388473, "lon": -87.7125224, "tags": {"name": "Belmont", "network": "CTA", "operator": "Chicago Transit Authority", "public_transport": "stop_position", "railway": "stop", "subway": "yes"}}, {"type": "node", "id": 5272959958, "lat": 41.9295311, "lon": -87.7082428, "tags": {"name": "Logan Square", "network": "CTA", "operator": "Chicago Transit Authority", "public_transport": "stop_position", "railway": "stop", "subway": "yes"}}, {"type": "node", "id": 6050593221, "lat": 41.9392866, "lon": -87.7212467, "tags": {"addr:city": "Chicago", "addr:housenumber": "3734", "addr:postcode": "60618", "addr:state": "IL", "addr:street": "West Belmont Avenue", "amenity": "bar", "name": "Sleeping Village", "phone": "+1-773-654-3971", "website": "https://sleeping-village.com/"}}, {"type": "node", "id": 6261014741, "lat": 41.9394182, "lon": -87.7172402, "tags": {"addr:city": "Chicago", "addr:housenumber": "3420", "addr:postcode": "60618", "addr:state": "IL", "addr:street": "West Belmont Avenue", "amenity": "bar", "name": "Alice\u2019s Lounge", "phone": "+1-773-279-9382"}}, {"type": "node", "id": 6263777970, "lat": 41.9394421, "lon": -87.718779, "tags": {"addr:city": "Chicago", "addr:housenumber": "3634", "addr:postcode": "60618", "addr:state": "IL", "addr:street": "West Belmont Avenue", "amenity": "bar", "name": "Avondale Tap", "phone": "+1-773-754-8341", "website": "https://www.avondaletap.com/"}}, {"type": "node", "id": 6265732543, "lat": 41.9392104, "lon": -87.7273404, "tags": {"addr:city": "Chicago", "addr:housenumber": "3200", "addr:postcode": "60641", "addr:state": "IL", "addr:street": "North Pulaski Road", "amenity": "bar", "name": "Belford Tavern", "phone": "+1-773-725-7112"}}, {"type": "node", "id": 6269109513, "lat": 41.9371647, "lon": -87.721029, "tags": {"addr:city": "Chicago", "addr:housenumber": "3804", "addr:postcode": "60618", "addr:state": "IL", "addr:street": "North Milwaukee Avenue", "amenity": "bar", "name": "Bristol Lounge", "phone": "+1-773-545-7072"}}, {"type": "node", "id": 6282663455, "lat": 41.9401528, "lon": -87.7274057, "tags": {"addr:city": "Chicago", "addr:housenumber": "3234", "addr:postcode": "60618", "addr:state": "IL", "addr:street": "North Pulaski Road", "amenity": "cafe", "name": "City Cafe", "phone": "+1-773-736-5646"}}, {"type": "node", "id": 6301756482, "lat": 41.9285568, "lon": -87.7302765, "tags": {"addr:city": "Chicago", "addr:housenumber": "4110", "addr:postcode": "60639", "addr:state": "IL", "addr:street": "West Wrightwood Avenue", "amenity": "cafe", "name": "Stewarts Private Blend Coffee", "phone": "+1-773-489-2500", "website": "https://stewarts.com/"}}, {"type": "node", "id": 6319244927, "lat": 41.9345972, "lon": -87.7168267, "tags": {"addr:city": "Chicago", "addr:housenumber": "2934", "addr:postcode": "60618", "addr:state": "IL", "addr:street": "North Milwaukee Avenue", "amenity": "cafe", "name": "Kerelys Cuban Cafe & Pizzeria", "phone": "+1-773-394-4040", "website": "https://www.kerelysmenu.com/"}}, {"type": "node", "id": 6322769552, "lat": 41.934803, "lon": -87.7164307, "tags": {"addr:city": "Chicago", "addr:housenumber": "2937", "addr:postcode": "60618", "addr:state": "IL", "addr:street": "North Milwaukee Avenue", "amenity": "bar", "name": "Moe\u2019s Tavern", "phone": "+1-773-227-2937"}}, {"type": "node", "id": 6842444175, "lat": 41.9308301, "lon": -87.7102272}, {"type": "node", "id": 7676120924, "lat": 41.9289022, "lon": -87.7071437}, {"type": "node", "id": 7676120925, "lat": 41.9292607, "lon": -87.707653}, {"type": "node", "id": 7676120928, "lat": 41.9303783, "lon": -87.7095961}, {"type": "way", "id": 23825783, "nodes": [34877706, 258284108, 308439353, 308439354, 258284109, 736037253, 5272957250, 308439083, 369650955, 736037262, 369650956, 369650957, 7676120928, 5272959958, 736037263, 258282963], "tags": {"electrified": "rail", "frequency": "0", "gauge": "1435", "layer": "-5", "name": "O'Hare Branch", "operator": "Chicago Transit Authority", "railway": "subway", "tunnel": "yes", "voltage": "600"}}, {"type": "way", "id": 162436410, "nodes": [1743245275, 1743245610, 1743245611, 1743245279, 1743245275], "tags": {"addr:city": "Chicago", "addr:housenumber": "3959", "addr:postcode": "60647", "addr:street": "West Diversey Avenue", "addr:street:name": "Diversey", "addr:street:prefix": "West", "addr:street:type": "Avenue", "amenity": "restaurant", "building": "yes", "building:levels": "1", "chicago:building_id": "244081", "cuisine": "american", "name": "Golden Nugget Pancake House", "website": "https://www.goldennuggetpancake.com/"}}, {"type": "way", "id": 163894553, "nodes": [1755651481, 1755651625, 1755651933, 1755651879, 1755651931, 1755651980, 1755652178, 1755652034, 1755651481], "tags": {"addr:housenumber": "2988", "addr:street": "North Milwaukee Avenue", "addr:street:name": "Milwaukee", "addr:street:prefix": "North", "addr:street:type": "Avenue", "amenity": "bar", "building": "yes", "building:levels": "3", "chicago:building_id": "228506", "name": "Regina & Joe Tap"}}, {"type": "way", "id": 236279633, "nodes": [2443252534, 2443252568, 7676120924, 7676120925, 2443252531, 6842444175, 2443252559, 2443252575, 2443252585, 2443252544, 2443252554, 2443252547, 2443252540, 2443252582, 2443252562, 2443252572, 2443252588, 2443252578], "tags": {"electrified": "rail", "frequency": "0", "gauge": "1435", "layer": "-5", "name": "O'Hare Branch", "operator": "Chicago Transit Authority", "railway": "subway", "tunnel": "yes", "voltage": "600"}}]}