{"version": 0.6, "generator": "Overpass API 0.7.56.3 eb200aeb", "osm3s": {"timestamp_osm_base": "2020-07-04T02:24:02Z", "copyright": "The data included in this document is from www.openstreetmap.org. The data is made available under ODbL."}, "elements": [{"type": "node", "id": 757813580, "lat": 41.9775729, "lon": -87.688747, "tags": {"amenity": "restaurant", "cuisine": "korean, sushi, japanese", "name": "San Soo Gab San"}}, {"type": "node", "id": 1860724910, "lat": 41.9759646, "lon": -87.6991354, "tags": {"amenity": "restaurant", "cuisine": "american", "name": "Hilltop"}}, {"type": "node", "id": 2196932933, "lat": 41.975692, "lon": -87.6870174}, {"type": "node", "id": 2196932936, "lat": 41.9756933, "lon": -87.6869954}, {"type": "node", "id": 2196932948, "lat": 41.9756979, "lon": -87.6868445}, {"type": "node", "id": 2196933199, "lat": 41.9758293, "lon": -87.6870252}, {"type": "node", "id": 2196933200, "lat": 41.9758305, "lon": -87.686994}, {"type": "node", "id": 2196933201, "lat": 41.9758352, "lon": -87.6868523}, {"type": "node", "id": 2200917499, "lat": 41.9688156, "lon": -87.6827497}, {"type": "node", "id": 2200917502, "lat": 41.9688176, "lon": -87.68261}, {"type": "node", "id": 2200917928, "lat": 41.9691546, "lon": -87.6827591}, {"type": "node", "id": 2200917932, "lat": 41.9691566, "lon": -87.6826194}, {"type": "node", "id": 2380796805, "lat": 41.9757473, "lon": -87.6921891, "tags": {"addr:city": "Chicago", "addr:housenumber": "5159", "addr:postcode": "60625", "addr:state": "IL", "addr:street": "North Lincoln Avenue", "amenity": "cafe", "name": "Jimmys Pizza Cafe", "note": "Cash ONLY", "outdoor_seating": "no", "phone": "+1-773-293-6992", "smoking": "no", "source": "local_knowledge", "takeaway": "yes"}}, {"type": "node", "id": 2406124091, "lat": 41.975703, "lon": -87.6921867, "tags": {"addr:city": "Chicago", "addr:housenumber": "5157", "addr:postcode": "60625", "addr:street": "North Lincoln Avenue", "amenity": "restaurant", "cuisine": "mexican", "name": "La Cabana De Don Luis", "outdoor_seating": "no", "phone": "1 (773)-271-5176", "smoking": "no", "takeaway": "yes"}}, {"type": "node", "id": 5143534457, "lat": 41.9799271, "lon": -87.6814957, "tags": {"addr:city": "Chicago", "addr:housenumber": "2050", "addr:postcode": "60625", "addr:state": "IL", "addr:street": "West Balmoral Avenue", "amenity": "cafe", "description": "entrance is one block north on Rancher, through the parking lot", "name": "Half Acre Beer Co. Balmoral Tap Room & Garden", "opening_hours": "Th 16:00-23:00; Fr,Sa 11:00-00:00; Su 11:00-22:00", "phone": "+1-773-754-8488", "website": "https://www.halfacrebeer.com/balmoral-brewery/"}}, {"type": "node", "id": 5714331232, "lat": 41.9787636, "lon": -87.692894, "tags": {"addr:city": "Chicago", "addr:housenumber": "5336", "addr:postcode": "60625", "addr:state": "IL", "addr:street": "North Lincoln Avenue", "amenity": "bar", "description": "dive bar, karaoke", "name": "Hidden Cove", "phone": "+1-773-275-6711"}}, {"type": "node", "id": 5714336861, "lat": 41.9818853, "lon": -87.6936097, "tags": {"addr:city": "Chicago", "addr:housenumber": "5526", "addr:postcode": "60625", "addr:state": "IL", "addr:street": "North Lincoln Avenue", "amenity": "bar", "description": "Karaoke venue, private rooms", "name": "Lincoln Karaoke", "phone": "+1-773-895-2299", "website": "https://www.lincolnkaraokechicago.com/"}}, {"type": "node", "id": 6263275388, "lat": 41.9734206, "lon": -87.6918767, "tags": {"addr:city": "Chicago", "addr:housenumber": "5062", "addr:postcode": "60625", "addr:state": "IL", "addr:street": "North Lincoln Avenue", "amenity": "bar", "name": "Atlantic Bar & Grill", "phone": "+1-773-506-7090", "website": "http://www.theatlanticbar.com/"}}, {"type": "node", "id": 6269858125, "lat": 41.9790793, "lon": -87.6929126, "tags": {"addr:city": "Chicago", "addr:housenumber": "5350", "addr:postcode": "60625", "addr:state": "IL", "addr:street": "North Lincoln Avenue", "amenity": "cafe", "name": "Cafe Utjeha", "phone": "+1-773-907-8853"}}, {"type": "node", "id": 6272493132, "lat": 41.9819119, "lon": -87.6936136, "tags": {"addr:city": "Chicago", "addr:housenumber": "5530", "addr:postcode": "60625", "addr:state": "IL", "addr:street": "North Lincoln Avenue", "amenity": "cafe", "name": "Bel-Ami", "phone": "+1-773-878-2808"}}, {"type": "node", "id": 6282835886, "lat": 41.9761285, "lon": -87.6871299, "tags": {"addr:city": "Chicago", "addr:housenumber": "2306", "addr:postcode": "60625", "addr:state": "IL", "addr:street": "West Foster Avenue", "amenity": "bar", "name": "Claddagh Ring", "phone": "+1-773-271-4794"}}, {"type": "node", "id": 6284731178, "lat": 41.9716883, "lon": -87.6901182, "tags": {"addr:city": "Chicago", "addr:housenumber": "4925", "addr:postcode": "60625", "addr:state": "IL", "addr:street": "North Lincoln Avenue", "amenity": "cafe", "name": "Dorothy\u2019s Can Do Cafe", "phone": "+1-773-784-3200"}}, {"type": "node", "id": 6286561753, "lat": 41.9695753, "lon": -87.6886037, "tags": {"addr:city": "Chicago", "addr:housenumber": "4835", "addr:postcode": "60625", "addr:state": "IL", "addr:street": "North Western Avenue", "amenity": "restaurant", "cuisine": "fine_dining;american", "name": "Elizabeth Restaurant", "phone": "+1-773-681-0651", "website": "https://www.elizabeth-restaurant.com/"}}, {"type": "node", "id": 6292161039, "lat": 41.97212, "lon": -87.6911666, "tags": {"addr:city": "Chicago", "addr:housenumber": "5008", "addr:postcode": "60625", "addr:state": "IL", "addr:street": "North Lincoln Avenue", "amenity": "cafe", "name": "Groundswell Coffee Roasters", "phone": "+1-763-293-7129", "website": "https://groundswellcoffeeroasters.com/"}}, {"type": "node", "id": 6301079972, "lat": 41.9737441, "lon": -87.6920884, "tags": {"addr:city": "Chicago", "addr:housenumber": "5074", "addr:postcode": "60625", "addr:state": "IL", "addr:street": "North Lincoln Avenue", "amenity": "cafe", "name": "Royal Cafe"}}, {"type": "node", "id": 6315715649, "lat": 41.9750479, "lon": -87.6895168, "tags": {"addr:city": "Chicago", "addr:housenumber": "5130", "addr:postcode": "60625", "addr:state": "IL", "addr:street": "North Western Avenue", "amenity": "cafe", "name": "The Priory Bar & Kitchen", "phone": "+1-773-942-7200", "website": "https://www.priorychicago.com/"}}, {"type": "node", "id": 6322083380, "lat": 41.9753237, "lon": -87.6994461, "tags": {"addr:city": "Chicago", "addr:housenumber": "5145", "addr:postcode": "60625", "addr:state": "IL", "addr:street": "North California Avenue", "amenity": "cafe", "name": "Swedish Covenant Cafeteria"}}, {"type": "node", "id": 6324417621, "lat": 41.9688927, "lon": -87.6842967, "tags": {"addr:city": "Chicago", "addr:housenumber": "2200", "addr:postcode": "60625", "addr:state": "IL", "addr:street": "West Lawrence Avenue", "amenity": "bar", "name": "The Sixth", "phone": "+1-773-645-4949", "website": "https://www.thesixthbar.com/"}}, {"type": "node", "id": 6403035842, "lat": 41.9745374, "lon": -87.6924826, "tags": {"addr:city": "Chicago", "addr:housenumber": "5114", "addr:postcode": "60625", "addr:state": "IL", "addr:street": "North Lincoln Avenue", "amenity": "restaurant", "cuisine": "korean", "name": "Dancen", "opening_hours": "Mo-Su 18:00-01:00", "phone": "+1-773-878-2400"}}, {"type": "node", "id": 7016096314, "lat": 41.9731321, "lon": -87.6912821, "tags": {"addr:housenumber": "5047", "addr:street": "North Lincoln Avenue", "amenity": "restaurant", "description": "Central Asian cuisine", "name": "Jibek Jolu", "opening_hours": "Mo, Tu, Th, Su 11:00-22:00; Fr, Sa 11:00-23:00", "phone": "7738788394", "website": "https://jibekjolu.us/"}}, {"type": "way", "id": 209484318, "nodes": [2196932933, 2196933199, 2196933200, 2196933201, 2196932948, 2196932936, 2196932933], "tags": {"addr:city": "Chicago", "addr:housenumber": "2301", "addr:postcode": "60625", "addr:state": "IL", "addr:street": "West Foster Avenue", "addr:street:name": "Foster", "addr:street:prefix": "West", "addr:street:type": "Avenue", "amenity": "restaurant", "building": "yes", "building:levels": "1", "chicago:building_id": "78108", "name": "Baobab Bbq", "phone": "+1-872-888-8922", "website": "https://www.baobabbbq.com/"}}, {"type": "way", "id": 209938915, "nodes": [2200917499, 2200917928, 2200917932, 2200917502, 2200917499], "tags": {"addr:housenumber": "2124", "addr:street": "West Lawrence Avenue", "addr:street:name": "Lawrence", "addr:street:prefix": "West", "addr:street:type": "Avenue", "amenity": "restaurant", "building": "yes", "building:levels": "2", "chicago:building_id": "102377", "cuisine": "pizza", "name": "Borelli's Pizza"}}]}