{"version": 0.6, "generator": "Overpass API 0.7.56.1004 6cd3eaec", "osm3s": {"timestamp_osm_base": "2020-07-22T07:17:03Z", "copyright": "The data included in this document is from www.openstreetmap.org. The data is made available under ODbL."}, "elements": [{"type": "node", "id": 2206112623, "lat": 41.8163826, "lon": -87.6407319}, {"type": "node", "id": 2206112625, "lat": 41.8163848, "lon": -87.6406347}, {"type": "node", "id": 2206112850, "lat": 41.8165665, "lon": -87.6407355}, {"type": "node", "id": 2206112857, "lat": 41.8165673, "lon": -87.6406382}, {"type": "node", "id": 2361072387, "lat": 41.8091967, "lon": -87.6200842, "tags": {"addr:housenumber": "225", "addr:street": "East 47th Street", "amenity": "restaurant", "cuisine": "chinese", "name": "Dragon Express"}}, {"type": "node", "id": 2396811132, "lat": 41.8161616, "lon": -87.6409837, "tags": {"amenity": "restaurant", "name": "Takito Grill"}}, {"type": "node", "id": 6316586470, "lat": 41.8206767, "lon": -87.640716, "tags": {"addr:city": "Chicago", "addr:housenumber": "4035", "addr:postcode": "60609", "addr:state": "IL", "addr:street": "South Wallace Street", "amenity": "bar", "name": "Village Inn"}}, {"type": "node", "id": 6565212549, "lat": 41.8094283, "lon": -87.6231471, "tags": {"addr:city": "Chicago", "addr:housenumber": "78", "addr:postcode": "60653", "addr:state": "IL", "addr:street": "East 47th Street", "amenity": "cafe", "name": "Sip & Savor", "phone": "+1-773-952-4532", "website": "http://www.sipandsavorchicago.com"}}, {"type": "way", "id": 210528404, "nodes": [2206112623, 2206112850, 2206112857, 2206112625, 2206112623], "tags": {"addr:city": "Chicago", "addr:housenumber": "558", "addr:postcode": "60609", "addr:state": "IL", "addr:street": "West 43rd Street", "addr:street:name": "43rd", "addr:street:prefix": "West", "addr:street:type": "Street", "amenity": "restaurant", "building": "yes", "building:levels": "1", "chicago:building_id": "431681", "cuisine": "pizza", "name": "Pizza Nova Express"}}]}