{"version": 0.6, "generator": "Overpass API 0.7.56.1004 6cd3eaec", "osm3s": {"timestamp_osm_base": "2020-07-22T00:02:03Z", "copyright": "The data included in this document is from www.openstreetmap.org. The data is made available under ODbL."}, "elements": [{"type": "node", "id": 346233089, "lat": 41.9612616, "lon": -87.6835267, "tags": {"amenity": "cafe", "cuisine": "coffee_shop", "name": "Julius Meinl"}}, {"type": "node", "id": 346234680, "lat": 41.9616382, "lon": -87.6761596, "tags": {"amenity": "cafe", "brand": "Starbucks", "brand:wikidata": "Q37158", "brand:wikipedia": "en:Starbucks", "cuisine": "coffee_shop", "name": "Starbucks", "official_name": "Starbucks Coffee", "takeaway": "yes"}}, {"type": "node", "id": 346235240, "lat": 41.9616342, "lon": -87.6766491, "tags": {"amenity": "restaurant", "cuisine": "mexican", "name": "La Amistad"}}, {"type": "node", "id": 414253932, "lat": 41.9605249, "lon": -87.6836882}, {"type": "node", "id": 414253933, "lat": 41.9608674, "lon": -87.6836899}, {"type": "node", "id": 414253934, "lat": 41.9605679, "lon": -87.6833952}, {"type": "node", "id": 1315577349, "lat": 41.9616363, "lon": -87.6753928, "tags": {"addr:city": "Chicago", "addr:housenumber": "1820", "addr:postcode": "60613", "addr:state": "IL", "addr:street": "West Montrose Avenue", "amenity": "restaurant", "cuisine": "fish", "name": "Glenn's Diner", "phone": "+1-773-506-1720", "website": "http://www.glennsdiner.com/"}}, {"type": "node", "id": 1315577350, "lat": 41.9616307, "lon": -87.6758097, "tags": {"amenity": "bar"}}, {"type": "node", "id": 1317827212, "lat": 41.9616108, "lon": -87.6796436, "tags": {"amenity": "restaurant", "brand": "Giordano's Pizzeria", "brand:wikidata": "Q5563393", "brand:wikipedia": "en:Giordano's Pizzeria", "cuisine": "pizza", "name": "Giordano's Pizzeria"}}, {"type": "node", "id": 1317827223, "lat": 41.9613609, "lon": -87.6754823, "tags": {"amenity": "restaurant", "cuisine": "mexican", "name": "El Torito"}}, {"type": "node", "id": 1317862200, "lat": 41.9613426, "lon": -87.67683, "tags": {"amenity": "restaurant", "cuisine": "pizza", "name": "Chicago's Pizza"}}, {"type": "node", "id": 1317862227, "lat": 41.959724, "lon": -87.6828837, "tags": {"addr:city": "Chicago", "addr:housenumber": "4300", "addr:postcode": "60618", "addr:state": "IL", "addr:street": "North Lincoln Avenue", "amenity": "restaurant", "name": "The Bad Apple", "phone": "+1-773-360-8406", "website": "http://www.badapplebar.com/"}}, {"type": "node", "id": 1317862245, "lat": 41.9647919, "lon": -87.6858529, "tags": {"amenity": "cafe", "brand": "Starbucks", "brand:wikidata": "Q37158", "brand:wikipedia": "en:Starbucks", "cuisine": "coffee_shop", "name": "Starbucks", "official_name": "Starbucks Coffee", "takeaway": "yes"}}, {"type": "node", "id": 1385119524, "lat": 41.9650343, "lon": -87.6864001, "tags": {"addr:city": "Chicago", "addr:housenumber": "4600", "addr:postcode": "60625", "addr:state": "IL", "addr:street": "North Lincoln Avenue", "amenity": "restaurant", "cuisine": "american", "name": "Fork", "phone": "+1-773-751-1500", "website": "http://forkchicago.net/"}}, {"type": "node", "id": 1432788849, "lat": 41.9613167, "lon": -87.6787734, "tags": {"amenity": "restaurant", "name": "Marmalade"}}, {"type": "node", "id": 1432788850, "lat": 41.9610993, "lon": -87.6839782, "tags": {"amenity": "bar", "name": "Tiny Lounge"}}, {"type": "node", "id": 1432788851, "lat": 41.961224, "lon": -87.6839822, "tags": {"amenity": "restaurant", "cuisine": "american", "name": "Monty Gael's"}}, {"type": "node", "id": 1432789477, "lat": 41.9616298, "lon": -87.6756205, "tags": {"amenity": "restaurant", "cuisine": "thai", "name": "Roong Petch"}}, {"type": "node", "id": 1557244573, "lat": 41.9648032, "lon": -87.6862189, "tags": {"amenity": "restaurant", "name": "Daily Bar and Grill"}}, {"type": "node", "id": 1557244574, "lat": 41.9650425, "lon": -87.6860231, "tags": {"amenity": "restaurant", "cuisine": "indian", "name": "Essence of India"}}, {"type": "node", "id": 1557244581, "lat": 41.959466, "lon": -87.6826489, "tags": {"addr:city": "Chicago", "addr:housenumber": "4264", "addr:postcode": "60618", "addr:state": "IL", "addr:street": "North Lincoln Avenue", "amenity": "bar", "name": "Gannon\u2019s Pub", "phone": "+1-773-281-1007", "website": "http://www.gannonspub.com/"}}, {"type": "node", "id": 1557244584, "lat": 41.9674616, "lon": -87.687611, "tags": {"addr:city": "Chicago", "addr:housenumber": "4729", "addr:postcode": "60625", "addr:state": "IL", "addr:street": "North Lincoln Avenue", "amenity": "restaurant", "cuisine": "american", "name": "Cafe Selmarie", "phone": "+1-773-989-5595", "website": "http://cafeselmarie.com/"}}, {"type": "node", "id": 1557244593, "lat": 41.9633493, "lon": -87.6853445, "tags": {"addr:city": "Chicago", "addr:housenumber": "4500", "addr:postcode": "60625", "addr:state": "IL", "addr:street": "North Lincoln Avenue", "amenity": "restaurant", "name": "Gideon Welles", "phone": "+1-773-907-2226", "website": "http://gideonchicago.com/"}}, {"type": "node", "id": 1557259859, "lat": 41.9612392, "lon": -87.6840893, "tags": {"amenity": "restaurant", "cuisine": "pizza", "name": "Apart Pizza"}}, {"type": "node", "id": 1627008081, "lat": 41.9616577, "lon": -87.6750199, "tags": {"addr:city": "Chicago", "addr:housenumber": "1810", "addr:postcode": "60613", "addr:state": "IL", "addr:street": "West Montrose Avenue", "amenity": "restaurant", "cuisine": "coffee_shop", "name": "Bayan Ko", "phone": "+1-773-698-6373"}}, {"type": "node", "id": 1627026644, "lat": 41.9670666, "lon": -87.679341, "tags": {"addr:city": "Chicago", "addr:housenumber": "4700", "addr:postcode": "60625", "addr:state": "IL", "addr:street": "North Damen Avenue", "amenity": "cafe", "name": "The Perfect Cup", "phone": "+1-773-989-4177", "website": "http://perfectcupchicago.com/"}}, {"type": "node", "id": 1719743394, "lat": 41.9637446, "lon": -87.6855507, "tags": {"amenity": "restaurant", "cuisine": "italian", "name": "Due Lire"}}, {"type": "node", "id": 1719743398, "lat": 41.9639939, "lon": -87.685725, "tags": {"addr:city": "Chicago", "addr:housenumber": "4530", "addr:postcode": "60625", "addr:state": "IL", "addr:street": "North Lincoln Avenue", "amenity": "bar", "name": "The Grafton", "phone": "+1-773-271-9000", "website": "https://www.thegrafton.com/"}}, {"type": "node", "id": 1719743443, "lat": 41.9614679, "lon": -87.6694841, "tags": {"amenity": "restaurant", "cuisine": "mexican", "name": "Mixteco Grill"}}, {"type": "node", "id": 1719743459, "lat": 41.965015, "lon": -87.6756907, "tags": {"amenity": "restaurant", "cuisine": "italian", "name": "Caro Mio"}}, {"type": "node", "id": 1719743519, "lat": 41.9653337, "lon": -87.6727215, "tags": {"amenity": "restaurant", "cuisine": "sushi", "name": "Fin"}}, {"type": "node", "id": 2196852266, "lat": 41.9605686, "lon": -87.6831149}, {"type": "node", "id": 2196852275, "lat": 41.9605716, "lon": -87.6829126}, {"type": "node", "id": 2196852428, "lat": 41.9606238, "lon": -87.6831603}, {"type": "node", "id": 2196852486, "lat": 41.9606386, "lon": -87.6831178}, {"type": "node", "id": 2196852494, "lat": 41.9606407, "lon": -87.6829947}, {"type": "node", "id": 2196852573, "lat": 41.9606681, "lon": -87.6829944}, {"type": "node", "id": 2196852579, "lat": 41.960669, "lon": -87.6829153}, {"type": "node", "id": 2196853939, "lat": 41.9614408, "lon": -87.6909119, "tags": {"amenity": "restaurant", "name": "Cafe Lutz"}}, {"type": "node", "id": 2196861228, "lat": 41.9635517, "lon": -87.6857981}, {"type": "node", "id": 2196861315, "lat": 41.9635772, "lon": -87.6856967}, {"type": "node", "id": 2196861327, "lat": 41.9635814, "lon": -87.6857169}, {"type": "node", "id": 2196861353, "lat": 41.963588, "lon": -87.6856745}, {"type": "node", "id": 2196861408, "lat": 41.9635989, "lon": -87.6856689}, {"type": "node", "id": 2196861414, "lat": 41.9635999, "lon": -87.6858307}, {"type": "node", "id": 2196861551, "lat": 41.9636233, "lon": -87.6856025}, {"type": "node", "id": 2196861555, "lat": 41.9636242, "lon": -87.6857643}, {"type": "node", "id": 2196861579, "lat": 41.963632, "lon": -87.6856851}, {"type": "node", "id": 2196861620, "lat": 41.9636414, "lon": -87.685663}, {"type": "node", "id": 2196861651, "lat": 41.9636485, "lon": -87.6856978}, {"type": "node", "id": 2196861689, "lat": 41.9636566, "lon": -87.685672}, {"type": "node", "id": 2196861772, "lat": 41.9636773, "lon": -87.6854567}, {"type": "node", "id": 2196862158, "lat": 41.9637242, "lon": -87.6854875}, {"type": "node", "id": 2196877059, "lat": 41.9674433, "lon": -87.6882328}, {"type": "node", "id": 2196877474, "lat": 41.9675074, "lon": -87.6882714}, {"type": "node", "id": 2196877628, "lat": 41.9675108, "lon": -87.688259}, {"type": "node", "id": 2196877665, "lat": 41.9675389, "lon": -87.6879648}, {"type": "node", "id": 2196877836, "lat": 41.9675721, "lon": -87.6882999}, {"type": "node", "id": 2196878328, "lat": 41.9676606, "lon": -87.6880444}, {"type": "node", "id": 2200916994, "lat": 41.9685628, "lon": -87.6740172}, {"type": "node", "id": 2200917010, "lat": 41.9685654, "lon": -87.6737613}, {"type": "node", "id": 2200917080, "lat": 41.9686022, "lon": -87.6713361}, {"type": "node", "id": 2200917091, "lat": 41.9686053, "lon": -87.6711669}, {"type": "node", "id": 2200917193, "lat": 41.9686489, "lon": -87.6713375}, {"type": "node", "id": 2200917194, "lat": 41.9686491, "lon": -87.6713706}, {"type": "node", "id": 2200917307, "lat": 41.9687151, "lon": -87.6740211}, {"type": "node", "id": 2200917324, "lat": 41.9687191, "lon": -87.6737646}, {"type": "node", "id": 2200917340, "lat": 41.9687287, "lon": -87.6713734}, {"type": "node", "id": 2200917344, "lat": 41.9687298, "lon": -87.6713385}, {"type": "node", "id": 2200917381, "lat": 41.9687463, "lon": -87.6713401}, {"type": "node", "id": 2200917392, "lat": 41.9687494, "lon": -87.6711709}, {"type": "node", "id": 2200917499, "lat": 41.9688156, "lon": -87.6827497}, {"type": "node", "id": 2200917502, "lat": 41.9688176, "lon": -87.68261}, {"type": "node", "id": 2200917928, "lat": 41.9691546, "lon": -87.6827591}, {"type": "node", "id": 2200917932, "lat": 41.9691566, "lon": -87.6826194}, {"type": "node", "id": 2200925529, "lat": 41.9718151, "lon": -87.6791283}, {"type": "node", "id": 2200925539, "lat": 41.9718192, "lon": -87.6788873}, {"type": "node", "id": 2200925875, "lat": 41.9719742, "lon": -87.6791321}, {"type": "node", "id": 2200925896, "lat": 41.9719784, "lon": -87.6788912}, {"type": "node", "id": 2276406961, "lat": 41.9616119, "lon": -87.6787867, "tags": {"addr:city": "Chicago", "addr:housenumber": "1970", "addr:postcode": "60618", "addr:state": "IL", "addr:street": "West Montrose Avenue", "amenity": "restaurant", "cuisine": "New_American", "name": "Fountainhead", "phone": "+1-773-697-8204", "website": "http://fountainheadchicago.com/"}}, {"type": "node", "id": 2276407295, "lat": 41.9667045, "lon": -87.6793194, "tags": {"amenity": "restaurant", "name": "Aroy Thai"}}, {"type": "node", "id": 2293823034, "lat": 41.965037, "lon": -87.6738629, "tags": {"addr:city": "Chicago", "addr:housenumber": "4557", "addr:postcode": "60640", "addr:state": "IL", "addr:street": "North Ravenswood Avenue", "amenity": "bar", "cuisine": "irish", "name": "O'Shaughnessy's", "opening_hours": "Mo-Su 11:00-02:00", "phone": "+1-773-944-9896", "website": "http://www.oshaughnessyschicago.com/"}}, {"type": "node", "id": 2673354533, "lat": 41.9684173, "lon": -87.6882204, "tags": {"amenity": "restaurant", "cuisine": "italian", "name": "Trattoria Trullo"}}, {"type": "node", "id": 2673354534, "lat": 41.9682471, "lon": -87.6881332, "tags": {"amenity": "restaurant", "cuisine": "greek", "name": "Barba Yianni"}}, {"type": "node", "id": 2969264559, "lat": 41.9680798, "lon": -87.6884053, "tags": {"addr:city": "Chicago", "addr:housenumber": "4752", "addr:postcode": "60625", "addr:street": "North Lincoln Avenue", "amenity": "restaurant", "cuisine": "mexican", "name": "Garcia's", "toilets:wheelchair": "yes", "wheelchair": "yes"}}, {"type": "node", "id": 3409239467, "lat": 41.9719499, "lon": -87.6790776, "tags": {"addr:city": "Chicago", "addr:housenumber": "4947", "addr:postcode": "60625", "addr:state": "IL", "addr:street": "North Damen Avenue", "amenity": "restaurant", "cuisine": "coffee_shop", "name": "Bang Bang Pie & Biscuits", "phone": "+1-312-644-3524", "website": "https://banderarestaurants.com"}}, {"type": "node", "id": 3409239468, "lat": 41.9718542, "lon": -87.6790803, "tags": {"addr:city": "Chicago", "addr:housenumber": "4943", "addr:postcode": "60625", "addr:state": "IL", "addr:street": "North Damen Avenue", "amenity": "restaurant", "cuisine": "american", "name": "Over Easy Cafe", "phone": "+1-773-506-2605", "website": "https://www.overeasycafechicago.com/"}}, {"type": "node", "id": 3784144930, "lat": 41.968987, "lon": -87.6733021, "tags": {"amenity": "restaurant", "cuisine": "mexican", "name": "Garcia's Restaurant", "takeaway": "yes"}}, {"type": "node", "id": 3809208225, "lat": 41.9682723, "lon": -87.688678, "tags": {"amenity": "restaurant", "cuisine": "Breakfast_and_lunch", "name": "Pannekoken"}}, {"type": "node", "id": 5168250756, "lat": 41.9652111, "lon": -87.6861157, "tags": {"addr:city": "Chicago", "addr:housenumber": "4609", "addr:postcode": "60625", "addr:state": "IL", "addr:street": "North Lincoln Avenue", "amenity": "restaurant", "cuisine": "southern", "description": "Bib Gourmand recommendation", "name": "Luella's Southern Kitchen", "phone": "+1-773-961-8196", "website": "http://luellassouthernkitchen.com/"}}, {"type": "node", "id": 5791106932, "lat": 41.9675954, "lon": -87.6750827, "tags": {"addr:city": "Chicago", "addr:housenumber": "4710", "addr:postcode": "60640", "addr:state": "IL", "addr:street": "North Ravenswood Avenue", "amenity": "restaurant", "cuisine": "american;new_american;american_new", "name": "Band of Bohemia", "phone": "+1-773-271-4710", "website": "http://www.bandofbohemia.com"}}, {"type": "node", "id": 5861896117, "lat": 41.9608711, "lon": -87.6836122}, {"type": "node", "id": 5861896118, "lat": 41.9605287, "lon": -87.6835098}, {"type": "node", "id": 6263275388, "lat": 41.9734206, "lon": -87.6918767, "tags": {"addr:city": "Chicago", "addr:housenumber": "5062", "addr:postcode": "60625", "addr:state": "IL", "addr:street": "North Lincoln Avenue", "amenity": "bar", "name": "Atlantic Bar & Grill", "phone": "+1-773-506-7090", "website": "http://www.theatlanticbar.com/"}}, {"type": "node", "id": 6267141732, "lat": 41.9614109, "lon": -87.6705867, "tags": {"addr:city": "Chicago", "addr:housenumber": "1637", "addr:postcode": "60613", "addr:state": "IL", "addr:street": "West Montrose Avenue", "amenity": "restaurant", "name": "Bienmesabe", "phone": "+1-773-549-5538", "website": "https://bienmesabechicago.com/"}}, {"type": "node", "id": 6283230832, "lat": 41.9682487, "lon": -87.6917466, "tags": {"addr:city": "Chicago", "addr:housenumber": "2501", "addr:postcode": "60625", "addr:state": "IL", "addr:street": "West Lawrence Avenue", "amenity": "cafe", "name": "Coffee Slasticarna Drina", "phone": "+1-773-275-5568"}}, {"type": "node", "id": 6284731178, "lat": 41.9716883, "lon": -87.6901182, "tags": {"addr:city": "Chicago", "addr:housenumber": "4925", "addr:postcode": "60625", "addr:state": "IL", "addr:street": "North Lincoln Avenue", "amenity": "cafe", "name": "Dorothy\u2019s Can Do Cafe", "phone": "+1-773-784-3200"}}, {"type": "node", "id": 6286561753, "lat": 41.9695753, "lon": -87.6886037, "tags": {"addr:city": "Chicago", "addr:housenumber": "4835", "addr:postcode": "60625", "addr:state": "IL", "addr:street": "North Western Avenue", "amenity": "restaurant", "cuisine": "fine_dining;american", "name": "Elizabeth Restaurant", "phone": "+1-773-681-0651", "website": "https://www.elizabeth-restaurant.com/"}}, {"type": "node", "id": 6290117327, "lat": 41.9617643, "lon": -87.6734467, "tags": {"addr:city": "Chicago", "addr:housenumber": "4401", "addr:postcode": "60640", "addr:state": "IL", "addr:street": "North Ravenswood Avenue", "amenity": "cafe", "name": "First Slice", "phone": "+1-773-506-7380", "website": "http://firstslice.org/"}}, {"type": "node", "id": 6291758395, "lat": 41.9643176, "lon": -87.6854858, "tags": {"addr:city": "Chicago", "addr:housenumber": "4539", "addr:postcode": "60625", "addr:state": "IL", "addr:street": "North Lincoln Avenue", "amenity": "restaurant", "name": "Gather", "phone": "+1-773-506-9300", "website": "https://www.gatherchicago.com/"}}, {"type": "node", "id": 6291787688, "lat": 41.9678492, "lon": -87.6877745, "tags": {"addr:city": "Chicago", "addr:housenumber": "4743", "addr:postcode": "60625", "addr:state": "IL", "addr:street": "North Lincoln Avenue", "amenity": "cafe", "name": "Geraldine\u2019s", "phone": "+1-", "toilets:wheelchair": "yes", "wheelchair": "yes"}}, {"type": "node", "id": 6292161039, "lat": 41.97212, "lon": -87.6911666, "tags": {"addr:city": "Chicago", "addr:housenumber": "5008", "addr:postcode": "60625", "addr:state": "IL", "addr:street": "North Lincoln Avenue", "amenity": "cafe", "name": "Groundswell Coffee Roasters", "phone": "+1-763-293-7129", "website": "https://groundswellcoffeeroasters.com/"}}, {"type": "node", "id": 6297501127, "lat": 41.9672827, "lon": -87.6874715, "tags": {"addr:city": "Chicago", "addr:housenumber": "4721", "addr:postcode": "60625", "addr:state": "IL", "addr:street": "North Lincoln Avenue", "amenity": "bar", "name": "H\u00fcettenbar", "phone": "+1-773-561-2507", "website": "http://www.huettenbar.com/"}}, {"type": "node", "id": 6300182145, "lat": 41.9613575, "lon": -87.6755899, "tags": {"addr:city": "Chicago", "addr:housenumber": "1829", "addr:postcode": "60613", "addr:state": "IL", "addr:street": "West Montrose Avenue", "amenity": "bar", "name": "The Ravenswood Tavern", "phone": "+1-773-528-3253", "website": "https://www.theravenswoodtavern.com/"}}, {"type": "node", "id": 6300281117, "lat": 41.9632016, "lon": -87.6737278, "tags": {"addr:city": "Chicago", "addr:housenumber": "1769", "addr:postcode": "60640", "addr:state": "IL", "addr:street": "West Sunnyside Avenue", "amenity": "restaurant", "name": "Spacca Napoli", "phone": "+1-773-878-2420", "website": "https://www.spaccanapolipizzeria.com/"}}, {"type": "node", "id": 6300322752, "lat": 41.9616845, "lon": -87.6750333, "tags": {"addr:city": "Chicago", "addr:housenumber": "1812", "addr:postcode": "60613", "addr:state": "IL", "addr:street": "West Montrose Avenue", "amenity": "cafe", "name": "Spoken Cafe", "phone": "+1-773-769-2000", "website": "http://spokenchicago.com/spoken/"}}, {"type": "node", "id": 6300336899, "lat": 41.9656329, "lon": -87.6885158, "tags": {"addr:city": "Chicago", "addr:housenumber": "4623", "addr:postcode": "60625", "addr:state": "IL", "addr:street": "North Western Avenue", "amenity": "bar", "name": "Spyners Pub", "phone": "+1-773-784-8719", "website": "spyners.com"}}, {"type": "node", "id": 6300337645, "lat": 41.9575235, "lon": -87.6813429, "tags": {"addr:city": "Chicago", "addr:housenumber": "4160", "addr:postcode": "60618", "addr:state": "IL", "addr:street": "North Lincoln Avenue", "amenity": "restaurant", "name": "Square Biscuits", "phone": "+1-773-880-1100", "website": "https://www.squarebiscuits.com/"}}, {"type": "node", "id": 6300622085, "lat": 41.9575579, "lon": -87.6814389, "tags": {"addr:city": "Chicago", "addr:housenumber": "4164", "addr:postcode": "60618", "addr:state": "IL", "addr:street": "North Lincoln Avenue", "amenity": "cafe", "name": "Red Eyes Coffee", "phone": "+1-773-327-9478"}}, {"type": "node", "id": 6300865723, "lat": 41.9653736, "lon": -87.6755998, "tags": {"addr:city": "Chicago", "addr:housenumber": "1820", "addr:postcode": "60640", "addr:state": "IL", "addr:street": "West Wilson Avenue", "amenity": "restaurant", "name": "The River Valley Farmer\u2019s Table", "phone": "+1-872-208-3267", "website": "https://rvrvalley.com/rvr-farmers-table"}}, {"type": "node", "id": 6301079972, "lat": 41.9737441, "lon": -87.6920884, "tags": {"addr:city": "Chicago", "addr:housenumber": "5074", "addr:postcode": "60625", "addr:state": "IL", "addr:street": "North Lincoln Avenue", "amenity": "cafe", "name": "Royal Cafe"}}, {"type": "node", "id": 6304215661, "lat": 41.9642595, "lon": -87.6853788, "tags": {"addr:city": "Chicago", "addr:housenumber": "4535", "addr:postcode": "60625", "addr:state": "IL", "addr:street": "North Lincoln Avenue", "amenity": "restaurant", "cuisine": "american;new_american;american_new;vegetarian", "name": "The Warbler", "phone": "+1-773-681-0950", "website": "https://www.thewarblerchicago.com/"}}, {"type": "node", "id": 6304278992, "lat": 41.9594754, "lon": -87.6821871, "tags": {"addr:city": "Chicago", "addr:housenumber": "4265", "addr:postcode": "60618", "addr:state": "IL", "addr:street": "North Lincoln Avenue", "amenity": "bar", "name": "The Wild Goose Bar & Grill", "phone": "+1-773-281-7112", "website": "https://www.wildgoosebar.com/"}}, {"type": "node", "id": 6314808938, "lat": 41.9682955, "lon": -87.6916405, "tags": {"addr:city": "Chicago", "addr:housenumber": "2501", "addr:postcode": "60625", "addr:state": "IL", "addr:street": "West Lawrence Avenue", "amenity": "restaurant", "name": "Isla Pilipina", "phone": "+1-773-271-2988", "website": "https://www.islapilipina.com/"}}, {"type": "node", "id": 6315247400, "lat": 41.9653911, "lon": -87.686206, "tags": {"addr:city": "Chicago", "addr:housenumber": "4613", "addr:postcode": "60625", "addr:state": "IL", "addr:street": "North Lincoln Avenue", "amenity": "cafe", "name": "The Grind"}}, {"type": "node", "id": 6316968107, "lat": 41.9617006, "lon": -87.6758274, "tags": {"addr:city": "Chicago", "addr:housenumber": "1834", "addr:postcode": "60613", "addr:state": "IL", "addr:street": "West Montrose Avenue", "amenity": "bar", "name": "Wolcott Tap", "phone": "+1-773-360-7579", "website": "https://www.wolcotttap.com/"}}, {"type": "node", "id": 6317045353, "lat": 41.9616864, "lon": -87.680248, "tags": {"addr:city": "Chicago", "addr:housenumber": "2030-32", "addr:postcode": "60618", "addr:state": "IL", "addr:street": "West Montrose Avenue", "amenity": "restaurant", "name": "XOchimilco Mexican Restaurant", "phone": "+1-773-661-1534", "website": "https://xochimilco-mexican-restaurant-restaurant.business.site/"}}, {"type": "node", "id": 6319357294, "lat": 41.9585383, "lon": -87.6815872, "tags": {"addr:city": "Chicago", "addr:housenumber": "4229", "addr:postcode": "60618", "addr:state": "IL", "addr:street": "North Lincoln Avenue", "amenity": "restaurant", "name": "Kitsune", "phone": "+1-773-687-9179", "website": "https://www.kitsunerestaurant.com/"}}, {"type": "node", "id": 6319888736, "lat": 41.9648422, "lon": -87.678518, "tags": {"addr:city": "Chicago", "addr:housenumber": "1945", "addr:postcode": "60640", "addr:state": "IL", "addr:street": "West Wilson Avenue", "amenity": "cafe", "name": "La Boulangerie", "phone": "+1-872-208-3479", "website": "http://www.laboulangeriechicago.com/"}}, {"type": "node", "id": 6319918450, "lat": 41.9644999, "lon": -87.689108, "tags": {"addr:city": "Chicago", "addr:housenumber": "4544", "addr:postcode": "60625", "addr:state": "IL", "addr:street": "North Western Avenue", "amenity": "cafe", "name": "La Catedral Cafe & Restaurant", "phone": "+1-773-654-1068"}}, {"type": "node", "id": 6323788017, "lat": 41.9612918, "lon": -87.678559, "tags": {"addr:city": "Chicago", "addr:housenumber": "1959", "addr:postcode": "60613", "addr:state": "IL", "addr:street": "West Montrose Avenue", "amenity": "bar", "name": "Oakwood 83", "phone": "+1-773-327-2785"}}, {"type": "node", "id": 6324150054, "lat": 41.9668775, "lon": -87.6871357, "tags": {"addr:city": "Chicago", "addr:housenumber": "4703", "addr:postcode": "60625", "addr:state": "IL", "addr:street": "North Lincoln Avenue", "amenity": "cafe", "name": "Oromo Cafe", "phone": "+1-773-799-1931", "website": "http://www.oromocafechicago.com/"}}, {"type": "node", "id": 6324325182, "lat": 41.9682926, "lon": -87.6885894, "tags": {"addr:city": "Chicago", "addr:housenumber": "4757", "addr:postcode": "60625", "addr:state": "IL", "addr:street": "North Western Avenue", "amenity": "restaurant", "name": "Pannenkoeken Cafe", "phone": "+1-773-769-8800", "website": "http://www.pannenkoekencafe.com/"}}, {"type": "node", "id": 6324417621, "lat": 41.9688927, "lon": -87.6842967, "tags": {"addr:city": "Chicago", "addr:housenumber": "2200", "addr:postcode": "60625", "addr:state": "IL", "addr:street": "West Lawrence Avenue", "amenity": "bar", "name": "The Sixth", "phone": "+1-773-645-4949", "website": "https://www.thesixthbar.com/"}}, {"type": "node", "id": 6326148074, "lat": 41.9689558, "lon": -87.6759509, "tags": {"addr:city": "Chicago", "addr:housenumber": "1840", "addr:postcode": "60640", "addr:state": "IL", "addr:street": "West Lawrence Avenue", "amenity": "bar", "name": "Nob\u2019s Wine Bar"}}, {"type": "node", "id": 6403035842, "lat": 41.9745374, "lon": -87.6924826, "tags": {"addr:city": "Chicago", "addr:housenumber": "5114", "addr:postcode": "60625", "addr:state": "IL", "addr:street": "North Lincoln Avenue", "amenity": "restaurant", "cuisine": "korean", "name": "Dancen", "opening_hours": "Mo-Su 18:00-01:00", "phone": "+1-773-878-2400"}}, {"type": "node", "id": 6721955008, "lat": 41.9612586, "lon": -87.6843625, "tags": {"addr:city": "Chicago", "addr:housenumber": "2213", "addr:postcode": "60618", "addr:state": "IL", "addr:street": "West Montrose Avenue", "amenity": "restaurant", "cuisine": "mexican", "name": "Taqueria El Asadero", "phone": "+1-773-583-5563"}}, {"type": "node", "id": 7016096314, "lat": 41.9731321, "lon": -87.6912821, "tags": {"addr:housenumber": "5047", "addr:street": "North Lincoln Avenue", "amenity": "restaurant", "description": "Central Asian cuisine", "name": "Jibek Jolu", "opening_hours": "Mo, Tu, Th, Su 11:00-22:00; Fr, Sa 11:00-23:00", "phone": "7738788394", "website": "https://jibekjolu.us/"}}, {"type": "node", "id": 7283923834, "lat": 41.9612491, "lon": -87.6842016, "tags": {"addr:city": "Chicago", "addr:housenumber": "2207", "addr:postcode": "60618", "addr:state": "IL", "addr:street": "West Montrose Ave", "amenity": "restaurant", "description": "Ramen", "name": "Menya Goku", "phone": "773-227-8180"}}, {"type": "way", "id": 35341584, "nodes": [414253932, 414253933, 5861896117, 414253934, 5861896118, 414253932], "tags": {"addr:city": "Chicago", "addr:housenumber": "4340", "addr:postcode": "60618", "addr:street": "North Lincoln Avenue", "amenity": "restaurant", "brand": "Lou Malnati's Pizzeria", "brand:wikidata": "Q6685628", "brand:wikipedia": "en:Lou Malnati's Pizzeria", "building": "yes", "cuisine": "pizza", "name": "Lou Malnati's Pizzeria", "website": "https://www.loumalnatis.com/chicago-lincoln-square-north-center"}}, {"type": "way", "id": 209477174, "nodes": [2196852266, 2196852428, 2196852486, 2196852494, 2196852573, 2196852579, 2196852275, 2196852266], "tags": {"addr:city": "Chicago", "addr:housenumber": "4337", "addr:postcode": "60618", "addr:state": "IL", "addr:street": "North Lincoln Avenue", "amenity": "bar", "cuisine": "burger", "name": "The Northman", "phone": "+1-773-935-2255", "website": "https://thenorthman.com/"}}, {"type": "way", "id": 209477625, "nodes": [2196861228, 2196861414, 2196861555, 2196861651, 2196861579, 2196861620, 2196861689, 2196862158, 2196861772, 2196861551, 2196861408, 2196861353, 2196861315, 2196861327, 2196861228], "tags": {"addr:city": "Chicago", "addr:housenumber": "4518", "addr:postcode": "60625", "addr:state": "IL", "addr:street": "North Lincoln Avenue", "addr:street:name": "Lincoln", "addr:street:prefix": "North", "addr:street:type": "Avenue", "amenity": "restaurant", "building": "yes", "building:levels": "2", "chicago:building_id": "119785", "cuisine": "french", "name": "Bistro Campagne", "phone": "+1-773-271-6100", "website": "http://www.bistrocampagne.com/"}}, {"type": "way", "id": 209478172, "nodes": [2196877836, 2196878328, 2196877665, 2196877059, 2196877474, 2196877628, 2196877836], "tags": {"addr:city": "Chicago", "addr:housenumber": "4736-4738", "addr:postcode": "60625", "addr:state": "IL", "addr:street": "North Lincoln Avenue", "addr:street:name": "Lincoln", "addr:street:prefix": "North", "addr:street:type": "Avenue", "amenity": "cafe", "building": "yes", "chicago:building_id": "857720", "cuisine": "coffee_shop", "internet_access": "wlan", "name": "The Book Cellar", "phone": "+1-773-293-2665", "shop": "books", "website": "https://www.bookcellarinc.com/", "wheelchair": "yes"}}, {"type": "way", "id": 209938702, "nodes": [2200917080, 2200917193, 2200917194, 2200917340, 2200917344, 2200917381, 2200917392, 2200917091, 2200917080], "tags": {"addr:housenumber": "1701", "addr:street": "West Lawrence Avenue", "addr:street:name": "Lawrence", "addr:street:prefix": "West", "addr:street:type": "Avenue", "amenity": "restaurant", "building": "yes", "building:levels": "1", "chicago:building_id": "103739", "cuisine": "burger", "name": "Byron's Hotdogs"}}, {"type": "way", "id": 209938737, "nodes": [2200916994, 2200917307, 2200917324, 2200917010, 2200916994], "tags": {"addr:city": "Chicago", "addr:housenumber": "1765", "addr:postcode": "60640", "addr:street": "West Lawrence Avenue", "addr:street:name": "Lawrence", "addr:street:prefix": "West", "addr:street:type": "Avenue", "amenity": "restaurant", "building": "yes", "building:levels": "1", "chicago:building_id": "103912", "cuisine": "american", "name": "Golden Nugget Pancake House", "website": "https://goldennuggetpancake.com/"}}, {"type": "way", "id": 209938915, "nodes": [2200917499, 2200917928, 2200917932, 2200917502, 2200917499], "tags": {"addr:housenumber": "2124", "addr:street": "West Lawrence Avenue", "addr:street:name": "Lawrence", "addr:street:prefix": "West", "addr:street:type": "Avenue", "amenity": "restaurant", "building": "yes", "building:levels": "2", "chicago:building_id": "102377", "cuisine": "pizza", "name": "Borelli's Pizza"}}, {"type": "way", "id": 209939969, "nodes": [2200925529, 2200925875, 2200925896, 2200925539, 2200925529], "tags": {"addr:city": "Chicago", "addr:housenumber": "4947", "addr:postcode": "9020", "addr:state": "IL", "addr:street": "North Damen Avenue", "addr:street:name": "Damen", "addr:street:prefix": "North", "addr:street:type": "Avenue", "amenity": "restaurant", "building": "yes", "building:levels": "1", "chicago:building_id": "91201", "name": "Bang Bang Pie & Biscuits", "phone": "+1-773-530-9020", "website": "http://www.bangbangpie.com/"}}]}