{"version": 0.6, "generator": "Overpass API 0.7.56.3 eb200aeb", "osm3s": {"timestamp_osm_base": "2020-07-04T03:54:03Z", "copyright": "The data included in this document is from www.openstreetmap.org. The data is made available under ODbL."}, "elements": [{"type": "node", "id": 1749964983, "lat": 41.9091437, "lon": -87.7956757}, {"type": "node", "id": 1749964985, "lat": 41.9091461, "lon": -87.7955912}, {"type": "node", "id": 1749965043, "lat": 41.909259, "lon": -87.7956821}, {"type": "node", "id": 1749965044, "lat": 41.9092658, "lon": -87.795671}, {"type": "node", "id": 1749965062, "lat": 41.9092837, "lon": -87.7956708}, {"type": "node", "id": 1749965063, "lat": 41.9092847, "lon": -87.7955973}, {"type": "node", "id": 7505548600, "lat": 41.9092602, "lon": -87.8026173, "tags": {"addr:city": "Chicago", "addr:housenumber": "7112", "addr:postcode": "60707", "addr:state": "IL", "addr:street": "West North Avenue", "amenity": "cafe", "brand": "Starbucks", "brand:wikidata": "Q37158", "brand:wikipedia": "en:Starbucks", "cuisine": "coffee_shop", "drive_through": "yes", "name": "Starbucks", "official_name": "Starbucks Coffee", "takeaway": "yes", "website": "https://www.starbucks.com/store-locator/store/16856"}}, {"type": "way", "id": 163263505, "nodes": [1749964983, 1749965043, 1749965044, 1749965062, 1749965063, 1749964985, 1749964983], "tags": {"addr:city": "Chicago", "addr:housenumber": "6818", "addr:postcode": "60707", "addr:state": "IL", "addr:street": "West North Avenue", "addr:street:name": "North", "addr:street:prefix": "West", "addr:street:type": "Avenue", "amenity": "restaurant", "building": "yes", "building:levels": "2", "chicago:building_id": "310570", "name": "Elbrus"}}]}