{"version": 0.6, "generator": "Overpass API 0.7.56.3 eb200aeb", "osm3s": {"timestamp_osm_base": "2020-07-04T02:53:02Z", "copyright": "The data included in this document is from www.openstreetmap.org. The data is made available under ODbL."}, "elements": [{"type": "node", "id": 34877685, "lat": 41.9566801, "lon": -87.7359515}, {"type": "node", "id": 34877687, "lat": 41.9546467, "lon": -87.7322144}, {"type": "node", "id": 266648820, "lat": 41.9560978, "lon": -87.7347805}, {"type": "node", "id": 306084355, "lat": 41.9538848, "lon": -87.7308992}, {"type": "node", "id": 310319075, "lat": 41.9549797, "lon": -87.7328025}, {"type": "node", "id": 310319162, "lat": 41.9578366, "lon": -87.737989}, {"type": "node", "id": 1282296213, "lat": 41.9561318, "lon": -87.7347546}, {"type": "node", "id": 1282296222, "lat": 41.9550187, "lon": -87.7328007}, {"type": "node", "id": 1282296224, "lat": 41.9556067, "lon": -87.7338312}, {"type": "node", "id": 1282296245, "lat": 41.9541067, "lon": -87.7311571}, {"type": "node", "id": 1282296272, "lat": 41.9578835, "lon": -87.7379933}, {"type": "node", "id": 1282296278, "lat": 41.9567117, "lon": -87.7359172}, {"type": "node", "id": 1282296289, "lat": 41.9543062, "lon": -87.7315299}, {"type": "node", "id": 1282296319, "lat": 41.9538864, "lon": -87.7307707}, {"type": "node", "id": 1282296349, "lat": 41.9558859, "lon": -87.7343221}, {"type": "node", "id": 1282296365, "lat": 41.9546837, "lon": -87.732215}, {"type": "node", "id": 1282296385, "lat": 41.9555007, "lon": -87.7337215}, {"type": "node", "id": 1282296408, "lat": 41.9569291, "lon": -87.7363149}, {"type": "node", "id": 1282296430, "lat": 41.9544837, "lon": -87.7318518}, {"type": "node", "id": 1756009344, "lat": 41.9611871, "lon": -87.7173869}, {"type": "node", "id": 1756009348, "lat": 41.9611888, "lon": -87.7169365}, {"type": "node", "id": 1756009690, "lat": 41.96129, "lon": -87.7173877}, {"type": "node", "id": 1756009692, "lat": 41.9612917, "lon": -87.7169373}, {"type": "node", "id": 2262363842, "lat": 41.968423, "lon": -87.7250172, "tags": {"addr:city": "Chicago", "addr:housenumber": "3914", "addr:postcode": "60625", "addr:state": "IL", "addr:street": "West Lawrence Avenue", "amenity": "restaurant", "cuisine": "sushi", "name": "Lawrence Fish Market", "phone": "+1-773-267-6838", "website": "https://drive.google.com/file/d/1fAi9C06HSz3wj7qBo7Pvrk6oEnyYUtuL/view"}}, {"type": "node", "id": 6301096133, "lat": 41.9612494, "lon": -87.7221138, "tags": {"addr:city": "Chicago", "addr:housenumber": "3740", "addr:postcode": "60618", "addr:state": "IL", "addr:street": "West Montrose Avenue", "amenity": "restaurant", "name": "Ruby\u2019s Fast Food", "phone": "+1-773-539-2669"}}, {"type": "node", "id": 6306526919, "lat": 41.9557745, "lon": -87.7278715, "tags": {"addr:city": "Chicago", "addr:housenumber": "4104", "addr:postcode": "60641", "addr:state": "IL", "addr:street": "North Pulaski Road", "amenity": "bar", "name": "The Cabin At Old Irving", "phone": "+1-773-481-4183", "website": "https://www.thecabinatoldirving.com/"}}, {"type": "node", "id": 6323628623, "lat": 41.9624699, "lon": -87.732191, "tags": {"addr:city": "Chicago", "addr:housenumber": "4500", "addr:postcode": "60630", "addr:state": "IL", "addr:street": "North Elston Avenue", "amenity": "bar", "name": "O\u2019Donnell\u2019s", "phone": "+1-773-282-0813"}}, {"type": "node", "id": 6324258698, "lat": 41.9571862, "lon": -87.7274109, "tags": {"addr:city": "Chicago", "addr:housenumber": "4157", "addr:postcode": "60641", "addr:state": "IL", "addr:street": "North Pulaski Road", "amenity": "bar", "name": "Paddy Mac\u2019s", "phone": "+1-773-279-9300", "website": "http://www.paddymacschicago.com/"}}, {"type": "node", "id": 6968019524, "lat": 41.9611269, "lon": -87.7263816, "tags": {"addr:city": "Chicago", "addr:housenumber": "3930", "addr:state": "IL", "addr:street": "West Montrose Avenue", "amenity": "restaurant", "cuisine": "mexican", "name": "Taqueria La Fogata"}}, {"type": "way", "id": 24521463, "nodes": [266648820, 1282296385, 310319075], "tags": {"electrified": "rail", "frequency": "0", "gauge": "1435", "name": "O'Hare Branch", "oneway": "yes", "operator": "Chicago Transit Authority", "railway": "subway", "voltage": "600"}}, {"type": "way", "id": 24521464, "nodes": [34877685, 266648820], "tags": {"electrified": "rail", "frequency": "0", "gauge": "1435", "layer": "-1", "name": "O'Hare Branch", "oneway": "yes", "operator": "Chicago Transit Authority", "railway": "subway", "tunnel": "yes", "voltage": "600"}}, {"type": "way", "id": 28256515, "nodes": [310319075, 34877687], "tags": {"bridge": "yes", "electrified": "rail", "frequency": "0", "gauge": "1435", "layer": "1", "name": "O'Hare Branch", "operator": "Chicago Transit Authority", "railway": "subway", "voltage": "600"}}, {"type": "way", "id": 28256516, "nodes": [34877687, 306084355], "tags": {"electrified": "rail", "frequency": "0", "gauge": "1435", "name": "O'Hare Branch", "oneway": "yes", "operator": "Chicago Transit Authority", "railway": "subway", "voltage": "600"}}, {"type": "way", "id": 28256535, "nodes": [310319162, 34877685], "tags": {"electrified": "rail", "frequency": "0", "gauge": "1435", "name": "O'Hare Branch", "oneway": "yes", "operator": "Chicago Transit Authority", "railway": "subway", "voltage": "600"}}, {"type": "way", "id": 112926175, "nodes": [1282296365, 1282296222], "tags": {"bridge": "yes", "electrified": "rail", "frequency": "0", "gauge": "1435", "name": "O'Hare Branch", "oneway": "yes", "operator": "Chicago Transit Authority", "railway": "subway", "voltage": "600"}}, {"type": "way", "id": 112926179, "nodes": [1282296222, 1282296224, 1282296349, 1282296213], "tags": {"electrified": "rail", "frequency": "0", "gauge": "1435", "name": "O'Hare Branch", "oneway": "yes", "operator": "Chicago Transit Authority", "railway": "subway", "voltage": "600"}}, {"type": "way", "id": 112926182, "nodes": [1282296319, 1282296245, 1282296289, 1282296430, 1282296365], "tags": {"electrified": "rail", "frequency": "0", "gauge": "1435", "name": "O'Hare Branch", "oneway": "yes", "operator": "Chicago Transit Authority", "railway": "subway", "voltage": "600"}}, {"type": "way", "id": 163945047, "nodes": [1756009344, 1756009690, 1756009692, 1756009348, 1756009344], "tags": {"addr:city": "Chicago", "addr:housenumber": "3532", "addr:postcode": "60618", "addr:state": "IL", "addr:street": "West Montrose Avenue", "addr:street:name": "Montrose", "addr:street:prefix": "West", "addr:street:type": "Avenue", "amenity": "restaurant", "building": "yes", "building:levels": "3", "name": "Restaurant Los Molcajetes", "phone": "+1-773-267-1834"}}, {"type": "way", "id": 198961574, "nodes": [1282296213, 1282296278], "tags": {"electrified": "rail", "frequency": "0", "gauge": "1435", "layer": "-1", "name": "O'Hare Branch", "oneway": "yes", "operator": "Chicago Transit Authority", "railway": "subway", "tunnel": "yes", "voltage": "600"}}, {"type": "way", "id": 198961575, "nodes": [1282296278, 1282296408, 1282296272], "tags": {"electrified": "rail", "frequency": "0", "gauge": "1435", "name": "O'Hare Branch", "oneway": "yes", "operator": "Chicago Transit Authority", "railway": "subway", "voltage": "600"}}]}