{"version": 0.6, "generator": "Overpass API 0.7.56.3 eb200aeb", "osm3s": {"timestamp_osm_base": "2020-07-04T01:15:02Z", "copyright": "The data included in this document is from www.openstreetmap.org. The data is made available under ODbL."}, "elements": [{"type": "node", "id": 533979379, "lat": 41.9980101, "lon": -87.6815509, "tags": {"addr:city": "Chicago", "addr:housenumber": "2032", "addr:postcode": "60659", "addr:state": "IL", "addr:street": "West Devon Avenue", "amenity": "restaurant", "cuisine": "indian", "name": "Ghareeb Nawaz", "opening_hours": "24/7", "phone": "+1-773-761-5300", "website": "https://ghareebnawazonline.com/"}}, {"type": "node", "id": 2201008193, "lat": 41.9908622, "lon": -87.6716462}, {"type": "node", "id": 2201008195, "lat": 41.9908636, "lon": -87.6716536}, {"type": "node", "id": 2201008196, "lat": 41.9908647, "lon": -87.671374}, {"type": "node", "id": 2201008197, "lat": 41.9908677, "lon": -87.6716572}, {"type": "node", "id": 2201008198, "lat": 41.9908687, "lon": -87.6713501}, {"type": "node", "id": 2201008199, "lat": 41.9908697, "lon": -87.6712875}, {"type": "node", "id": 2201008200, "lat": 41.9908705, "lon": -87.671659}, {"type": "node", "id": 2201008201, "lat": 41.9908732, "lon": -87.671659}, {"type": "node", "id": 2201008202, "lat": 41.9908783, "lon": -87.67135}, {"type": "node", "id": 2201008203, "lat": 41.9908785, "lon": -87.6713739}, {"type": "node", "id": 2201008239, "lat": 41.9909085, "lon": -87.6713496}, {"type": "node", "id": 2201008240, "lat": 41.9909086, "lon": -87.6713717}, {"type": "node", "id": 2201008250, "lat": 41.9909207, "lon": -87.6715647}, {"type": "node", "id": 2201008255, "lat": 41.9909223, "lon": -87.6713716}, {"type": "node", "id": 2201008266, "lat": 41.9909268, "lon": -87.6716603}, {"type": "node", "id": 2201008271, "lat": 41.990929, "lon": -87.6715738}, {"type": "node", "id": 2201008301, "lat": 41.9909346, "lon": -87.6713494}, {"type": "node", "id": 2201008306, "lat": 41.9909356, "lon": -87.6712887}, {"type": "node", "id": 3756828489, "lat": 41.997617, "lon": -87.688861, "tags": {"addr:city": "Chicago", "addr:housenumber": "2331", "addr:street": "West Devon Avenue", "amenity": "restaurant", "cuisine": "indian", "name": "Spinzer", "outdoor_seating": "no", "takeaway": "yes"}}, {"type": "node", "id": 3756829466, "lat": 41.99769, "lon": -87.686974, "tags": {"addr:city": "Chicago", "addr:housenumber": "2251", "addr:postcode": "60659", "addr:state": "IL", "addr:street": "West Devon Avenue", "amenity": "bar", "atm": "yes", "food": "no", "name": "Cary's Lounge", "outdoor_seating": "yes", "phone": "+1-773-743-5737", "website": "https://caryslounge.com/"}}, {"type": "node", "id": 3789200958, "lat": 41.997996, "lon": -87.686894, "tags": {"addr:city": "Chicago", "addr:housenumber": "2244", "addr:street": "West Devon Avenue", "amenity": "restaurant", "brand": "Usmania", "cuisine": "indian", "delivery": "yes", "name": "Usmania Fine Dining", "outdoor_seating": "no", "takeaway": "yes", "website": "http://www.usmaniarestaurant.com/"}}, {"type": "node", "id": 3792977469, "lat": 41.997673, "lon": -87.687063, "tags": {"addr:city": "Chicago", "addr:housenumber": "2253", "addr:street": "West Devon Avenue", "amenity": "restaurant", "brand": "Usmania", "cuisine": "chinese", "name": "Usmania Chinese", "outdoor_seating": "no", "smoking": "no", "takeaway": "yes", "website": "http://www.usmaniachinese.com/"}}, {"type": "node", "id": 3815628257, "lat": 41.997875, "lon": -87.687933, "tags": {"addr:city": "Chicago", "addr:housenumber": "2308", "addr:street": "West Devon Avenue", "amenity": "restaurant", "cuisine": "indian", "name": "Daata Darbar", "opening_hours": "24/7", "phone": "+1 773 262 7330"}}, {"type": "node", "id": 4317787389, "lat": 41.9975418, "lon": -87.6858292, "tags": {"amenity": "restaurant", "name": "Hyderabad house"}}, {"type": "node", "id": 5842922320, "lat": 41.9979973, "lon": -87.6878967, "tags": {"addr:housenumber": "2308", "addr:street": "West Devon Avenue", "amenity": "restaurant", "name": "King Sweets"}}, {"type": "node", "id": 5842952164, "lat": 41.9975967, "lon": -87.6867981, "tags": {"addr:housenumber": "2245", "addr:street": "West Devon Avenue", "amenity": "restaurant", "name": "Ne Diamond Grill", "phone": "773 856 0005", "website": "ordernewdiamondgrill.com"}}, {"type": "node", "id": 5842960648, "lat": 41.9976158, "lon": -87.6866074, "tags": {"addr:housenumber": "2241", "addr:street": "West Devon Avenue", "amenity": "restaurant", "name": "Naan on Devon", "phone": "773 262 7676", "website": "www.naanondevongrill.com"}}, {"type": "node", "id": 5842966770, "lat": 41.9975778, "lon": -87.6901854, "tags": {"addr:housenumber": "2401", "addr:street": "West Devon Avenue", "amenity": "restaurant", "name": "Khaan BBQ", "phone": "773 274 8600", "website": "www.khanbbq.net"}}, {"type": "node", "id": 7232041440, "lat": 41.9926179, "lon": -87.6901749, "tags": {"addr:city": "Chicago", "addr:housenumber": "6108", "addr:postcode": "60659", "addr:state": "IL", "addr:street": "North Western Avenue", "amenity": "cafe", "brand": "Starbucks", "brand:wikidata": "Q37158", "brand:wikipedia": "en:Starbucks", "cuisine": "coffee_shop", "name": "Starbucks", "official_name": "Starbucks Coffee", "takeaway": "yes"}}, {"type": "way", "id": 209952331, "nodes": [2201008193, 2201008195, 2201008197, 2201008200, 2201008201, 2201008266, 2201008271, 2201008250, 2201008255, 2201008240, 2201008239, 2201008301, 2201008306, 2201008199, 2201008198, 2201008202, 2201008203, 2201008196, 2201008193], "tags": {"addr:city": "Chicago", "addr:housenumber": "6001", "addr:postcode": "60660", "addr:state": "IL", "addr:street": "North Paulina Street", "addr:street:name": "Paulina", "addr:street:prefix": "North", "addr:street:type": "Street", "amenity": "bar", "building": "yes", "building:levels": "2", "chicago:building_id": "41460", "name": "Barrelman Tavern", "phone": "+1-773-654-3110"}}]}