{"version": 0.6, "generator": "Overpass API 0.7.56.1004 6cd3eaec", "osm3s": {"timestamp_osm_base": "2020-07-22T06:38:03Z", "copyright": "The data included in this document is from www.openstreetmap.org. The data is made available under ODbL."}, "elements": [{"type": "node", "id": 1767158223, "lat": 41.8080547, "lon": -87.6897304}, {"type": "node", "id": 1767158225, "lat": 41.8080556, "lon": -87.6896497}, {"type": "node", "id": 1767158485, "lat": 41.8082633, "lon": -87.6897338}, {"type": "node", "id": 1767158487, "lat": 41.8082642, "lon": -87.6896531}, {"type": "node", "id": 1767176156, "lat": 41.8093036, "lon": -87.7038912}, {"type": "node", "id": 1767176203, "lat": 41.8093125, "lon": -87.7035005}, {"type": "node", "id": 1767176642, "lat": 41.8094367, "lon": -87.7038973}, {"type": "node", "id": 1767176692, "lat": 41.8094456, "lon": -87.7035047}, {"type": "node", "id": 6283099736, "lat": 41.8083933, "lon": -87.7083638, "tags": {"addr:city": "Chicago", "addr:housenumber": "3350", "addr:postcode": "60632", "addr:state": "IL", "addr:street": "West 47th Street", "amenity": "restaurant", "name": "Coco Club", "phone": "+1-773-801-0724", "website": "http://www.cococlubs.com/"}}, {"type": "node", "id": 6321326373, "lat": 41.8083755, "lon": -87.7083225, "tags": {"addr:city": "Chicago", "addr:housenumber": "3350", "addr:postcode": "60632", "addr:state": "IL", "addr:street": "West 47th Street", "amenity": "bar", "name": "MaddAnthonys Bar & Grill", "phone": "+1-773-523-2205", "website": "http://maddanthonysbar.com/"}}, {"type": "node", "id": 6322608681, "lat": 41.8114791, "lon": -87.7080881, "tags": {"addr:city": "Chicago", "addr:housenumber": "4501", "addr:postcode": "60632", "addr:state": "IL", "addr:street": "South Christiana Avenue", "amenity": "bar", "name": "Michael\u2019s Sport Lounge", "phone": "+1-773-376-1108"}}, {"type": "way", "id": 165142203, "nodes": [1767158223, 1767158485, 1767158487, 1767158225, 1767158223], "tags": {"addr:city": "Chicago", "addr:housenumber": "2607", "addr:postcode": "60632", "addr:state": "IL", "addr:street": "West 47th Street", "addr:street:name": "47th", "addr:street:prefix": "West", "addr:street:type": "Street", "amenity": "bar", "building": "yes", "building:levels": "2", "name": "Frankie's Place", "opening_hours": "We-Sa 17:00-02:00; Su 17:00-00:00", "phone": "+1-773-475-6339", "website": "http://www.frankiesplacechicago.com/"}}, {"type": "way", "id": 165156625, "nodes": [1767176156, 1767176642, 1767176692, 1767176203, 1767176156], "tags": {"addr:housenumber": "4619", "addr:street": "South Kedzie Avenue", "addr:street:name": "Kedzie", "addr:street:prefix": "South", "addr:street:type": "Avenue", "amenity": "restaurant", "building": "yes", "building:levels": "1", "cuisine": "mexican", "name": "Carnitas Don Rafa"}}]}