{"version": 0.6, "generator": "Overpass API 0.7.56.3 eb200aeb", "osm3s": {"timestamp_osm_base": "2020-07-04T03:32:03Z", "copyright": "The data included in this document is from www.openstreetmap.org. The data is made available under ODbL."}, "elements": [{"type": "node", "id": 2789559110, "lat": 41.764449, "lon": -87.5647229, "tags": {"addr:city": "Chicago", "addr:housenumber": "7201", "addr:postcode": "60649", "addr:state": "IL", "addr:street": "South Exchange Avenue", "amenity": "cafe", "name": "Chef Sara's Cafe", "phone": "+1-773-359-4637", "website": "http://www.chefsarascafe.com/index.html"}}, {"type": "node", "id": 3132615074, "lat": 41.7690036, "lon": -87.5668877, "tags": {"addr:city": "Chicago", "addr:housenumber": "6930", "addr:postcode": "60637", "addr:street": "South South Shore Drive", "amenity": "restaurant", "cuisine": "chinese", "name": "House of Bing", "website": "https://www.hobsouthshore.com/"}}, {"type": "node", "id": 3270709568, "lat": 41.7657039, "lon": -87.5666712, "tags": {"amenity": "restaurant", "cuisine": "chinese", "name": "Ming's Chop Suey"}}, {"type": "node", "id": 3270811823, "lat": 41.7648242, "lon": -87.5651133, "tags": {"amenity": "bar", "name": "Tom's"}}, {"type": "node", "id": 3278487306, "lat": 41.7663882, "lon": -87.5699869, "tags": {"amenity": "restaurant", "cuisine": "seafood", "name": "Surf's Up"}}, {"type": "node", "id": 3293336562, "lat": 41.7659637, "lon": -87.5777724, "tags": {"amenity": "restaurant", "cuisine": "pizza", "name": "Italian Fiesta"}}, {"type": "node", "id": 4439615719, "lat": 41.7667061, "lon": -87.5761044, "tags": {"amenity": "bar", "lgbtq": "primary", "name": "Jeffery Pub"}}, {"type": "node", "id": 6154498893, "lat": 41.7663374, "lon": -87.5779586, "tags": {"addr:city": "Chicago", "addr:housenumber": "1918", "addr:postcode": "60649", "addr:state": "IL", "addr:street": "East 71st Street", "amenity": "restaurant", "cuisine": "bbq", "name": "The Slab Bar-B-Que"}}, {"type": "node", "id": 6154498894, "lat": 41.7663445, "lon": -87.5781222, "tags": {"addr:city": "Chicago", "addr:housenumber": "1912", "addr:postcode": "60649", "addr:state": "IL", "addr:street": "East 71st Street", "amenity": "restaurant", "name": "Taste of Chicago"}}, {"type": "node", "id": 6154499681, "lat": 41.766037, "lon": -87.5694489, "tags": {"addr:city": "Chicago", "addr:housenumber": "2247", "addr:postcode": "60649", "addr:state": "IL", "addr:street": "East 71st Street", "amenity": "restaurant", "cuisine": "mexican", "name": "Ta'golazo", "phone": "+1 (872) 529-3404"}}, {"type": "node", "id": 6154509611, "lat": 41.7659501, "lon": -87.5673203, "tags": {"addr:city": "Chicago", "addr:housenumber": "2343", "addr:postcode": "60649", "addr:state": "IL", "addr:street": "East 71st Street", "amenity": "restaurant", "name": "Magal Restaurant"}}, {"type": "node", "id": 6404993289, "lat": 41.7656262, "lon": -87.5663513, "tags": {"addr:city": "Chicago", "addr:housenumber": "7101", "addr:postcode": "60649", "addr:state": "IL", "addr:street": "South Yates Boulevard", "amenity": "cafe", "name": "South Shore Brew"}}]}