{"version": 0.6, "generator": "Overpass API 0.7.56.3 eb200aeb", "osm3s": {"timestamp_osm_base": "2020-07-17T21:20:03Z", "copyright": "The data included in this document is from www.openstreetmap.org. The data is made available under ODbL."}, "elements": [{"type": "node", "id": 354202477, "lat": 41.7217646, "lon": -87.6139944}, {"type": "node", "id": 1521633064, "lat": 41.7219312, "lon": -87.6044263}, {"type": "node", "id": 1521633085, "lat": 41.7137744, "lon": -87.6138037}, {"type": "node", "id": 1521633087, "lat": 41.7139088, "lon": -87.6059537}, {"type": "node", "id": 1521633154, "lat": 41.7205328, "lon": -87.6043741}, {"type": "node", "id": 2208834429, "lat": 41.7366108, "lon": -87.6134136}, {"type": "node", "id": 2208834430, "lat": 41.736612, "lon": -87.6133066}, {"type": "node", "id": 2208834850, "lat": 41.7367818, "lon": -87.6134245}, {"type": "node", "id": 2208834853, "lat": 41.7367822, "lon": -87.6133988}, {"type": "node", "id": 2208835630, "lat": 41.7369027, "lon": -87.6133583}, {"type": "node", "id": 2208835631, "lat": 41.7369038, "lon": -87.6133183}, {"type": "node", "id": 2208835689, "lat": 41.7369376, "lon": -87.6133627}, {"type": "node", "id": 2208835691, "lat": 41.7369386, "lon": -87.6134044}, {"type": "node", "id": 3897638408, "lat": 41.7212831, "lon": -87.6044021}, {"type": "node", "id": 6326474062, "lat": 41.7364378, "lon": -87.6093355, "tags": {"addr:city": "Chicago", "addr:housenumber": "607", "addr:postcode": "60619", "addr:state": "IL", "addr:street": "East 87th Street", "amenity": "bar", "name": "Licorice Lounge", "phone": "+1-773-962-2000"}}, {"type": "way", "id": 138758717, "nodes": [354202477, 1521633085, 1521633087, 1521633154, 3897638408, 1521633064, 354202477], "tags": {"amenity": "university", "ele": "182", "gnis:county_id": "031", "gnis:created": "05/15/1997", "gnis:feature_id": "1737143", "gnis:state_id": "17", "name": "Chicago State University", "operator:type": "public", "wikidata": "Q915866"}}, {"type": "way", "id": 210842308, "nodes": [2208834429, 2208834850, 2208834853, 2208835691, 2208835689, 2208835630, 2208835631, 2208834430, 2208834429], "tags": {"addr:city": "Chicago", "addr:housenumber": "428", "addr:postcode": "60619", "addr:state": "IL", "addr:street": "East 87th Street", "addr:street:name": "87th", "addr:street:prefix": "East", "addr:street:type": "Street", "amenity": "bar", "building": "yes", "building:levels": "1", "chicago:building_id": "863471", "name": "Red Peppers", "phone": "+1-773-873-5700"}}]}