{"version": 0.6, "generator": "Overpass API 0.7.56.3 eb200aeb", "osm3s": {"timestamp_osm_base": "2020-07-04T03:07:02Z", "copyright": "The data included in this document is from www.openstreetmap.org. The data is made available under ODbL."}, "elements": [{"type": "node", "id": 1755741155, "lat": 41.9501254, "lon": -87.7077903}, {"type": "node", "id": 1755741159, "lat": 41.9501263, "lon": -87.7077039}, {"type": "node", "id": 1755741171, "lat": 41.9501359, "lon": -87.7077038}, {"type": "node", "id": 1755741173, "lat": 41.9501375, "lon": -87.7074832}, {"type": "node", "id": 1755741239, "lat": 41.9501899, "lon": -87.7077897}, {"type": "node", "id": 1755741241, "lat": 41.950191, "lon": -87.7074845}, {"type": "node", "id": 2196816832, "lat": 41.9536122, "lon": -87.6993319}, {"type": "node", "id": 2196816834, "lat": 41.9536144, "lon": -87.69924}, {"type": "node", "id": 2196816858, "lat": 41.9536295, "lon": -87.6992417}, {"type": "node", "id": 2196816860, "lat": 41.9536307, "lon": -87.6992104}, {"type": "node", "id": 2196817156, "lat": 41.9538331, "lon": -87.6993371}, {"type": "node", "id": 2196817161, "lat": 41.9538352, "lon": -87.6992158}, {"type": "node", "id": 2196853939, "lat": 41.9614408, "lon": -87.6909119, "tags": {"amenity": "restaurant", "name": "Cafe Lutz"}}, {"type": "node", "id": 2359636164, "lat": 41.9520045, "lon": -87.707771, "tags": {"addr:city": "Chicago", "addr:housenumber": "3859", "addr:postcode": "60618", "addr:street": "North Kedzie Avenue", "amenity": "restaurant", "cuisine": "mexican", "name": "Tamale's Garibay"}}, {"type": "node", "id": 3011054097, "lat": 41.954188, "lon": -87.7033678, "tags": {"addr:city": "Chicago", "addr:housenumber": "3000", "addr:postcode": "60618", "addr:street": "West Irving Park Road", "amenity": "bar", "cuisine": "burger", "name": "LeaderBar Drafthouse & Eatery", "opening_hours": "12:00-00:00", "phone": "+1-773-478-2337", "website": "http://www.leaderbar.com/"}}, {"type": "node", "id": 3011071566, "lat": 41.954188, "lon": -87.7017101, "tags": {"addr:city": "Chicago", "addr:housenumber": "2922", "addr:postcode": "60618", "addr:street": "West Irving Park Road", "amenity": "restaurant", "cuisine": "barbecue", "name": "PitchFork", "phone": "+1-773-866-2010", "website": "https://pitchforkchicago.com/"}}, {"type": "node", "id": 3015666651, "lat": 41.9537738, "lon": -87.7047186, "tags": {"amenity": "restaurant", "cuisine": "ecuadorian", "name": "Mi Cuidad"}}, {"type": "node", "id": 3015667206, "lat": 41.9537838, "lon": -87.702057, "tags": {"addr:city": "Chicago", "addr:housenumber": "2933", "addr:postcode": "60618", "addr:state": "IL", "addr:street": "West Irving Park Road", "amenity": "cafe", "cuisine": "serbian", "internet_access": "wlan", "name": "Beograd Cafe", "phone": "+1-773-478-7575", "website": "http://beogradchicago.com/index.html"}}, {"type": "node", "id": 3015668079, "lat": 41.9537639, "lon": -87.7060785, "tags": {"amenity": "restaurant", "cuisine": "thai", "name": "Dharma Garden"}}, {"type": "node", "id": 3015672019, "lat": 41.9536402, "lon": -87.6991711, "tags": {"amenity": "restaurant", "cuisine": "mexican", "name": "The Famous Taco Burrito"}}, {"type": "node", "id": 3015676165, "lat": 41.954379, "lon": -87.6986616, "tags": {"amenity": "restaurant", "cuisine": "chinese", "name": "Lo's China Kitchen"}}, {"type": "node", "id": 3463649049, "lat": 41.961125, "lon": -87.7019463, "tags": {"addr:city": "Chicago", "addr:housenumber": "2925", "addr:postcode": "60618", "addr:state": "Il", "addr:street": "West Montrose Avenue", "amenity": "pub", "microbrewery": "yes", "name": "Breakroom Brewery"}}, {"type": "node", "id": 3660383836, "lat": 41.9540962, "lon": -87.7073132, "tags": {"addr:city": "Chicago", "addr:housenumber": "3144", "addr:postcode": "60618", "addr:state": "IL", "addr:street": "West Irving Park Road", "amenity": "bar", "name": "Serbian Village", "phone": "+1-773-478-2900"}}, {"type": "node", "id": 5711720121, "lat": 41.9613028, "lon": -87.7067528, "tags": {"addr:housenumber": "3120", "addr:postcode": "60618", "amenity": "restaurant", "cuisine": "spanish", "name": "Brasa Roja", "name:en": "Brasa Roja Columbian Cuisine", "name:es": "Brasa Roja Columbian Cuisine", "opening_hours": "Mo-Su 09:00-22:00", "phone": "7738662252", "website": "http://brasarojarestaurant.com"}}, {"type": "node", "id": 6261234292, "lat": 41.9613634, "lon": -87.7043718, "tags": {"addr:city": "Chicago", "addr:housenumber": "3026", "addr:postcode": "60618", "addr:state": "IL", "addr:street": "West Montrose Avenue", "amenity": "bar", "name": "Angelo\u2019s Wine Bar", "outdoor_seating": "no", "phone": "+1-773-539-0111"}}, {"type": "node", "id": 6269067889, "lat": 41.9559106, "lon": -87.7078551, "tags": {"addr:city": "Chicago", "addr:housenumber": "3154", "addr:postcode": "60618", "addr:state": "IL", "addr:street": "North Kedzie Avenue", "amenity": "bar", "name": "Brickhouse Bar & Grill", "phone": "+1-773-677-9106"}}, {"type": "node", "id": 6299470725, "lat": 41.9613885, "lon": -87.7056383, "tags": {"addr:city": "Chicago", "addr:housenumber": "3056", "addr:postcode": "60618", "addr:state": "IL", "addr:street": "West Montrose Avenue", "amenity": "bar", "name": "Peacock Liquors", "phone": "+1-773-588-5148"}}, {"type": "node", "id": 6300570350, "lat": 41.9542487, "lon": -87.7028442, "tags": {"addr:city": "Chicago", "addr:housenumber": "2958", "addr:postcode": "60618", "addr:state": "IL", "addr:street": "West Irving Park Road", "amenity": "restaurant", "name": "Raisu Japanese Fine Dining", "phone": "+1-773-961-7299", "website": "http://www.raisusushi.com/"}}, {"type": "node", "id": 6307008790, "lat": 41.9609809, "lon": -87.7018042, "tags": {"addr:city": "Chicago", "addr:housenumber": "2925", "addr:postcode": "60618", "addr:state": "Il", "addr:street": "West Montrose Avenue", "amenity": "bar", "name": "Twisted Hippo", "phone": "+1-708-844-7768", "website": "http://www.twistedhippo.com/"}}, {"type": "node", "id": 6316930531, "lat": 41.9542269, "lon": -87.7039226, "tags": {"addr:city": "Chicago", "addr:housenumber": "3014", "addr:postcode": "60618", "addr:state": "IL", "addr:street": "West Irving Park Road", "amenity": "bar", "name": "Windy City Playhouse", "phone": "+1-773-891-8985", "website": "https://windycityplayhouse.com/"}}, {"type": "node", "id": 6320578107, "lat": 41.9541577, "lon": -87.7054052, "tags": {"addr:city": "Chicago", "addr:housenumber": "3058", "addr:postcode": "60618", "addr:state": "IL", "addr:street": "West Irving Park Road", "amenity": "bar", "name": "Lizard\u2019s Liquid Lounge", "phone": "+1-773-463-7599", "website": "http://www.lizardsliquidlounge.com/"}}, {"type": "node", "id": 6322817723, "lat": 41.9610702, "lon": -87.7023111, "tags": {"addr:city": "Chicago", "addr:housenumber": "2933", "addr:postcode": "60618", "addr:state": "Il", "addr:street": "West Montrose Avenue", "amenity": "bar", "name": "Montrose Saloon", "phone": "+1-773-463-7663", "website": "https://www.montrosesaloon.com/"}}, {"type": "way", "id": 163908811, "nodes": [1755741155, 1755741239, 1755741241, 1755741173, 1755741171, 1755741159, 1755741155], "tags": {"addr:city": "Chicago", "addr:housenumber": "3759", "addr:postcode": "60618", "addr:state": "IL", "addr:street": "North Kedzie Avenue", "addr:street:name": "Kedzie", "addr:street:prefix": "North", "addr:street:type": "Avenue", "amenity": "bar", "building": "yes", "name": "Christina's Place", "phone": "+1-773-463-1768", "website": "https://thisischristinas.wordpress.com/"}}, {"type": "way", "id": 209464598, "nodes": [2196816832, 2196817156, 2196817161, 2196816860, 2196816858, 2196816834, 2196816832], "tags": {"addr:city": "Chicago", "addr:housenumber": "2825", "addr:postcode": "60618", "addr:state": "IL", "addr:street": "West Irving Park Road", "addr:street:name": "Irving Park", "addr:street:prefix": "West", "addr:street:type": "Road", "amenity": "bar", "building": "yes", "chicago:building_id": "153642", "name": "Pete\u2019s Place"}}]}