{"version": 0.6, "generator": "Overpass API 0.7.56.3 eb200aeb", "osm3s": {"timestamp_osm_base": "2020-07-21T20:51:03Z", "copyright": "The data included in this document is from www.openstreetmap.org. The data is made available under ODbL."}, "elements": [{"type": "node", "id": 1753465937, "lat": 41.8044374, "lon": -87.7238732}, {"type": "node", "id": 1753465944, "lat": 41.8044403, "lon": -87.7236568}, {"type": "node", "id": 1753466069, "lat": 41.8045046, "lon": -87.7238744}, {"type": "node", "id": 1753466075, "lat": 41.8045062, "lon": -87.723658}, {"type": "node", "id": 1767176156, "lat": 41.8093036, "lon": -87.7038912}, {"type": "node", "id": 1767176203, "lat": 41.8093125, "lon": -87.7035005}, {"type": "node", "id": 1767176642, "lat": 41.8094367, "lon": -87.7038973}, {"type": "node", "id": 1767176692, "lat": 41.8094456, "lon": -87.7035047}, {"type": "node", "id": 6267298423, "lat": 41.8044748, "lon": -87.7237736, "tags": {"addr:city": "Chicago", "addr:housenumber": "4852", "addr:postcode": "60632", "addr:state": "IL", "addr:street": "South Pulaski Road", "amenity": "restaurant", "cuisine": "mexican", "name": "Birrieria Zaragoza", "phone": "+1-773-523-3700", "website": "http://www.birrieriazaragoza.com/"}}, {"type": "node", "id": 6283099736, "lat": 41.8083933, "lon": -87.7083638, "tags": {"addr:city": "Chicago", "addr:housenumber": "3350", "addr:postcode": "60632", "addr:state": "IL", "addr:street": "West 47th Street", "amenity": "restaurant", "name": "Coco Club", "phone": "+1-773-801-0724", "website": "http://www.cococlubs.com/"}}, {"type": "node", "id": 6299377692, "lat": 41.8055017, "lon": -87.7238892, "tags": {"addr:city": "Chicago", "addr:housenumber": "4814", "addr:postcode": "60632", "addr:state": "IL", "addr:street": "South Pulaski Road", "amenity": "cafe", "name": "Pastel! Cakes and More", "phone": "+1-773-523-5595"}}, {"type": "node", "id": 6304068713, "lat": 41.8080886, "lon": -87.7189918, "tags": {"addr:city": "Chicago", "addr:housenumber": "3806", "addr:postcode": "60632", "addr:state": "IL", "addr:street": "West 47th Street", "amenity": "bar", "name": "The Apartment Lounge", "phone": "+1-773-927-0465"}}, {"type": "node", "id": 6316702234, "lat": 41.8062336, "lon": -87.7238936, "tags": {"addr:city": "Chicago", "addr:housenumber": "4758", "addr:postcode": "60632", "addr:state": "IL", "addr:street": "South Pulaski Road", "amenity": "bar", "name": "Watra Night Club", "phone": "+1-773-927-0710", "website": "https://www.watranightclub.com/"}}, {"type": "node", "id": 6321326373, "lat": 41.8083755, "lon": -87.7083225, "tags": {"addr:city": "Chicago", "addr:housenumber": "3350", "addr:postcode": "60632", "addr:state": "IL", "addr:street": "West 47th Street", "amenity": "bar", "name": "MaddAnthonys Bar & Grill", "phone": "+1-773-523-2205", "website": "http://maddanthonysbar.com/"}}, {"type": "node", "id": 6322608681, "lat": 41.8114791, "lon": -87.7080881, "tags": {"addr:city": "Chicago", "addr:housenumber": "4501", "addr:postcode": "60632", "addr:state": "IL", "addr:street": "South Christiana Avenue", "amenity": "bar", "name": "Michael\u2019s Sport Lounge", "phone": "+1-773-376-1108"}}, {"type": "way", "id": 163669162, "nodes": [1753465937, 1753466069, 1753466075, 1753465944, 1753465937], "tags": {"addr:housenumber": "4852", "addr:street": "South Pulaski Road", "addr:street:name": "Pulaski", "addr:street:prefix": "South", "addr:street:type": "Road", "amenity": "restaurant", "building": "yes", "building:levels": "2", "chicago:building_id": "454894"}}, {"type": "way", "id": 165156625, "nodes": [1767176156, 1767176642, 1767176692, 1767176203, 1767176156], "tags": {"addr:housenumber": "4619", "addr:street": "South Kedzie Avenue", "addr:street:name": "Kedzie", "addr:street:prefix": "South", "addr:street:type": "Avenue", "amenity": "restaurant", "building": "yes", "building:levels": "1", "cuisine": "mexican", "name": "Carnitas Don Rafa"}}]}