{"version": 0.6, "generator": "Overpass API 0.7.56.1004 6cd3eaec", "osm3s": {"timestamp_osm_base": "2020-07-22T01:08:03Z", "copyright": "The data included in this document is from www.openstreetmap.org. The data is made available under ODbL."}, "elements": [{"type": "node", "id": 2211836322, "lat": 41.7657547, "lon": -87.585589}, {"type": "node", "id": 2211836325, "lat": 41.7657535, "lon": -87.5856846}, {"type": "node", "id": 2211836693, "lat": 41.7658228, "lon": -87.5855511}, {"type": "node", "id": 2211836706, "lat": 41.765825, "lon": -87.5855751}, {"type": "node", "id": 2211836916, "lat": 41.7659, "lon": -87.5855147}, {"type": "node", "id": 2211836918, "lat": 41.7658983, "lon": -87.5856894}, {"type": "node", "id": 3034950802, "lat": 41.7803531, "lon": -87.5965069, "tags": {"addr:city": "Chicago", "addr:housenumber": "6300", "addr:postcode": "60637", "addr:street": "South Woodlawn Avenue", "amenity": "cafe", "cuisine": "coffee_shop", "name": "Robust Coffee Lounge", "phone": "+1-773-891-4240", "website": "http://robustcoffeelounge.com/", "wifi": "free"}}, {"type": "node", "id": 3378983526, "lat": 41.786014, "lon": -87.5913604}, {"type": "node", "id": 3378983527, "lat": 41.786034, "lon": -87.5894292}, {"type": "node", "id": 3378983528, "lat": 41.78461, "lon": -87.5897511}, {"type": "node", "id": 3378983529, "lat": 41.783746, "lon": -87.5899764}, {"type": "node", "id": 3378983530, "lat": 41.78343, "lon": -87.5900622}, {"type": "node", "id": 3378983531, "lat": 41.783426, "lon": -87.5902124}, {"type": "node", "id": 3378983532, "lat": 41.784654, "lon": -87.5902553}, {"type": "node", "id": 3378983533, "lat": 41.784514, "lon": -87.5904645}, {"type": "node", "id": 3378983534, "lat": 41.784492, "lon": -87.590482}, {"type": "node", "id": 3378983535, "lat": 41.78437, "lon": -87.5907368}, {"type": "node", "id": 3378983536, "lat": 41.784256, "lon": -87.5911257}, {"type": "node", "id": 3378983537, "lat": 41.78425, "lon": -87.5913644}, {"type": "node", "id": 3378983538, "lat": 41.7853, "lon": -87.5913859}, {"type": "node", "id": 3378983539, "lat": 41.786016, "lon": -87.5913939}, {"type": "node", "id": 5935554925, "lat": 41.780531, "lon": -87.6056016, "tags": {"addr:city": "Chicago", "addr:housenumber": "800", "addr:postcode": "60637", "addr:street": "East 63rd Street", "amenity": "restaurant", "cuisine": "american", "name": "Daley's Restaurant", "website": "https://www.daleysrestaurant.com/"}}, {"type": "node", "id": 7205249195, "lat": 41.7725927, "lon": -87.5866872, "tags": {"addr:city": "Chicago", "addr:housenumber": "6700", "addr:postcode": "60649", "addr:state": "IL", "addr:street": "South Stony Island Avenue", "amenity": "restaurant", "brand": "Pizza Hut", "brand:wikidata": "Q191615", "brand:wikipedia": "en:Pizza Hut", "cuisine": "pizza", "name": "Pizza Hut", "website": "https://locations.pizzahut.com/il/chicago/6700-s-stony-island-ave"}}, {"type": "way", "id": 211175584, "nodes": [2211836916, 2211836693, 2211836706, 2211836322, 2211836325, 2211836918, 2211836916], "tags": {"addr:city": "Chicago", "addr:housenumber": "7113", "addr:postcode": "60649", "addr:state": "IL", "addr:street": "South Stony Island Avenue", "addr:street:name": "Stony Island", "addr:street:prefix": "South", "addr:street:type": "Avenue", "amenity": "cafe", "brand": "Starbucks", "brand:wikidata": "Q37158", "brand:wikipedia": "en:Starbucks", "building": "retail", "chicago:building_id": "853372", "cuisine": "coffee_shop", "drive_through": "yes", "name": "Starbucks", "official_name": "Starbucks Coffee", "takeaway": "yes", "website": "https://www.starbucks.com/store/14053/"}}, {"type": "way", "id": 330872770, "nodes": [3378983526, 3378983527, 3378983528, 3378983529, 3378983530, 3378983531, 3378983532, 3378983533, 3378983534, 3378983535, 3378983536, 3378983537, 3378983538, 3378983539, 3378983526], "tags": {"addr:city": "Chicago", "addr:housenumber": "5801", "addr:postcode": "60637", "addr:state": "IL", "addr:street": "South Ellis Avenue", "amenity": "university", "name": "The University of Chicago", "website": "https://uchicago.edu", "wikidata": "Q131252", "wikipedia": "en:University of Chicago"}}]}