{"version": 0.6, "generator": "Overpass API 0.7.56.3 eb200aeb", "osm3s": {"timestamp_osm_base": "2020-07-21T20:29:03Z", "copyright": "The data included in this document is from www.openstreetmap.org. The data is made available under ODbL."}, "elements": [{"type": "node", "id": 495804966, "lat": 41.8816365, "lon": -87.6626514}, {"type": "node", "id": 495804967, "lat": 41.8817159, "lon": -87.6626522}, {"type": "node", "id": 495804968, "lat": 41.8817177, "lon": -87.6624953}, {"type": "node", "id": 495804969, "lat": 41.8817726, "lon": -87.6624959}, {"type": "node", "id": 495804970, "lat": 41.8817737, "lon": -87.6624015}, {"type": "node", "id": 495804971, "lat": 41.8816393, "lon": -87.6624}, {"type": "node", "id": 2200032209, "lat": 41.8909966, "lon": -87.6722207}, {"type": "node", "id": 2200032211, "lat": 41.8909975, "lon": -87.6721343}, {"type": "node", "id": 2200032617, "lat": 41.8911846, "lon": -87.6722261}, {"type": "node", "id": 2200032621, "lat": 41.8911855, "lon": -87.6721398}, {"type": "node", "id": 2535218213, "lat": 41.8910659, "lon": -87.6718335, "tags": {"addr:city": "Chicago", "addr:housenumber": "1758", "addr:postcode": "60622", "addr:state": "IL", "addr:street": "West Grand Avenue", "amenity": "bar", "delivery": "yes", "name": "Output Lounge & Sports Bar", "phone": "312-929-2515", "website": "outputlounge.com"}}, {"type": "node", "id": 2535218224, "lat": 41.8910216, "lon": -87.6714159, "tags": {"amenity": "restaurant", "cuisine": "pizza", "name": "Tortorice's Pizza"}}, {"type": "node", "id": 3240592096, "lat": 41.8863874, "lon": -87.6667991, "tags": {"addr:city": "Chicago", "addr:housenumber": "235", "addr:postcode": "60607", "addr:state": "IL", "addr:street": "North Ashland Avenue", "amenity": "bar", "name": "Cobra Lounge", "phone": "+1-312-226-6300", "smoking": "no", "website": "https://www.cobralounge.com/"}}, {"type": "node", "id": 3914989147, "lat": 41.8788941, "lon": -87.6774089, "tags": {"amenity": "restaurant", "cuisine": "brazilian", "name": "Sinh\u00e1"}}, {"type": "node", "id": 4567575190, "lat": 41.8844194, "lon": -87.6613607, "tags": {"addr:city": "Chicago", "addr:housenumber": "1364", "addr:postcode": "60607", "addr:state": "IL", "addr:street": "West Randolph Street", "amenity": "restaurant", "cuisine": "japanese;asian;bbq;barbecue;barbeque", "name": "Gyu-Kaku Japanese BBQ", "name:en": "Gyu-Kaku Japanese BBQ", "opening_hours": "Mo-Th 11:30-22:00; Fr-Sa 11:30-22:30; Su 11:30-21:30", "phone": "+1-312-982-2840", "website": "https://www.gyu-kaku.com/"}}, {"type": "node", "id": 5067237460, "lat": 41.8838272, "lon": -87.6629791, "tags": {"addr:city": "Chicago", "addr:housenumber": "1415", "addr:postcode": "60607", "addr:state": "IL", "addr:street": "West Randolph Street", "amenity": "restaurant", "cuisine": "pub;american", "name": "Kaiser Tiger", "opening_hours": "Su-Fr 11:00-02:00; Sa 11:00-03:00", "phone": "+1-312-243-3100", "website": "https://kaisertiger.com/"}}, {"type": "node", "id": 5195156460, "lat": 41.8942344, "lon": -87.676849, "tags": {"addr:city": "Chicago", "addr:housenumber": "701", "addr:postcode": "60622", "addr:state": "IL", "addr:street": "North Damen Avenue", "amenity": "bar", "name": "Damen Tavern", "outdoor_seating": "no", "phone": "+1-312-796-3191", "smoking": "no"}}, {"type": "node", "id": 5452698962, "lat": 41.8816852, "lon": -87.6625129, "tags": {"addr:city": "Chicago", "addr:housenumber": "1408", "addr:postcode": "60607", "addr:state": "IL", "addr:street": "West Madison Street", "amenity": "restaurant", "cuisine": "sandwich;sandwiches;regional", "name": "Palace Grill Restaurant", "opening_hours": "Sa 06:00-15:00; Su 07:00-14:00; Mo 06:00-15:00; Tu 06:00-19:00; We 06:00-15:00; Th 06:00-19:00; Fr 06:00-15:00", "phone": "+1-312-226-9529", "website": "http://palacegrillonmadison.com/"}}, {"type": "node", "id": 5460621821, "lat": 41.8844846, "lon": -87.6627038, "tags": {"addr:city": "Chicago", "addr:housenumber": "1400", "addr:postcode": "60607", "addr:state": "IL", "addr:street": "West Randolph Street", "amenity": "restaurant", "cuisine": "asian;barbecue;bbq;barbeque", "name": "bellyQ", "opening_hours": "Mo-Sa 17:00-22:00", "phone": "+1-312-563-1010", "website": "http://www.bellyqchicago.com/"}}, {"type": "node", "id": 5460642403, "lat": 41.8845043, "lon": -87.6611939, "tags": {"addr:city": "Chicago", "addr:housenumber": "1358", "addr:postcode": "60607", "addr:state": "IL", "addr:street": "West Randolph Street", "amenity": "restaurant", "cuisine": "breakfast;american", "name": "Bespoke Cuisine", "opening_hours": "Mo-Fr 09:00-17:00", "phone": "+1-312-455-8400", "website": "http://bespokecuisine.com/"}}, {"type": "node", "id": 5460646709, "lat": 41.8844593, "lon": -87.6626445, "tags": {"addr:city": "Chicago", "addr:housenumber": "1400", "addr:postcode": "60607", "addr:state": "IL", "addr:street": "West Randolph Street", "amenity": "restaurant", "cuisine": "asian", "name": "urbanbelly", "opening_hours": "Mo-Sa 11:00-22:00", "phone": "+1-773-583-0500", "website": "http://www.urbanbellychicago.com/"}}, {"type": "node", "id": 5460735957, "lat": 41.8897346, "lon": -87.6620754, "tags": {"addr:city": "Chicago", "addr:housenumber": "1381", "addr:postcode": "60642", "addr:state": "IL", "addr:street": "West Hubbard Street", "amenity": "restaurant", "cuisine": "american;breakfast", "name": "The Breakfast Club & Grill", "phone": "+1-312-666-2372", "website": "https://thebreakfastclubchicago.com/"}}, {"type": "node", "id": 5792394594, "lat": 41.8896255, "lon": -87.670578, "tags": {"addr:city": "Chicago", "addr:housenumber": "1725", "addr:postcode": "60622", "addr:state": "IL", "addr:street": "West Hubbard Street", "amenity": "bar", "name": "On Tour Brewin", "outdoor_seating": "no", "phone": "+1-312-796-3119", "website": "https://ontourbrewing.com/"}}, {"type": "node", "id": 5794886652, "lat": 41.8868879, "lon": -87.6776977, "tags": {"addr:city": "Chicago", "addr:housenumber": "2010", "addr:postcode": "60612", "addr:state": "IL", "addr:street": "West Fulton Street", "amenity": "bar", "craft": "distillery", "name": "Rhine Hall Distillery", "note": "Rhine Hall Distillery has a tasting room that's open to the public.", "opening_hours": "We-Fr 17:00-21:00; Sa 14:00-19:00", "phone": "+1-312-243-4313", "product": "brandy", "website": "https://www.rhinehall.com/"}}, {"type": "node", "id": 5794890475, "lat": 41.886502, "lon": -87.6783765, "tags": {"addr:city": "Chicago", "addr:housenumber": "2021", "addr:postcode": "60612", "addr:state": "IL", "addr:street": "West Fulton Street", "addr:unit": "K-101B", "amenity": "cafe", "name": "Metric Coffee", "opening_hours": "Mo-Fr 07:00-16:00; Sa 08:00-14:00", "phone": "+1-312-982-2196", "website": "https://metriccoffee.com/pages/metric-west-fulton"}}, {"type": "node", "id": 5916848688, "lat": 41.8923569, "lon": -87.6620789, "tags": {"addr:city": "Chicago", "addr:housenumber": "543", "addr:postcode": "60642", "addr:state": "IL", "addr:street": "North Noble Street", "amenity": "restaurant", "name": "Nini's Deli", "phone": "+1-312-243-9822", "website": "https://ninisdeli.com/"}}, {"type": "node", "id": 6188968653, "lat": 41.880808, "lon": -87.6849333, "tags": {"addr:city": "Chicago", "addr:housenumber": "2323", "addr:postcode": "60612", "addr:state": "IL", "addr:street": "West Madison Street", "amenity": "restaurant", "cuisine": "chinese", "name": "Chan's King Wok", "opening_hours": "24/7"}}, {"type": "node", "id": 6263059442, "lat": 41.8899164, "lon": -87.6782682, "tags": {"addr:city": "Chicago", "addr:housenumber": "2032", "addr:postcode": "60612", "addr:state": "IL", "addr:street": "West Hubbard Street", "amenity": "restaurant", "name": "Art Of Dosa", "phone": "+1-312-899-6238"}}, {"type": "node", "id": 6273529503, "lat": 41.8852726, "lon": -87.6617947, "tags": {"addr:city": "Chicago", "addr:housenumber": "1375", "addr:postcode": "60607", "addr:state": "IL", "addr:street": "West Lake Street", "amenity": "restaurant", "name": "Bottom Lounge Restaurant & Patio", "phone": "+1-312-666-6775", "website": "https://bottomlounge.com/"}}, {"type": "node", "id": 6283983275, "lat": 41.8810096, "lon": -87.6742287, "tags": {"addr:city": "Chicago", "addr:housenumber": "1901", "addr:postcode": "60612", "addr:state": "IL", "addr:street": "West Madison Street", "amenity": "bar", "name": "Queenie\u2019s Supper Club & Cocktails", "phone": "+1-312-455-4500", "website": "https://www.queeniessupperclub.com/"}}, {"type": "node", "id": 6285038717, "lat": 41.8854222, "lon": -87.6712386, "tags": {"addr:city": "Chicago", "addr:housenumber": "1748", "addr:postcode": "60612", "addr:state": "IL", "addr:street": "West Lake Street", "amenity": "restaurant", "name": "Eden", "phone": "+1-312-366-2294", "website": "https://edeninchicago.com/"}}, {"type": "node", "id": 6285894590, "lat": 41.8932185, "lon": -87.6676308, "tags": {"addr:city": "Chicago", "addr:housenumber": "624", "addr:postcode": "60622", "addr:state": "IL", "addr:street": "North Ashland Avenue", "amenity": "restaurant", "name": "El Potosino Grill", "phone": "+1-312-285-2711", "website": "http://orderelpotosinogrill.com/"}}, {"type": "node", "id": 6289954136, "lat": 41.8863189, "lon": -87.672127, "tags": {"addr:city": "Chicago", "addr:housenumber": "1800", "addr:postcode": "60612", "addr:state": "IL", "addr:street": "West Walnut Street", "amenity": "bar", "name": "Finch Beer Co", "phone": "+1-312-929-4773", "website": "https://www.finchbeer.com/"}}, {"type": "node", "id": 6290064774, "lat": 41.8932472, "lon": -87.6841486, "tags": {"addr:city": "Chicago", "addr:housenumber": "2258", "addr:postcode": "60612", "addr:state": "IL", "addr:street": "West Erie Street", "amenity": "restaurant", "name": "Fiore Delicatessen", "phone": "+1-312-942-9419", "website": "http://www.fioresdelicatessen.com/"}}, {"type": "node", "id": 6292138425, "lat": 41.8858542, "lon": -87.6712618, "tags": {"addr:city": "Chicago", "addr:housenumber": "221", "addr:postcode": "60612", "addr:state": "IL", "addr:street": "North Wood Street", "amenity": "bar", "name": "Great Central Brewing Company", "phone": "+1-855-464-4222", "website": "http://www.greatcentralbrewing.com/"}}, {"type": "node", "id": 6294534344, "lat": 41.8923742, "lon": -87.6619407, "tags": {"addr:city": "Chicago", "addr:housenumber": "1363", "addr:postcode": "60642", "addr:state": "IL", "addr:street": "West Ohio Street", "amenity": "restaurant", "name": "Home Team Pizza", "phone": "+1-312-291-8666", "website": "http://www.hometeampizzachicago.us/"}}, {"type": "node", "id": 6298048500, "lat": 41.8875309, "lon": -87.6778969, "tags": {"addr:city": "Chicago", "addr:housenumber": "2023", "addr:postcode": "60612", "addr:state": "IL", "addr:street": "West Carroll Avenue", "amenity": "cafe", "name": "Ineeka", "phone": "+1-312-661-1550", "website": "http://www.treleela.com/"}}, {"type": "node", "id": 6300078345, "lat": 41.8870697, "lon": -87.6740659, "tags": {"addr:city": "Chicago", "addr:housenumber": "1850", "addr:postcode": "60612", "addr:state": "IL", "addr:street": "West Fulton Street", "amenity": "cafe", "name": "Intelligentsia Roasting Works & Offices", "phone": "+1-888-945-9786", "website": "https://www.intelligentsiacoffee.com/"}}, {"type": "node", "id": 6300747755, "lat": 41.880305, "lon": -87.6669921, "tags": {"addr:city": "Chicago", "addr:housenumber": "36", "addr:postcode": "60607", "addr:state": "IL", "addr:street": "South Ashland Avenue", "amenity": "restaurant", "cuisine": "barbecue", "name": "SoJu BBQ", "phone": "+1-312-877-5206", "website": "https://www.sojubbq.com/"}}, {"type": "node", "id": 6300998968, "lat": 41.8806489, "lon": -87.6612557, "tags": {"addr:city": "Chicago", "addr:housenumber": "1340", "addr:postcode": "60607", "addr:state": "IL", "addr:street": "West Monroe Street", "amenity": "cafe", "name": "Rituals Coffee Companyc", "phone": "+1-312-733-1884"}}, {"type": "node", "id": 6304001071, "lat": 41.8912668, "lon": -87.6618238, "tags": {"addr:city": "Chicago", "addr:housenumber": "1372", "addr:postcode": "60642", "addr:state": "IL", "addr:street": "West Grand Avenue", "amenity": "restaurant", "name": "Tempesta Market", "phone": "+1-312-929-2551", "website": "http://tempestamarket.com/"}}, {"type": "node", "id": 6306612141, "lat": 41.8879186, "lon": -87.6825861, "tags": {"addr:city": "Chicago", "addr:housenumber": "324", "addr:postcode": "60612", "addr:state": "IL", "addr:street": "North Leavitt Street", "amenity": "restaurant", "name": "The Corner Farmacy", "phone": "+1-563-271-7936", "website": "https://www.thecornerfarmacy.com/"}}, {"type": "node", "id": 6315603271, "lat": 41.8932944, "lon": -87.6620632, "tags": {"addr:city": "Chicago", "addr:housenumber": "1367", "addr:postcode": "60642", "addr:state": "IL", "addr:street": "West Erie Street", "amenity": "bar", "name": "The Irish Nobleman", "phone": "+1-312-374-3487", "website": "http://www.irishnobleman.com/"}}, {"type": "node", "id": 6315672750, "lat": 41.8795977, "lon": -87.6679468, "tags": {"addr:city": "Chicago", "addr:housenumber": "1659", "addr:postcode": "60612", "addr:state": "IL", "addr:street": "West Ogden Avenue", "amenity": "restaurant", "name": "The Ogden", "phone": "+1-312-226-1888", "website": "https://theogdenchicago.com/"}}, {"type": "node", "id": 6319067420, "lat": 41.8878949, "lon": -87.6826783, "tags": {"addr:city": "Chicago", "addr:housenumber": "324", "addr:postcode": "60612", "addr:state": "IL", "addr:street": "North Leavitt Street", "amenity": "restaurant", "name": "Kaathis", "phone": "+1-872-222-0502", "website": "https://kaathis.com/"}}, {"type": "node", "id": 6319238724, "lat": 41.8903498, "lon": -87.677052, "tags": {"addr:city": "Chicago", "addr:housenumber": "456", "addr:postcode": "60612", "addr:state": "IL", "addr:street": "North Damen Avenue", "amenity": "restaurant", "cuisine": "american", "name": "Lilly Bell's Diner"}}, {"type": "node", "id": 6322955756, "lat": 41.8881143, "lon": -87.6824802, "tags": {"addr:city": "Chicago", "addr:housenumber": "324", "addr:postcode": "60612", "addr:state": "IL", "addr:street": "North Bell Avenue", "amenity": "restaurant", "name": "The Corner Farmacy", "phone": "+1-563-271-7936", "website": "https://www.thecornerfarmacy.com/"}}, {"type": "node", "id": 6324435419, "lat": 41.8818343, "lon": -87.6619234, "tags": {"addr:city": "Chicago", "addr:housenumber": "1350", "addr:postcode": "60607", "addr:state": "IL", "addr:street": "West Madison Street", "amenity": "bar", "name": "The Stanley Club", "phone": "+1-312-226-5555"}}, {"type": "node", "id": 6386781829, "lat": 41.8910136, "lon": -87.6792392}, {"type": "node", "id": 6386781838, "lat": 41.8910189, "lon": -87.6789727}, {"type": "node", "id": 6386781854, "lat": 41.8908915, "lon": -87.6792348}, {"type": "node", "id": 6386781855, "lat": 41.8908967, "lon": -87.6789684}, {"type": "node", "id": 6394391045, "lat": 41.889422, "lon": -87.6667839, "tags": {"addr:city": "Chicago", "addr:housenumber": "417", "addr:postcode": "60622", "addr:state": "IL", "addr:street": "North Ashland Avenue", "amenity": "bar", "brewery": "yes", "description": "District Brew Yards is a taproom for three breweries: Burnt City Brewing, Bold Dog Beer Co., Around the Bend Beer Co. ", "name": "District Brew Yards"}}, {"type": "node", "id": 7018263926, "lat": 41.8807947, "lon": -87.6727821, "tags": {"amenity": "bar", "name": "Mad West & Atruium Bar"}}, {"type": "node", "id": 7018263927, "lat": 41.8805191, "lon": -87.6727311, "tags": {"amenity": "restaurant", "name": "Queenie's Supper Club"}}, {"type": "way", "id": 40785416, "nodes": [495804966, 495804967, 495804968, 495804969, 495804970, 495804971, 495804966], "tags": {"addr:city": "Chicago", "addr:housenumber": "1408", "addr:postcode": "60607", "addr:state": "IL", "addr:street": "West Madison Street", "addr:street:name": "Madison", "addr:street:prefix": "West", "addr:street:type": "Street", "amenity": "restaurant", "building": "yes", "building:levels": "1", "chicago:building_id": "357200", "name": "Palace Grill Restaurant", "phone": "+1-312-226-9529", "website": "https://www.palacegrillonmadison.com/"}}, {"type": "way", "id": 209839539, "nodes": [2200032209, 2200032617, 2200032621, 2200032211, 2200032209], "tags": {"addr:housenumber": "1800", "addr:street": "West Grand Avenue", "addr:street:name": "Grand", "addr:street:prefix": "West", "addr:street:type": "Avenue", "amenity": "restaurant", "building": "yes", "building:levels": "2", "chicago:building_id": "348688", "cuisine": "breakfast", "name": "Breakfast House"}}, {"type": "way", "id": 682002315, "nodes": [6386781829, 6386781838, 6386781855, 6386781854, 6386781829], "tags": {"addr:city": "Chicago", "addr:housenumber": "2054", "addr:postcode": "60612", "addr:state": "IL", "addr:street": "West Grand Avenue", "amenity": "restaurant", "building": "yes", "name": "Upton\u2019s Breakroom", "phone": "+1-312-666-7838", "website": "http://www.uptonsnaturals.com/breakroom"}}]}