{"version": 0.6, "generator": "Overpass API 0.7.56.1004 6cd3eaec", "osm3s": {"timestamp_osm_base": "2020-07-22T03:32:03Z", "copyright": "The data included in this document is from www.openstreetmap.org. The data is made available under ODbL."}, "elements": [{"type": "node", "id": 256618510, "lat": 41.8658835, "lon": -87.6451248}, {"type": "node", "id": 258030969, "lat": 41.8692737, "lon": -87.6454545}, {"type": "node", "id": 258030970, "lat": 41.8688302, "lon": -87.6454313}, {"type": "node", "id": 258030971, "lat": 41.8680786, "lon": -87.6453001}, {"type": "node", "id": 258030972, "lat": 41.8677305, "lon": -87.6452849}, {"type": "node", "id": 394817585, "lat": 41.853516, "lon": -87.6347244, "tags": {"amenity": "restaurant", "name": "Shui Wah"}}, {"type": "node", "id": 624842100, "lat": 41.8661261, "lon": -87.6509285}, {"type": "node", "id": 624842102, "lat": 41.8647519, "lon": -87.6508749}, {"type": "node", "id": 624842113, "lat": 41.8634175, "lon": -87.6508481}, {"type": "node", "id": 624842116, "lat": 41.8623697, "lon": -87.65081}, {"type": "node", "id": 624842118, "lat": 41.8624081, "lon": -87.647875}, {"type": "node", "id": 691850892, "lat": 41.8528159, "lon": -87.6462733, "tags": {"addr:city": "Chicago", "addr:housenumber": "2149", "addr:postcode": "60608", "addr:state": "IL", "addr:street": "South Halsted Street", "amenity": "bar", "name": "Skylark", "phone": "+1 312 948-5275", "website": "http://www.skylarkchicago.com/", "wheelchair": "yes"}}, {"type": "node", "id": 691866426, "lat": 41.858146, "lon": -87.6464453, "tags": {"addr:city": "Chicago", "addr:housenumber": "1733", "addr:postcode": "60608", "addr:state": "IL", "addr:street": "South Halsted Street", "amenity": "cafe", "cuisine": "coffee_shop", "name": "Kristoffer\u2019s Cafe & Bakery", "phone": "+1 312-829-4150", "website": "https://kristofferscakes.com/"}}, {"type": "node", "id": 1308245862, "lat": 41.8730195, "lon": -87.6566515}, {"type": "node", "id": 1309310753, "lat": 41.8705582, "lon": -87.6510938}, {"type": "node", "id": 1309310769, "lat": 41.8728194, "lon": -87.6512488}, {"type": "node", "id": 1309310772, "lat": 41.8728556, "lon": -87.6512875}, {"type": "node", "id": 1309310781, "lat": 41.8728544, "lon": -87.6513238}, {"type": "node", "id": 1309310786, "lat": 41.8718736, "lon": -87.6511361}, {"type": "node", "id": 1309310791, "lat": 41.8729799, "lon": -87.6515273}, {"type": "node", "id": 1309310795, "lat": 41.8711509, "lon": -87.6511104}, {"type": "node", "id": 1309310830, "lat": 41.872569, "lon": -87.6511511}, {"type": "node", "id": 1309310834, "lat": 41.8728564, "lon": -87.6513962}, {"type": "node", "id": 1309521523, "lat": 41.8697849, "lon": -87.6511257}, {"type": "node", "id": 1309521528, "lat": 41.8700144, "lon": -87.6510741}, {"type": "node", "id": 1309521533, "lat": 41.869876, "lon": -87.6510868}, {"type": "node", "id": 1324310267, "lat": 41.8672329, "lon": -87.6509271}, {"type": "node", "id": 1324339868, "lat": 41.8695079, "lon": -87.6511376, "tags": {"highway": "traffic_signals"}}, {"type": "node", "id": 1563768183, "lat": 41.8677741, "lon": -87.6525895}, {"type": "node", "id": 1563768280, "lat": 41.8682055, "lon": -87.6522318}, {"type": "node", "id": 1564610532, "lat": 41.8671888, "lon": -87.6529727}, {"type": "node", "id": 1564610597, "lat": 41.8673195, "lon": -87.6529751}, {"type": "node", "id": 1567935379, "lat": 41.8691481, "lon": -87.6515497}, {"type": "node", "id": 1567935392, "lat": 41.868256, "lon": -87.6522619}, {"type": "node", "id": 1567935428, "lat": 41.8685971, "lon": -87.6519722}, {"type": "node", "id": 1567935437, "lat": 41.8685197, "lon": -87.6520566}, {"type": "node", "id": 1567935483, "lat": 41.8682319, "lon": -87.6522096}, {"type": "node", "id": 1567935487, "lat": 41.8672769, "lon": -87.6529743}, {"type": "node", "id": 1567935598, "lat": 41.8686145, "lon": -87.6520056}, {"type": "node", "id": 1567935611, "lat": 41.8692679, "lon": -87.6514462}, {"type": "node", "id": 1567935613, "lat": 41.8684628, "lon": -87.6520559}, {"type": "node", "id": 1619646335, "lat": 41.8677949, "lon": -87.641925, "tags": {"addr:city": "Chicago", "addr:housenumber": "1141", "addr:postcode": "60607", "addr:state": "IL", "addr:street": "South Jefferson Street", "amenity": "restaurant", "cuisine": "sandwich;deli", "name": "Manny\u2019s Cafeteria and Delicatessen", "phone": "+1-312-939-2855", "website": "https://www.mannysdeli.com/"}}, {"type": "node", "id": 1640078305, "lat": 41.8750617, "lon": -87.6477795}, {"type": "node", "id": 1640078309, "lat": 41.8746412, "lon": -87.6472987}, {"type": "node", "id": 1640078310, "lat": 41.8751704, "lon": -87.6489907}, {"type": "node", "id": 1640078313, "lat": 41.8746225, "lon": -87.6472615}, {"type": "node", "id": 1640078314, "lat": 41.8751984, "lon": -87.6497309}, {"type": "node", "id": 1640078316, "lat": 41.8751894, "lon": -87.6494084}, {"type": "node", "id": 1640078325, "lat": 41.8751284, "lon": -87.6485017}, {"type": "node", "id": 1640078326, "lat": 41.8751833, "lon": -87.6492436}, {"type": "node", "id": 1643970052, "lat": 41.8736833, "lon": -87.64619}, {"type": "node", "id": 1643970061, "lat": 41.8695057, "lon": -87.6512623}, {"type": "node", "id": 1643970072, "lat": 41.8734125, "lon": -87.6461313}, {"type": "node", "id": 1643970081, "lat": 41.8739152, "lon": -87.6462705}, {"type": "node", "id": 1645121278, "lat": 41.8726271, "lon": -87.6511611}, {"type": "node", "id": 1645121392, "lat": 41.8728385, "lon": -87.6512586}, {"type": "node", "id": 1645121508, "lat": 41.8726879, "lon": -87.6511848}, {"type": "node", "id": 1645121523, "lat": 41.8730367, "lon": -87.6515997}, {"type": "node", "id": 1645164035, "lat": 41.8726081, "lon": -87.6458381}, {"type": "node", "id": 1645208835, "lat": 41.8720548, "lon": -87.65114}, {"type": "node", "id": 1655435354, "lat": 41.8670032, "lon": -87.6451676}, {"type": "node", "id": 1655435355, "lat": 41.8673, "lon": -87.6452802}, {"type": "node", "id": 1655435357, "lat": 41.8670723, "lon": -87.6452268}, {"type": "node", "id": 1655435361, "lat": 41.8682982, "lon": -87.6453494}, {"type": "node", "id": 1655435366, "lat": 41.8695302, "lon": -87.6454595}, {"type": "node", "id": 1846853872, "lat": 41.8731599, "lon": -87.6460597}, {"type": "node", "id": 1846853875, "lat": 41.8742112, "lon": -87.646933}, {"type": "node", "id": 1846853878, "lat": 41.8742224, "lon": -87.6472729}, {"type": "node", "id": 2206208308, "lat": 41.8515755, "lon": -87.6324261}, {"type": "node", "id": 2206208310, "lat": 41.8515763, "lon": -87.6323325}, {"type": "node", "id": 2206208314, "lat": 41.8515795, "lon": -87.6320997}, {"type": "node", "id": 2206208372, "lat": 41.8516427, "lon": -87.632429}, {"type": "node", "id": 2206208373, "lat": 41.8516436, "lon": -87.6323446}, {"type": "node", "id": 2206208377, "lat": 41.8516476, "lon": -87.6321016}, {"type": "node", "id": 2206240989, "lat": 41.8674262, "lon": -87.6389038}, {"type": "node", "id": 2206240990, "lat": 41.8674239, "lon": -87.6390264}, {"type": "node", "id": 2206241002, "lat": 41.8676265, "lon": -87.6390334}, {"type": "node", "id": 2206241005, "lat": 41.8676342, "lon": -87.6390307}, {"type": "node", "id": 2206241006, "lat": 41.8676473, "lon": -87.639013}, {"type": "node", "id": 2206241007, "lat": 41.8676477, "lon": -87.6389178}, {"type": "node", "id": 2206241008, "lat": 41.8676487, "lon": -87.6390015}, {"type": "node", "id": 2207261995, "lat": 41.8753129, "lon": -87.654403}, {"type": "node", "id": 2207262066, "lat": 41.8638442, "lon": -87.6469008}, {"type": "node", "id": 2207262112, "lat": 41.8751211, "lon": -87.6542903}, {"type": "node", "id": 2207262133, "lat": 41.8638244, "lon": -87.6479273}, {"type": "node", "id": 2207262135, "lat": 41.8743682, "lon": -87.656704}, {"type": "node", "id": 2207262136, "lat": 41.8743143, "lon": -87.6596974}, {"type": "node", "id": 2207262137, "lat": 41.8641937, "lon": -87.6469062}, {"type": "node", "id": 2207262178, "lat": 41.8751451, "lon": -87.65436}, {"type": "node", "id": 2207262255, "lat": 41.875225, "lon": -87.6597456}, {"type": "node", "id": 2207262259, "lat": 41.875189, "lon": -87.6543922}, {"type": "node", "id": 2242858400, "lat": 41.8642252, "lon": -87.6450831}, {"type": "node", "id": 2242858434, "lat": 41.8642071, "lon": -87.6461313}, {"type": "node", "id": 2359636163, "lat": 41.8644337, "lon": -87.6466858, "tags": {"addr:city": "Chicago", "addr:housenumber": "1335", "addr:postcode": "60607", "addr:street": "South Halsted Street", "amenity": "restaurant", "cuisine": "chinese", "name": "Joy Yee Noodle"}}, {"type": "node", "id": 2397026625, "lat": 41.8699282, "lon": -87.6454906}, {"type": "node", "id": 2412572912, "lat": 41.8730968, "lon": -87.6519023}, {"type": "node", "id": 2412572932, "lat": 41.8730627, "lon": -87.6517502}, {"type": "node", "id": 3239038815, "lat": 41.858141, "lon": -87.6510355, "tags": {"addr:city": "Chicago", "addr:housenumber": "960", "addr:postcode": "60608", "addr:state": "IL", "addr:street": "West 18th Street", "amenity": "bar", "name": "Simone\u2019s", "phone": "+1-312-666-8601", "website": "http://www.simonesbar.com/"}}, {"type": "node", "id": 3407977972, "lat": 41.8535449, "lon": -87.6329633, "tags": {"amenity": "restaurant", "cuisine": "chinese", "name": "Phoenix"}}, {"type": "node", "id": 3407977973, "lat": 41.853519, "lon": -87.6330894, "tags": {"amenity": "cafe", "cuisine": "chinese", "name": "Saint's Alp Teahouse"}}, {"type": "node", "id": 3586159909, "lat": 41.853343, "lon": -87.6350356, "tags": {"amenity": "restaurant", "cuisine": "chinese", "name": "Lao Sze Chuan"}}, {"type": "node", "id": 4226924443, "lat": 41.869633, "lon": -87.6511322}, {"type": "node", "id": 4564288695, "lat": 41.8681043, "lon": -87.6389402, "tags": {"amenity": "cafe", "brand": "Starbucks", "brand:wikidata": "Q37158", "cuisine": "coffee_shop", "name": "Starbucks", "name:en": "Starbucks", "official_name": "Starbucks Coffee", "takeaway": "yes"}}, {"type": "node", "id": 4743570455, "lat": 41.8534252, "lon": -87.6333627, "tags": {"addr:city": "Chicago", "addr:housenumber": "2141", "addr:postcode": "60616", "addr:state": "IL", "addr:street": "South Archer Avenue", "amenity": "restaurant", "cuisine": "japanese", "delivery": "yes", "name": "Strings Ramen", "smoking": "no", "takeaway": "yes"}}, {"type": "node", "id": 4831308139, "lat": 41.8526469, "lon": -87.6330884, "tags": {"addr:city": "Chicago", "addr:housenumber": "225", "addr:postcode": "60616", "addr:state": "IL", "addr:street": "West Cermak Road", "amenity": "restaurant", "name": "Xi'an Cuisine", "phone": "+1-312-326 3171", "website": "www.xiancuisinechicago.com"}}, {"type": "node", "id": 5168234138, "lat": 41.8590939, "lon": -87.6469302, "tags": {"addr:housenumber": "1626", "addr:street": "South Halsted Street", "amenity": "restaurant", "description": "Bib Gourmand recommendation", "name": "DeColores", "phone": "312 226 9886"}}, {"type": "node", "id": 5384474754, "lat": 41.8526305, "lon": -87.6346207, "tags": {"addr:city": "Chicago", "addr:housenumber": "261", "addr:postcode": "60616", "addr:state": "IL", "addr:street": "West Cermak Road", "amenity": "cafe", "brand": "Starbucks", "brand:wikidata": "Q37158", "brand:wikipedia": "en:Starbucks", "cuisine": "coffee_shop", "internet_access": "wlan", "name": "Starbucks", "official_name": "Starbucks Coffee", "smoking": "no", "takeaway": "yes"}}, {"type": "node", "id": 5419560721, "lat": 41.8524362, "lon": -87.6318723, "tags": {"addr:housenumber": "2217", "addr:postcode": "60616", "amenity": "restaurant", "cuisine": "chinese", "name": "Triple Crown Restaurant", "opening_hours": "Mo-Su 09:00-02:00", "phone": "+1 (312) 842-0088", "website": "http://m.triplecrownchicago.com/"}}, {"type": "node", "id": 5571138424, "lat": 41.853545, "lon": -87.6345564, "tags": {"addr:city": "Chicago", "addr:housenumber": "2160", "addr:postcode": "60616", "addr:state": "IL", "addr:street": "South Archer Avenue", "amenity": "restaurant", "name": "Chi Cafe", "opening_hours": "Su-We 08:00-04:00; Th 08:00-00:00; Fr-Sa 00:00-24:00", "phone": "+1-312-842-9993", "website": "https://www.chicafeonline.com/"}}, {"type": "node", "id": 5632900492, "lat": 41.8751653, "lon": -87.6519389}, {"type": "node", "id": 5632900499, "lat": 41.8752939, "lon": -87.6555594}, {"type": "node", "id": 5632908777, "lat": 41.8699299, "lon": -87.6510819}, {"type": "node", "id": 5792369884, "lat": 41.8533755, "lon": -87.6526694, "tags": {"addr:city": "Chicago", "addr:housenumber": "2101", "addr:postcode": "60608", "addr:state": "IL", "addr:street": "South Carpenter Street", "amenity": "bar", "name": "Lo Rez Brewing and Taproom", "phone": "+1-888-404-2262", "website": "http://lorezbrewing.com/"}}, {"type": "node", "id": 5792383125, "lat": 41.8532798, "lon": -87.6483419, "tags": {"addr:city": "Chicago", "addr:housenumber": "2136", "addr:postcode": "60608", "addr:state": "IL", "addr:street": "South Peoria Street", "amenity": "bar", "name": "Moody Tongue Brewing Company", "phone": "+1-312-6000-5111", "website": "https://moodytongue.com/"}}, {"type": "node", "id": 5913542435, "lat": 41.8676418, "lon": -87.6390257}, {"type": "node", "id": 5919468187, "lat": 41.8522923, "lon": -87.6333552, "tags": {"addr:housenumber": "232", "addr:postcode": "60616", "addr:street": "West 22nd Place", "amenity": "restaurant", "cuisine": "chinese", "internet_access": "wlan", "name": "Gao\u2019s Kabob", "opening_hours": "Mo-Su 17:00-02:00", "phone": "3125263836"}}, {"type": "node", "id": 5967965845, "lat": 41.8646381, "lon": -87.6458297, "tags": {"addr:city": "Chicago", "addr:housenumber": "719", "addr:state": "IL", "addr:street": "West Maxwell Street", "amenity": "restaurant", "craft": "caterer", "cuisine": "vietnamese", "diet:vegan": "yes", "diet:vegetarian": "yes", "name": "Lotus Cafe", "website": "http://www.lotusbanhmi.com/"}}, {"type": "node", "id": 6126907564, "lat": 41.8590227, "lon": -87.6468929, "tags": {"addr:city": "Chicago", "addr:housenumber": "1700", "addr:postcode": "60608", "addr:state": "IL", "addr:street": "South Halsted Street", "amenity": "restaurant", "cuisine": "mexican", "name": "Tacos Palas", "opening_hours": "07:00-21:00"}}, {"type": "node", "id": 6154694732, "lat": 41.8649254, "lon": -87.6460406, "tags": {"addr:city": "Chicago", "addr:housenumber": "724", "addr:postcode": "60607", "addr:state": "IL", "addr:street": "West Maxwell Street", "amenity": "restaurant", "name": "Bureau Bar & Restaurant"}}, {"type": "node", "id": 6154694734, "lat": 41.8649454, "lon": -87.6470867, "tags": {"addr:city": "Chicago", "addr:housenumber": "1322", "addr:postcode": "60607", "addr:state": "IL", "addr:street": "South Halsted Street", "amenity": "restaurant", "brand": "Steak 'n Shake", "brand:wikidata": "Q7605233", "brand:wikipedia": "en:Steak 'n Shake", "cuisine": "burger", "name": "Steak 'n Shake"}}, {"type": "node", "id": 6154694736, "lat": 41.8646558, "lon": -87.6460305, "tags": {"addr:city": "Chicago", "addr:housenumber": "733", "addr:postcode": "60607", "addr:state": "IL", "addr:street": "West Maxwell Street", "amenity": "restaurant", "cuisine": "mexican", "name": "Lalo's Mexican Restaurant"}}, {"type": "node", "id": 6154694737, "lat": 41.864662, "lon": -87.6459417, "tags": {"addr:city": "Chicago", "addr:housenumber": "731", "addr:postcode": "60607", "addr:state": "IL", "addr:street": "West Maxwell Street", "amenity": "restaurant", "name": "Hashbrowns"}}, {"type": "node", "id": 6154694738, "lat": 41.8646458, "lon": -87.6466877, "tags": {"addr:city": "Chicago", "addr:housenumber": "1325", "addr:postcode": "60607", "addr:state": "IL", "addr:street": "South Halsted Street", "amenity": "restaurant", "cuisine": "american", "name": "Bar Louie", "phone": "+1-312-733-1411", "website": "https://www.barlouie.com/locations/states/illinois/university-village"}}, {"type": "node", "id": 6154694739, "lat": 41.8649554, "lon": -87.6466927, "tags": {"addr:city": "Chicago", "addr:housenumber": "1315", "addr:postcode": "60607", "addr:state": "IL", "addr:street": "South Halsted Street", "amenity": "restaurant", "name": "Bracket Room", "phone": "+1 (312) 226-8010", "smoking": "no", "website": "http://bracketroomchicago.com"}}, {"type": "node", "id": 6154694740, "lat": 41.8642637, "lon": -87.6466961, "tags": {"addr:city": "Chicago", "addr:housenumber": "1339", "addr:postcode": "60607", "addr:state": "IL", "addr:street": "South Halsted Street", "amenity": "restaurant", "cuisine": "pizza", "name": "Rostati's Pizza"}}, {"type": "node", "id": 6154694741, "lat": 41.8649318, "lon": -87.6462715, "tags": {"addr:city": "Chicago", "addr:housenumber": "730", "addr:postcode": "60607", "addr:state": "IL", "addr:street": "West Maxwell Street", "amenity": "restaurant", "cuisine": "japanese", "name": "Kohan Japanese Restaurant", "phone": "+1 (312) 421-6254", "website": "http://kohanchicago.com"}}, {"type": "node", "id": 6268992795, "lat": 41.8536584, "lon": -87.6349663, "tags": {"addr:city": "Chicago", "addr:housenumber": "2163", "addr:postcode": "60616", "addr:state": "IL", "addr:street": "South China Place", "amenity": "restaurant", "name": "Bonchon - Chinatown Chicago", "phone": "+1-312-877-5832", "website": "https://bonchontogo.com/"}}, {"type": "node", "id": 6282561364, "lat": 41.8513723, "lon": -87.6318549, "tags": {"addr:city": "Chicago", "addr:country": "US", "addr:housenumber": "2253", "addr:postcode": "60616", "addr:state": "IL", "addr:street": "South Wentworth Avenue", "amenity": "restaurant", "name": "Chiu Quon Bakery and Dim Sum", "phone": "+1-312-808-1818", "website": "http://www.cqbakery.com/"}}, {"type": "node", "id": 6284354686, "lat": 41.8532108, "lon": -87.6462872, "tags": {"addr:city": "Chicago", "addr:housenumber": "2133", "addr:postcode": "60608", "addr:state": "IL", "addr:street": "South Halsted Street", "amenity": "bar", "name": "Del Toro", "phone": "+1-312-733-7144", "website": "http://deltorochicago.com/"}}, {"type": "node", "id": 6284701969, "lat": 41.8525597, "lon": -87.6360949, "tags": {"addr:city": "Chicago", "addr:housenumber": "2222", "addr:postcode": "60616", "addr:state": "IL", "addr:street": "South Archer Avenue", "amenity": "restaurant", "name": "Dolo Restaurant and Bar", "phone": "+1-312-877-5117", "website": "http://www.dolorestaurant.com/"}}, {"type": "node", "id": 6286461855, "lat": 41.8551173, "lon": -87.6320961, "tags": {"addr:city": "Chicago", "addr:housenumber": "2002", "addr:postcode": "60616", "addr:state": "IL", "addr:street": "South Wentworth Avenue", "amenity": "cafe", "name": "Elitea", "phone": "+1-312-468-9909", "website": "https://elitea.business.site/"}}, {"type": "node", "id": 6291666015, "lat": 41.8646039, "lon": -87.6457656, "tags": {"addr:city": "Chicago", "addr:housenumber": "717", "addr:postcode": "60607", "addr:state": "IL", "addr:street": "West Maxwell Street", "amenity": "restaurant", "name": "Galata Turkish Restaurant", "phone": "+1-312-733-5900", "website": "http://www.galatainchicago.com/"}}, {"type": "node", "id": 6291886315, "lat": 41.8510926, "lon": -87.6325921, "tags": {"addr:city": "Chicago", "addr:housenumber": "212", "addr:postcode": "60616", "addr:state": "IL", "addr:street": "West 23rd Street", "amenity": "restaurant", "name": "Go 4 Food", "phone": "+1-312-842-8688", "website": "https://www.go4foodusa.com/"}}, {"type": "node", "id": 6294285574, "lat": 41.8550842, "lon": -87.6320986, "tags": {"addr:city": "Chicago", "addr:housenumber": "2002", "addr:postcode": "60616", "addr:state": "IL", "addr:street": "South Wentworth Avenue", "amenity": "restaurant", "name": "Hello Jasmine"}}, {"type": "node", "id": 6297526820, "lat": 41.8531462, "lon": -87.6331597, "tags": {"addr:city": "Chicago", "addr:housenumber": "234", "addr:postcode": "60616", "addr:state": "IL", "addr:street": "West Cermak Road", "amenity": "bar", "name": "Sakura Karaoke Bar", "phone": "+1-312-326-9168", "website": "https://www.sakurakaraokebar.com/"}}, {"type": "node", "id": 6300411588, "lat": 41.8656037, "lon": -87.6465694, "tags": {"addr:city": "Chicago", "addr:housenumber": "1257", "addr:postcode": "60607", "addr:state": "IL", "addr:street": "South Halsted Street", "amenity": "bar", "name": "Ph.D Pub", "phone": "+1-312-226-1010", "website": "http://phdpubchicago.com/"}}, {"type": "node", "id": 6300420956, "lat": 41.8531267, "lon": -87.6330669, "tags": {"addr:city": "Chicago", "addr:housenumber": "232", "addr:postcode": "60616", "addr:state": "IL", "addr:street": "West Cermak Road", "amenity": "restaurant", "name": "Pho Cafe", "phone": "+1-312-600-9636", "website": "http://www.phocafechicago.com/"}}, {"type": "node", "id": 6314865975, "lat": 41.8578705, "lon": -87.6427525, "tags": {"addr:city": "Chicago", "addr:housenumber": "618", "addr:postcode": "60616", "addr:state": "IL", "addr:street": "West 18th Street", "amenity": "bar", "name": "Jack\u2019s Place"}}, {"type": "node", "id": 6316579162, "lat": 41.8664885, "lon": -87.6472171, "tags": {"addr:city": "Chicago", "addr:housenumber": "1218", "addr:postcode": "60607", "addr:state": "IL", "addr:street": "South Halsted Street", "amenity": "cafe", "name": "Village Cafe", "phone": "+1-312-433-0123"}}, {"type": "node", "id": 6316993588, "lat": 41.852777, "lon": -87.6526641, "tags": {"addr:city": "Chicago", "addr:housenumber": "2155", "addr:postcode": "60608", "addr:state": "IL", "addr:street": "South Carpenter Street", "amenity": "cafe", "name": "Workwell Food and Beverage", "phone": "+1-844-245-4964", "website": "http://dockspace.co/"}}, {"type": "node", "id": 6317101571, "lat": 41.8582313, "lon": -87.6472729, "tags": {"addr:city": "Chicago", "addr:housenumber": "814", "addr:postcode": "60608", "addr:state": "IL", "addr:street": "West 18th Street", "amenity": "restaurant", "name": "Yvolina\u2019s Tamales", "phone": "+1-312-731-3167", "website": "http://www.yvolinas.com/"}}, {"type": "node", "id": 6319021010, "lat": 41.8540741, "lon": -87.6338755, "tags": {"addr:city": "Chicago", "addr:housenumber": "2139", "addr:postcode": "60616", "addr:state": "IL", "addr:street": "South China Place", "amenity": "restaurant", "name": "Joy Yee Noodle", "phone": "+1-312-328-0001", "website": "http://joyyee.com/"}}, {"type": "node", "id": 6319847128, "lat": 41.8543478, "lon": -87.6328364, "tags": {"addr:city": "Chicago", "addr:housenumber": "2126B", "addr:postcode": "60616", "addr:state": "IL", "addr:street": "South Archer Avenue", "amenity": "cafe", "name": "Kung Fu Tea", "opening_hours": "Mo-Th 11:00-20:00; Fr 11:00-21:00; Sa 10:00-21:00; Su 10:00-20:00", "phone": "+1-312-255-7331", "website": "https://www.kungfutea.com/"}}, {"type": "node", "id": 6319920888, "lat": 41.8579154, "lon": -87.6517987, "tags": {"addr:city": "Chicago", "addr:housenumber": "1011", "addr:postcode": "60608", "addr:state": "IL", "addr:street": "West 18th Street", "amenity": "cafe", "name": "La Catrina Cafe", "phone": "+1-312-532-6817", "website": "https://www.lacatrinacafe.com/", "wheelchair": "no"}}, {"type": "node", "id": 6320260910, "lat": 41.8551501, "lon": -87.6321639, "tags": {"addr:city": "Chicago", "addr:housenumber": "2002", "addr:postcode": "60616", "addr:state": "IL", "addr:street": "South Wentworth Avenue", "amenity": "restaurant", "name": "Qing Xiang Yuan Dumplings", "phone": "+1-312-799-1118", "website": "http://qxydumplings.com/"}}, {"type": "node", "id": 6320629339, "lat": 41.8646017, "lon": -87.6459545, "tags": {"addr:city": "Chicago", "addr:housenumber": "719", "addr:postcode": "60607", "addr:state": "IL", "addr:street": "West Maxwell Street", "amenity": "restaurant", "name": "Lotus Cafe & B\u00e1nh M\u00ec Sandwiches", "phone": "+1-312-733-7595", "website": "http://www.lotusbanhmi.com/"}}, {"type": "node", "id": 6321621334, "lat": 41.8538972, "lon": -87.63369, "tags": {"addr:city": "Chicago", "addr:housenumber": "2138", "addr:postcode": "60616", "addr:state": "IL", "addr:street": "South Archer Avenue", "amenity": "restaurant", "cuisine": "chinese", "name": "MCCB Chicago", "opening_hours": "Su-Th 11:00-22:00, Fr-Sa 11:00-23:00", "phone": "+1-312-881-0168", "website": "https://www.mccbchicago.com/"}}, {"type": "node", "id": 6321803160, "lat": 41.8537554, "lon": -87.6346426, "tags": {"addr:city": "Chicago", "addr:housenumber": "2157", "addr:postcode": "60616", "addr:state": "Il", "addr:street": "South China Place", "amenity": "cafe", "name": "Saint\u2019s Alp Teahouse & Gourmet", "phone": "+1-312-842-8882", "website": "https://www.saintsalpchicago.com/"}}, {"type": "node", "id": 6321934498, "lat": 41.8551095, "lon": -87.6321741, "tags": {"addr:city": "Chicago", "addr:housenumber": "2002", "addr:postcode": "60616", "addr:state": "IL", "addr:street": "South Wentworth Avenue", "amenity": "restaurant", "name": "Shan Shaan Taste", "phone": "+1-312-375-3122", "website": "http://www.shanshaantaste.com/"}}, {"type": "node", "id": 6324385413, "lat": 41.8533254, "lon": -87.635011, "tags": {"addr:city": "Chicago", "addr:housenumber": "2172", "addr:postcode": "60616", "addr:state": "IL", "addr:street": "South Princeton Avenue", "amenity": "restaurant", "name": "Lao Sze Chuan", "phone": "+1-312-326-5040"}}, {"type": "node", "id": 6326147995, "lat": 41.8526331, "lon": -87.63174, "tags": {"addr:city": "Chicago", "addr:housenumber": "2201", "addr:postcode": "60616", "addr:state": "IL", "addr:street": "South Wentworth Avenue", "addr:unit": "2", "amenity": "bar", "name": "No.18 Karaoke", "phone": "+1-312-600-9184"}}, {"type": "node", "id": 6327327346, "lat": 41.8674136, "lon": -87.6427193, "tags": {"addr:city": "Chicago", "addr:housenumber": "610", "addr:postcode": "60607", "addr:state": "IL", "addr:street": "West Roosevelt Road", "amenity": "restaurant", "name": "Zaki Mediterranean Grill"}}, {"type": "node", "id": 6366358671, "lat": 41.8741382, "lon": -87.6463662}, {"type": "node", "id": 6366358672, "lat": 41.8742256, "lon": -87.6464115}, {"type": "node", "id": 6366358673, "lat": 41.8742109, "lon": -87.6467369}, {"type": "node", "id": 6663059208, "lat": 41.8546307, "lon": -87.6324354, "tags": {"amenity": "restaurant", "cuisine": "chinese;cantonese;dim_sum", "level": "1", "name": "Cai Restaurant", "opening_hours": "Mo-Fr 09:00-23:00; Sa,Su 08:00-23:00", "phone": "+1-312-326-6888", "website": "http://www.cairestaurant.com/"}}, {"type": "node", "id": 6663059209, "lat": 41.8545887, "lon": -87.6325113, "tags": {"addr:city": "Chicago", "addr:housenumber": "2225", "addr:postcode": "60616", "addr:state": "IL", "addr:street": "South Wentworth Avenue", "amenity": "restaurant", "cuisine": "chinese", "level": "0", "name": "Mayflower Food Inc", "opening_hours": "11:00-01:30", "phone": "+1-312-808-1322", "website": "http://www.mayflowerchinesechicago.com/"}}, {"type": "node", "id": 6663274072, "lat": 41.8536791, "lon": -87.634181, "tags": {"amenity": "restaurant", "cuisine": "bubble_tea", "name": "Bingo Tea", "opening_hours": "Mo Th 12:00-23:00, Fr,Su 11:00-00:30", "phone": "+1-312-328-6668"}}, {"type": "node", "id": 6723254310, "lat": 41.8505912, "lon": -87.6321124, "tags": {"addr:city": "Chicago", "addr:country": "US", "addr:housenumber": "2312", "addr:postcode": "60616", "addr:state": "IL", "addr:street": "South Wentworth Avenue", "amenity": "restaurant", "name": "Seven Treasures Restaurant"}}, {"type": "node", "id": 6779167975, "lat": 41.8749225, "lon": -87.6472949}, {"type": "node", "id": 7282826587, "lat": 41.8751891, "lon": -87.6495149}, {"type": "node", "id": 7282892857, "lat": 41.8751919, "lon": -87.6496031}, {"type": "node", "id": 7509422947, "lat": 41.8753099, "lon": -87.6545869}, {"type": "node", "id": 7511858556, "lat": 41.8641966, "lon": -87.6467374}, {"type": "node", "id": 7511858557, "lat": 41.86477, "lon": -87.6450968}, {"type": "node", "id": 7615474068, "lat": 41.8750061, "lon": -87.647513}, {"type": "way", "id": 210538091, "nodes": [2206208373, 2206208377, 2206208314, 2206208310, 2206208308, 2206208372, 2206208373], "tags": {"addr:city": "Chicago", "addr:housenumber": "2242", "addr:postcode": "60616", "addr:state": "IL", "addr:street": "South Wentworth Avenue", "addr:street:name": "Wentworth", "addr:street:prefix": "South", "addr:street:type": "Avenue", "amenity": "restaurant", "building": "yes", "building:levels": "1", "chicago:building_id": "870623", "name": "Legend Tasty House", "phone": "+1-312-225-8869", "website": "http://www.legendtastyhouse.com/"}}, {"type": "way", "id": 210541840, "nodes": [2206241002, 2206241005, 5913542435, 2206241006, 2206241008, 2206241007, 2206240989, 2206240990, 2206241002], "tags": {"addr:city": "Chicago", "addr:housenumber": "1159", "addr:postcode": "60607", "addr:street": "South Canal Street", "addr:street:name": "Canal", "addr:street:prefix": "South", "addr:street:type": "Street", "amenity": "restaurant", "building": "yes", "chicago:building_id": "834523", "cuisine": "diner", "name": "White Palace Grill"}}, {"type": "way", "id": 210649421, "nodes": [624842102, 624842100, 1324310267, 1564610532, 1567935487, 1564610597, 1563768183, 1563768280, 1567935483, 1567935392, 1567935613, 1567935437, 1567935428, 1567935598, 1567935379, 1567935611, 1643970061, 1324339868, 4226924443, 1309521523, 1309521533, 5632908777, 1309521528, 1309310753, 1309310795, 1309310786, 1645208835, 1309310830, 1645121278, 1645121508, 1309310769, 1645121392, 1309310772, 1309310781, 1309310834, 1309310791, 1645121523, 2412572932, 2412572912, 1308245862, 2207262135, 2207262136, 2207262255, 5632900499, 7509422947, 2207261995, 2207262259, 2207262178, 2207262112, 5632900492, 1640078314, 7282892857, 7282826587, 1640078316, 1640078326, 1640078310, 1640078325, 1640078305, 7615474068, 6779167975, 1640078309, 1640078313, 1846853878, 1846853875, 6366358673, 6366358672, 6366358671, 1643970081, 1643970052, 1643970072, 1846853872, 1645164035, 2397026625, 1655435366, 258030969, 258030970, 1655435361, 258030971, 258030972, 1655435355, 1655435357, 1655435354, 256618510, 7511858557, 2242858400, 2242858434, 7511858556, 2207262137, 2207262066, 2207262133, 624842118, 624842116, 624842113, 624842102], "tags": {"alt_name": "UIC", "amenity": "university", "education": "university", "ele": "181", "gnis:county_id": "031", "gnis:created": "05/03/1999", "gnis:feature_id": "1837071", "gnis:state_id": "17", "name": "University of Illinois at Chicago", "wikidata": "Q955764", "wikipedia": "en:University of Illinois at Chicago"}}]}