{"version": 0.6, "generator": "Overpass API 0.7.56.3 eb200aeb", "osm3s": {"timestamp_osm_base": "2020-07-04T04:48:02Z", "copyright": "The data included in this document is from www.openstreetmap.org. The data is made available under ODbL."}, "elements": [{"type": "node", "id": 1924565982, "lat": 41.7966977, "lon": -87.5996599}, {"type": "node", "id": 1924566154, "lat": 41.7954267, "lon": -87.5996308}, {"type": "node", "id": 1925417584, "lat": 41.7966019, "lon": -87.5981729}, {"type": "node", "id": 1925417585, "lat": 41.7954409, "lon": -87.5981418}, {"type": "node", "id": 2269174583, "lat": 41.7965929, "lon": -87.5988896}, {"type": "node", "id": 2269174586, "lat": 41.7967123, "lon": -87.5988965}, {"type": "node", "id": 2269174589, "lat": 41.796076, "lon": -87.5981588}, {"type": "node", "id": 6282277094, "lat": 41.8099623, "lon": -87.5996723, "tags": {"addr:city": "Chicago", "addr:housenumber": "1060", "addr:postcode": "60653", "addr:state": "IL", "addr:street": "East 47th Street", "addr:unit": "FL 1", "amenity": "cafe", "name": "Carver 47 Cafe", "phone": "+1-773-285-1211", "website": "https://littleblackpearl.squarespace.com/carver-47/"}}, {"type": "node", "id": 6300738093, "lat": 41.8095528, "lon": -87.6159933, "tags": {"addr:city": "Chicago", "addr:housenumber": "4655", "addr:postcode": "60653", "addr:state": "IL", "addr:street": "South Doctor Martin Luther King Junior Drive", "amenity": "cafe", "name": "Spoken Word Cafe", "outdoor_seating": "yes", "phone": "+1-773-373-2233"}}, {"type": "node", "id": 6301077864, "lat": 41.8099311, "lon": -87.6161107, "tags": {"addr:city": "Chicago", "addr:housenumber": "464", "addr:postcode": "60653", "addr:state": "IL", "addr:street": "South Doctor Martin Luther King Junior Drive", "amenity": "bar", "name": "Renaissance Bronzeville", "phone": "+1-773-690-5416", "website": "http://www.renaissancebronzeville.com/"}}, {"type": "way", "id": 182197318, "nodes": [1925417584, 2269174589, 1925417585, 1924566154, 1924565982, 2269174586, 2269174583, 1925417584], "tags": {"amenity": "university", "name": "Lutheran School of Theology", "wikidata": "Q6705732", "wikipedia": "en:Lutheran School of Theology at Chicago"}}]}