{"version": 0.6, "generator": "Overpass API 0.7.56.3 eb200aeb", "osm3s": {"timestamp_osm_base": "2020-07-04T02:33:02Z", "copyright": "The data included in this document is from www.openstreetmap.org. The data is made available under ODbL."}, "elements": [{"type": "node", "id": 34877713, "lat": 41.9117017, "lon": -87.6804428}, {"type": "node", "id": 463772264, "lat": 41.9217238, "lon": -87.6647779, "tags": {"addr:city": "Chicago", "addr:housenumber": "2200", "addr:postcode": "60614", "addr:state": "IL", "addr:street": "North Clybourn Avenue", "amenity": "cafe", "cuisine": "coffee_shop;american", "name": "CornerStone Cafe", "phone": "+1-773-270-4343", "website": "https://www.cornerstonecafechicago.com/"}}, {"type": "node", "id": 736035799, "lat": 41.9073321, "lon": -87.6737319}, {"type": "node", "id": 736035834, "lat": 41.910777, "lon": -87.6789671}, {"type": "node", "id": 736035835, "lat": 41.9105003, "lon": -87.6785423}, {"type": "node", "id": 736035836, "lat": 41.9103713, "lon": -87.6783655}, {"type": "node", "id": 736035837, "lat": 41.910279, "lon": -87.6782669}, {"type": "node", "id": 736035838, "lat": 41.9101991, "lon": -87.6781624}, {"type": "node", "id": 736035839, "lat": 41.9101331, "lon": -87.6780606}, {"type": "node", "id": 736035840, "lat": 41.9098778, "lon": -87.6776609, "tags": {"name": "Damen", "public_transport": "stop_position", "railway": "stop", "subway": "yes"}}, {"type": "node", "id": 736035841, "lat": 41.9092997, "lon": -87.6767619}, {"type": "node", "id": 736035842, "lat": 41.9077195, "lon": -87.6742936}, {"type": "node", "id": 1282296225, "lat": 41.9080662, "lon": -87.6747824}, {"type": "node", "id": 1282296257, "lat": 41.9126241, "lon": -87.6818499}, {"type": "node", "id": 1282296294, "lat": 41.9101887, "lon": -87.6780816}, {"type": "node", "id": 1282296296, "lat": 41.9108408, "lon": -87.6790096}, {"type": "node", "id": 1282296314, "lat": 41.9103498, "lon": -87.6782854}, {"type": "node", "id": 1282296316, "lat": 41.9073615, "lon": -87.6737116}, {"type": "node", "id": 1282296353, "lat": 41.9076841, "lon": -87.6741852}, {"type": "node", "id": 1282296370, "lat": 41.9104235, "lon": -87.6783703}, {"type": "node", "id": 1282296384, "lat": 41.9131622, "lon": -87.682601}, {"type": "node", "id": 1282296389, "lat": 41.9102919, "lon": -87.6782263}, {"type": "node", "id": 1282296418, "lat": 41.9093677, "lon": -87.6768128}, {"type": "node", "id": 1282296426, "lat": 41.9069209, "lon": -87.6730341}, {"type": "node", "id": 1282296436, "lat": 41.910242, "lon": -87.6781593}, {"type": "node", "id": 1585419572, "lat": 41.9212374, "lon": -87.67314, "tags": {"addr:city": "Chicago", "addr:housenumber": "1809", "addr:postcode": "60614", "addr:state": "IL", "addr:street": "West Webster Avenue", "amenity": "cafe", "cuisine": "coffee_shop", "name": "Little Beans", "phone": "+1-773-251-1025", "website": "https://littlebeanscafe.com/"}}, {"type": "node", "id": 1585420540, "lat": 41.9220517, "lon": -87.6734351, "tags": {"addr:housenumber": "2222", "addr:postcode": "60614", "addr:street": "North Elston Avenue", "amenity": "restaurant", "cuisine": "sandwich", "name": "The Goddess and Grocer", "website": "http://www.goddessandgrocer.com/elston.php"}}, {"type": "node", "id": 1585423403, "lat": 41.9212295, "lon": -87.6779251, "tags": {"addr:housenumber": "2158", "addr:street": "North Damen Avenue", "amenity": "cafe", "cuisine": "coffee_shop", "name": "Bucktown Beanery", "wifi": "free"}}, {"type": "node", "id": 1685093555, "lat": 41.9198795, "lon": -87.6804824, "tags": {"addr:city": "Chicago", "addr:housenumber": "2076", "addr:postcode": "60647", "addr:state": "IL", "addr:street": "North Hoyne Avenue", "amenity": "bar", "name": "Charleston", "phone": "+1-773-489-4757", "website": "https://www.charlestonchicago.com/"}}, {"type": "node", "id": 1699464559, "lat": 41.9178252, "lon": -87.6795216, "tags": {"amenity": "restaurant", "name": "Jack & Ginger's"}}, {"type": "node", "id": 1699464583, "lat": 41.9175667, "lon": -87.677763, "tags": {"addr:city": "Chicago", "addr:housenumber": "1958", "addr:postcode": "60647", "addr:state": "IL", "addr:street": "North Damen Avenue", "amenity": "restaurant", "cuisine": "french", "name": "Le Bouchon", "phone": "+1-773-862-6600", "website": "http://www.lebouchonofchicago.com/"}}, {"type": "node", "id": 1699464827, "lat": 41.9175758, "lon": -87.6802739, "tags": {"amenity": "cafe", "brand": "Starbucks", "brand:wikidata": "Q37158", "brand:wikipedia": "en:Starbucks", "cuisine": "coffee_shop", "name": "Starbucks", "takeaway": "yes"}}, {"type": "node", "id": 1888714216, "lat": 41.9103282, "lon": -87.6783226}, {"type": "node", "id": 1888714574, "lat": 41.910236, "lon": -87.6782116}, {"type": "node", "id": 1888714639, "lat": 41.9104235, "lon": -87.6784235}, {"type": "node", "id": 1888715009, "lat": 41.9103848, "lon": -87.6783263}, {"type": "node", "id": 2075147078, "lat": 41.9117225, "lon": -87.6803994}, {"type": "node", "id": 2090176575, "lat": 41.9096328, "lon": -87.6772433, "tags": {"name": "Damen", "network": "CTA", "operator": "Chicago Transit Authority", "public_transport": "stop_position", "railway": "stop", "subway": "yes"}}, {"type": "node", "id": 2166647858, "lat": 41.9137167, "lon": -87.6835347}, {"type": "node", "id": 2166647859, "lat": 41.9137443, "lon": -87.6835083}, {"type": "node", "id": 2200203181, "lat": 41.9112141, "lon": -87.6785791}, {"type": "node", "id": 2200203246, "lat": 41.9112404, "lon": -87.6786211}, {"type": "node", "id": 2200203589, "lat": 41.9113164, "lon": -87.6784605}, {"type": "node", "id": 2200204258, "lat": 41.9113781, "lon": -87.6784599}, {"type": "node", "id": 2200204292, "lat": 41.9113859, "lon": -87.678379}, {"type": "node", "id": 2200204442, "lat": 41.9114122, "lon": -87.678421}, {"type": "node", "id": 2200219542, "lat": 41.9136457, "lon": -87.6774098}, {"type": "node", "id": 2200219565, "lat": 41.9136529, "lon": -87.6769799}, {"type": "node", "id": 2200219709, "lat": 41.9137061, "lon": -87.677411}, {"type": "node", "id": 2200219736, "lat": 41.9137132, "lon": -87.6769811}, {"type": "node", "id": 2200226517, "lat": 41.9151977, "lon": -87.6779157}, {"type": "node", "id": 2200226541, "lat": 41.9152021, "lon": -87.6777246}, {"type": "node", "id": 2200226949, "lat": 41.9152554, "lon": -87.6779187}, {"type": "node", "id": 2200226977, "lat": 41.9152584, "lon": -87.6777258}, {"type": "node", "id": 2200230349, "lat": 41.9156231, "lon": -87.6762322}, {"type": "node", "id": 2200230367, "lat": 41.9156253, "lon": -87.6761477}, {"type": "node", "id": 2200231880, "lat": 41.9158522, "lon": -87.6762391}, {"type": "node", "id": 2200232041, "lat": 41.9158741, "lon": -87.6762168}, {"type": "node", "id": 2200232050, "lat": 41.9158751, "lon": -87.6761543}, {"type": "node", "id": 2200242724, "lat": 41.9182738, "lon": -87.682951}, {"type": "node", "id": 2200242734, "lat": 41.918279, "lon": -87.6826497}, {"type": "node", "id": 2200242950, "lat": 41.9183383, "lon": -87.6829522}, {"type": "node", "id": 2200243001, "lat": 41.9183448, "lon": -87.6826527}, {"type": "node", "id": 2200343250, "lat": 41.9257322, "lon": -87.668746}, {"type": "node", "id": 2200343251, "lat": 41.925733, "lon": -87.6686339}, {"type": "node", "id": 2200343272, "lat": 41.9257412, "lon": -87.6686338}, {"type": "node", "id": 2200343276, "lat": 41.925745, "lon": -87.6683509}, {"type": "node", "id": 2200343368, "lat": 41.9257995, "lon": -87.668749}, {"type": "node", "id": 2200343378, "lat": 41.925804, "lon": -87.6683521}, {"type": "node", "id": 2324557210, "lat": 41.9124475, "lon": -87.6749268, "tags": {"addr:housenumber": "1858", "addr:postcode": "60622", "addr:street": "West Wabansia Avenue", "amenity": "bar", "name": "Lincoln Tavern", "note": "Closed", "website": "http://lincolntavern.com/"}}, {"type": "node", "id": 2324557958, "lat": 41.9124814, "lon": -87.6737117, "tags": {"addr:city": "Chicago", "addr:housenumber": "1824", "addr:postcode": "60622", "addr:state": "IL", "addr:street": "West Wabansia Avenue", "amenity": "restaurant", "cuisine": "italian", "name": "Club Lucky", "phone": "+1-773-227-2300", "website": "https://www.clubluckychicago.com/"}}, {"type": "node", "id": 2366009390, "lat": 41.9159692, "lon": -87.6698518, "tags": {"addr:city": "Chicago", "addr:housenumber": "1653-1655", "addr:postcode": "60622", "addr:street": "West Cortland Street", "amenity": "restaurant", "cuisine": "american", "name": "Jane's Restaurant", "opening_hours": "Tu-Th 17:00-22:00; Fr 11:00-15:00; Fr 17:00-22:00; Sa-Su 08:00-22:00", "phone": "773-862-5263", "website": "http://janesrestaurant.com/"}}, {"type": "node", "id": 2671405828, "lat": 41.9175718, "lon": -87.680526, "tags": {"amenity": "restaurant", "cuisine": "cuban", "name": "Cafe Laguardia"}}, {"type": "node", "id": 3570207893, "lat": 41.9152965, "lon": -87.6777367, "tags": {"addr:city": "Chicago", "addr:housenumber": "1850", "addr:postcode": "60647", "addr:state": "IL", "addr:street": "North Damen Avenue", "amenity": "bar", "name": "Lemming\u2019s Tavern", "phone": "+1-773-862-1688", "website": "http://www.lemmingstavern.com/"}}, {"type": "node", "id": 3575496169, "lat": 41.9150958, "lon": -87.6777415, "tags": {"addr:city": "Chicago", "addr:housenumber": "1840", "addr:postcode": "60647", "addr:state": "IL", "addr:street": "North Damen Avenue", "amenity": "restaurant", "cuisine": "korean", "name": "En Hakkore", "phone": "+1-773-772-9880", "website": "http://www.enhakkorechicago.com/"}}, {"type": "node", "id": 3575496170, "lat": 41.9153652, "lon": -87.6777415, "tags": {"amenity": "restaurant", "cuisine": "pizza", "name": "Sarpino's"}}, {"type": "node", "id": 3575496171, "lat": 41.9176357, "lon": -87.6778131, "tags": {"addr:city": "Chicago", "addr:housenumber": "1960", "addr:postcode": "60647", "addr:state": "IL", "addr:street": "North Damen Avenue", "amenity": "restaurant", "cuisine": "japanese", "name": "Izakaya Mita", "phone": "+1-773-799-8677", "website": "http://www.izakayamita.com/"}}, {"type": "node", "id": 3575497026, "lat": 41.9137424, "lon": -87.6773235, "tags": {"amenity": "restaurant", "name": "Presidio"}}, {"type": "node", "id": 3581500506, "lat": 41.9162108, "lon": -87.6701232, "tags": {"addr:city": "Chicago", "addr:housenumber": "1658", "addr:postcode": "60622", "addr:state": "IL", "addr:street": "West Cortland Street", "amenity": "pub", "name": "Bucktown Pub", "phone": "+1-773- 394-9898", "website": "http://www.bucktownpub.com/"}}, {"type": "node", "id": 3581500507, "lat": 41.9162108, "lon": -87.6699784, "tags": {"amenity": "cafe", "name": "Riverside Cafe"}}, {"type": "node", "id": 3581500508, "lat": 41.9159633, "lon": -87.6695814, "tags": {"addr:city": "Chicago", "addr:housenumber": "1645", "addr:postcode": "60622", "addr:state": "IL", "addr:street": "West Cortland Street", "amenity": "pub", "name": "Cortland Garage", "phone": "+1-773-862-7877", "website": "https://www.cortlandsgarage.com/"}}, {"type": "node", "id": 3617756790, "lat": 41.921758, "lon": -87.6643563, "tags": {"amenity": "bar", "name": "The Drinkingbird"}}, {"type": "node", "id": 3660922643, "lat": 41.9252887, "lon": -87.6678214, "tags": {"amenity": "cafe", "name": "Nada Tea & Coffee"}}, {"type": "node", "id": 3660929434, "lat": 41.9249859, "lon": -87.6706571, "tags": {"addr:city": "Chicago", "addr:housenumber": "1665", "addr:street": "West Fullerton Avenue", "amenity": "bar", "name": "Liars Club", "opening_hours": "Su-Fr 20:00-04:00; Sa 20:00-03:00", "phone": "+1-773-665-1110"}}, {"type": "node", "id": 3791781401, "lat": 41.9212458, "lon": -87.6745362}, {"type": "node", "id": 3791781402, "lat": 41.9212687, "lon": -87.6745054}, {"type": "node", "id": 3791781403, "lat": 41.9213604, "lon": -87.6745054}, {"type": "node", "id": 3791781404, "lat": 41.9213833, "lon": -87.6735657}, {"type": "node", "id": 3791781405, "lat": 41.9209615, "lon": -87.6735626}, {"type": "node", "id": 3791781406, "lat": 41.9209615, "lon": -87.6736334}, {"type": "node", "id": 3791781407, "lat": 41.9209088, "lon": -87.6736797}, {"type": "node", "id": 3791781408, "lat": 41.9208881, "lon": -87.6736396}, {"type": "node", "id": 3791781409, "lat": 41.9207941, "lon": -87.6737351}, {"type": "node", "id": 3863476802, "lat": 41.9215071, "lon": -87.6788359, "tags": {"addr:city": "Chicago", "addr:housenumber": "2026", "addr:postcode": "60647", "addr:state": "IL", "addr:street": "West Webster Avenue", "amenity": "bar", "name": "Burke\u2019s Web Pub", "phone": "+1-773-276-3411"}}, {"type": "node", "id": 3863476803, "lat": 41.9220332, "lon": -87.6828391, "tags": {"addr:city": "Chicago", "addr:housenumber": "2224", "addr:postcode": "60647", "addr:state": "IL", "addr:street": "North Leavitt Street", "amenity": "bar", "name": "The Corner Bar", "website": "http://cornerbarchicago.com/"}}, {"type": "node", "id": 3883912233, "lat": 41.9219437, "lon": -87.664624, "tags": {"amenity": "restaurant", "cuisine": "italian", "name": "Filippos Ristorante"}}, {"type": "node", "id": 3883912234, "lat": 41.9217988, "lon": -87.6644169, "tags": {"amenity": "restaurant", "cuisine": "thai", "name": "Rice Cafe"}}, {"type": "node", "id": 5025496847, "lat": 41.9144268, "lon": -87.6832788, "tags": {"addr:city": "Chicago", "addr:housenumber": "1813", "addr:postcode": "60647", "addr:state": "IL", "addr:street": "North Milwaukee Avenue", "amenity": "cafe", "cuisine": "coffee_shop", "name": "Ipsento 606", "phone": "+1-872-206-8697", "website": "http://ipsento.com/"}}, {"type": "node", "id": 5092756819, "lat": 41.925504, "lon": -87.6723414, "tags": {"amenity": "cafe", "brand": "Starbucks", "brand:wikidata": "Q37158", "brand:wikipedia": "en:Starbucks", "cuisine": "coffee_shop", "name": "Starbucks", "official_name": "Starbucks Coffee", "takeaway": "yes"}}, {"type": "node", "id": 5597509423, "lat": 41.9131516, "lon": -87.6819688, "tags": {"addr:city": "Chicago", "addr:housenumber": "1750", "addr:postcode": "606476", "addr:state": "IL", "addr:street": "North Milwaukee Avenue", "amenity": "bar", "name": "The Royal Palms Shuffleboard Club", "name:en": "Royal Palms Shuffleboard Club", "phone": "+1-773-486-8682", "website": "https://www.royalpalmschicago.com/"}}, {"type": "node", "id": 5618026461, "lat": 41.9169557, "lon": -87.664928, "tags": {"addr:city": "Chicago", "addr:housenumber": "1438", "addr:postcode": "60614", "addr:state": "IL", "addr:street": "West Cortland Street", "amenity": "restaurant", "name": "Interurban Boathouse", "opening_hours": "Mo-Th 08:00-21:00; Fr,Sa 08:00-22:00; Su 08:00-15:00", "phone": "+1-773-698-7739", "website": "https://interurbanchicago.com/"}}, {"type": "node", "id": 6258328991, "lat": 41.9169917, "lon": -87.6774345, "tags": {"addr:city": "Chicago", "addr:housenumber": "1935", "addr:postcode": "60647", "addr:state": "IL", "addr:street": "North Damen Avenue", "amenity": "restaurant", "name": "6 Degrees", "phone": "+1-773-904-8812", "website": "https://www.6degreesbucktown.com/"}}, {"type": "node", "id": 6265680688, "lat": 41.9217939, "lon": -87.6643172, "tags": {"addr:city": "Chicago", "addr:housenumber": "2201", "addr:postcode": "60614", "addr:state": "IL", "addr:street": "North Clybourn Avenue", "amenity": "restaurant", "name": "Beck\u2019s Chicago", "phone": "+1-773-661-1573", "website": "https://beckschicago.com/"}}, {"type": "node", "id": 6270078272, "lat": 41.9253339, "lon": -87.6667824, "tags": {"addr:city": "Chicago", "addr:housenumber": "1524", "addr:postcode": "60614", "addr:state": "IL", "addr:street": "West Fullerton Avenue", "amenity": "restaurant", "name": "Cairo Kebab", "phone": "+1-773-687-8413"}}, {"type": "node", "id": 6282647776, "lat": 41.925444, "lon": -87.6792724, "tags": {"addr:city": "Chicago", "addr:housenumber": "2444", "addr:postcode": "60647", "addr:state": "IL", "addr:street": "North Elston Avenue", "amenity": "cafe", "name": "Chromium", "phone": "+1-773-235-2300", "website": "https://www.midtown.com/chicago"}}, {"type": "node", "id": 6283090050, "lat": 41.9189969, "lon": -87.6773565, "tags": {"addr:city": "Chicago", "addr:housenumber": "2045", "addr:postcode": "60647", "addr:state": "IL", "addr:street": "North Damen Avenue", "amenity": "restaurant", "name": "Coast Sushi Bar", "phone": "+1-773-235-5775", "website": "http://www.coastsushi.net/"}}, {"type": "node", "id": 6284097746, "lat": 41.9194305, "lon": -87.6772409, "tags": {"addr:city": "Chicago", "addr:housenumber": "1951", "addr:postcode": "60647", "addr:state": "IL", "addr:street": "West Dickens Avenue", "amenity": "bar", "name": "Danny\u2019s Tavern", "phone": "+1-773-489-6457"}}, {"type": "node", "id": 6284308831, "lat": 41.9117562, "lon": -87.6773347, "tags": {"addr:city": "Chicago", "addr:housenumber": "1645A", "addr:postcode": "60647", "addr:state": "IL", "addr:street": "North Damen Avenue", "addr:unit": "2", "amenity": "cafe", "name": "DAVIDsTEA", "phone": "+1-773-697-9737", "website": "https://www.davidstea.com/us_en/home/"}}, {"type": "node", "id": 6284426181, "lat": 41.9217431, "lon": -87.6651378, "tags": {"addr:city": "Chicago", "addr:housenumber": "1450", "addr:postcode": "60614", "addr:state": "IL", "addr:street": "West Webster Avenue", "amenity": "restaurant", "name": "Devour 312", "phone": "+1-773-360-7312", "website": "https://www.devour312.com/"}}, {"type": "node", "id": 6284478880, "lat": 41.921811, "lon": -87.666291, "tags": {"addr:city": "Chicago", "addr:housenumber": "1480", "addr:postcode": "60614", "addr:state": "IL", "addr:street": "West Webster Avenue", "amenity": "bar", "name": "Distilled Chicago", "phone": "+1-773-770-3703", "website": "http://distilledchicago.com/"}}, {"type": "node", "id": 6285013873, "lat": 41.9179598, "lon": -87.6789791, "tags": {"addr:city": "Chicago", "addr:housenumber": "2032", "addr:postcode": "60647", "addr:state": "IL", "addr:street": "West Armitage Avenue", "amenity": "bar", "name": "Ed and Jean\u2019s Tavern", "phone": "+1-773-851-8054", "website": "http://www.edandjeanstavern.com/"}}, {"type": "node", "id": 6291799872, "lat": 41.9179762, "lon": -87.6773811, "tags": {"addr:city": "Chicago", "addr:housenumber": "1954", "addr:postcode": "60622", "addr:state": "IL", "addr:street": "West Armitage Avenue", "amenity": "bar", "name": "Gigi\u2019s Kitchen", "phone": "+1-773-799-8290", "website": "https://www.gigischicago.com/"}}, {"type": "node", "id": 6291896890, "lat": 41.9119269, "lon": -87.6772749, "tags": {"addr:city": "Chicago", "addr:housenumber": "1649", "addr:postcode": "60647", "addr:state": "IL", "addr:street": "North Damen Avenue", "amenity": "restaurant", "name": "Goddess and Grocer", "phone": "+1-773-342-3200", "website": "http://goddessandgrocer.com/"}}, {"type": "node", "id": 6297644135, "lat": 41.9250705, "lon": -87.6650212, "tags": {"addr:city": "Chicago", "addr:housenumber": "1443", "addr:postcode": "60614", "addr:state": "IL", "addr:street": "West Fullerton Avenue", "amenity": "restaurant", "name": "Jumbo Crab"}}, {"type": "node", "id": 6300393195, "lat": 41.9219536, "lon": -87.6643402, "tags": {"addr:city": "Chicago", "addr:housenumber": "2207", "addr:postcode": "60614", "addr:state": "IL", "addr:street": "North Clybourn Avenue", "amenity": "restaurant", "cuisine": "pizza", "name": "Pequod\u2019s Pizzeria", "outdoor_seating": "yes", "phone": "+1-773-327-1512", "website": "https://pequodspizza.com"}}, {"type": "node", "id": 6300965222, "lat": 41.920137, "lon": -87.6779363, "tags": {"addr:city": "Chicago", "addr:housenumber": "2118", "addr:postcode": "60647", "addr:state": "IL", "addr:street": "North Damen Avenue", "amenity": "restaurant", "name": "The Royal Grocer & Co", "phone": "+1-773-904-7805", "website": "http://www.royalgrocer.com/"}}, {"type": "node", "id": 6306494893, "lat": 41.9210516, "lon": -87.6779871, "tags": {"addr:city": "Chicago", "addr:housenumber": "2152", "addr:postcode": "60647", "addr:state": "IL", "addr:street": "North Damen Avenue", "amenity": "restaurant", "name": "The Bristol", "phone": "+1-773-862-5555", "website": "http://www.thebristolchicago.com/"}}, {"type": "node", "id": 6306657812, "lat": 41.9124463, "lon": -87.6777172, "tags": {"addr:city": "Chicago", "addr:housenumber": "1700", "addr:postcode": "60647", "addr:state": "IL", "addr:street": "North Damen Avenue", "amenity": "restaurant", "name": "Tricycle Chicago", "phone": "+1-773-697-9275", "website": "https://www.tricyclechicago.com/"}}, {"type": "node", "id": 6315663847, "lat": 41.917591, "lon": -87.6798155, "tags": {"addr:city": "Chicago", "addr:housenumber": "1949", "addr:postcode": "60647", "addr:state": "IL", "addr:street": "North Hoyne Avenue", "amenity": "bar", "name": "The Map Room", "phone": "+1-773-252-7636", "website": "http://www.maproom.com/"}}, {"type": "node", "id": 6316843887, "lat": 41.9220253, "lon": -87.6645086, "tags": {"addr:city": "Chicago", "addr:housenumber": "2211", "addr:postcode": "60614", "addr:state": "IL", "addr:street": "North Clybourn Avenue", "amenity": "bar", "name": "Whale Tale", "phone": "+1-773-528-2211", "website": "https://www.whaletalechicago.com/"}}, {"type": "node", "id": 6317085920, "lat": 41.9136888, "lon": -87.6820343, "tags": {"addr:city": "Chicago", "addr:housenumber": "1767", "addr:postcode": "60647", "addr:state": "IL", "addr:street": "North Milwaukee Avenue", "amenity": "restaurant", "name": "Yolk Test Kitchen - Bucktown", "phone": "(312) 348-1333", "website": "https://www.eatyolk.com/"}}, {"type": "node", "id": 6319024840, "lat": 41.9161269, "lon": -87.6778008, "tags": {"addr:city": "Chicago", "addr:housenumber": "1880", "addr:postcode": "60647", "addr:state": "IL", "addr:street": "North Damen Avenue", "amenity": "restaurant", "name": "JuiceRx", "phone": "+1-312-252-4938", "website": "https://drinkjuicerx.com/"}}, {"type": "node", "id": 6319245707, "lat": 41.9218751, "lon": -87.665271, "tags": {"addr:city": "Chicago", "addr:housenumber": "2212", "addr:postcode": "60614", "addr:state": "IL", "addr:street": "North Clybourn Avenue", "amenity": "bar", "name": "Kibbitznest Books, Brews & Blarney", "phone": "+1-773-360-7591", "website": "http://www.kibbitznest.com/"}}, {"type": "node", "id": 6320623852, "lat": 41.9157481, "lon": -87.6761961, "tags": {"addr:city": "Chicago", "addr:housenumber": "1925", "addr:postcode": "60647", "addr:state": "IL", "addr:street": "West Cortland Street", "amenity": "bar", "name": "Lottie\u2019s Pub", "phone": "+1-773-489-0738", "website": "http://www.lottiespub.com/"}}, {"type": "node", "id": 6321781325, "lat": 41.9162275, "lon": -87.6737745, "tags": {"addr:city": "Chicago", "addr:housenumber": "1824", "addr:postcode": "60647", "addr:state": "IL", "addr:street": "West Cortland Street", "amenity": "bar", "name": "Rory Lake\u2019s Karaoke Dreams", "phone": "+1-773-278-0093", "website": "http://www.rorylakepresents.com/"}}, {"type": "node", "id": 6321986649, "lat": 41.912826, "lon": -87.681489, "tags": {"addr:city": "Chicago", "addr:housenumber": "1732", "addr:postcode": "60647", "addr:state": "Il", "addr:street": "North Milwaukee Avenue", "amenity": "restaurant", "name": "Small Cheval", "website": "http://smallcheval.com/"}}, {"type": "node", "id": 6325945247, "lat": 41.9207648, "lon": -87.6691269, "tags": {"addr:city": "Chicago", "addr:housenumber": "2112", "addr:postcode": "60614", "addr:state": "IL", "addr:street": "North Ashland Avenue", "amenity": "cafe", "name": "Vero Coffee & Gelato", "phone": "+1-773-342-6585", "website": "https://verocoffeeandgelato.com/"}}, {"type": "node", "id": 7411640772, "lat": 41.9212534, "lon": -87.6731346, "tags": {"amenity": "cafe", "name": "Little Beans Cafe & Playspace"}}, {"type": "way", "id": 206629205, "nodes": [1282296426, 1282296316, 1282296353, 1282296225, 1282296418, 2090176575, 1282296294, 1282296436, 1282296389, 1282296314, 1888715009, 1282296370, 1282296296, 2075147078, 1282296384, 2166647859], "tags": {"bridge": "yes", "electrified": "rail", "frequency": "0", "gauge": "1435", "name": "O'Hare Branch", "oneway": "yes", "operator": "Chicago Transit Authority", "railway": "subway", "voltage": "600"}}, {"type": "way", "id": 206629206, "nodes": [2166647858, 1282296257, 34877713, 736035834, 736035835, 1888714639, 736035836, 1888714216, 736035837, 1888714574, 736035838, 736035839, 736035840, 736035841, 736035842, 736035799], "tags": {"bridge": "yes", "electrified": "rail", "frequency": "0", "gauge": "1435", "layer": "2", "name": "O'Hare Branch", "old_name": "Logan Square Branch", "oneway": "yes", "operator": "Chicago Transit Authority", "railway": "subway", "voltage": "600"}}, {"type": "way", "id": 209865630, "nodes": [2200203181, 2200203246, 2200204258, 2200204442, 2200204292, 2200203589, 2200203181], "tags": {"addr:housenumber": "1639", "addr:street": "North Milwaukee Avenue", "addr:street:name": "Milwaukee", "addr:street:prefix": "North", "addr:street:type": "Avenue", "amenity": "restaurant", "brand": "Wingstop", "brand:wikidata": "Q8025339", "brand:wikipedia": "en:Wingstop", "building": "yes", "chicago:building_id": "302761", "cuisine": "wings", "name": "Wingstop"}}, {"type": "way", "id": 209866943, "nodes": [2200219542, 2200219709, 2200219736, 2200219565, 2200219542], "tags": {"addr:city": "Chicago", "addr:housenumber": "1747", "addr:postcode": "60647", "addr:state": "IL", "addr:street": "North Damen Avenue", "addr:street:type": "Avenue", "amenity": "restaurant", "name": "Mindy's Hot Chocolate", "phone": "+1-773-489-1747", "website": "http://www.hotchocolatechicago.com/"}}, {"type": "way", "id": 209867401, "nodes": [2200226517, 2200226949, 2200226977, 2200226541, 2200226517], "tags": {"addr:housenumber": "1846", "addr:street": "North Damen Avenue", "addr:street:name": "Damen", "addr:street:prefix": "North", "addr:street:type": "Avenue", "amenity": "restaurant", "building": "yes", "building:levels": "2", "chicago:building_id": "292431", "cuisine": "ice_cream", "name": "Miko's Italian Ice"}}, {"type": "way", "id": 209867804, "nodes": [2200230349, 2200231880, 2200232041, 2200232050, 2200230367, 2200230349], "tags": {"addr:city": "Chicago", "addr:housenumber": "1925", "addr:postcode": "60647", "addr:state": "IL", "addr:street": "West Cortland Street", "addr:street:name": "Cortland", "addr:street:prefix": "West", "addr:street:type": "Street", "amenity": "bar", "building": "yes", "building:levels": "1", "chicago:building_id": "290841", "name": "Lottie's Pub", "phone": "+1-773-489-0738", "website": "http://www.lottiespub.com/"}}, {"type": "way", "id": 209868352, "nodes": [2200242724, 2200242950, 2200243001, 2200242734, 2200242724], "tags": {"addr:city": "Chicago", "addr:housenumber": "2020", "addr:postcode": "60647", "addr:state": "IL", "addr:street": "North Leavitt Street", "addr:street:name": "Leavitt", "addr:street:prefix": "North", "addr:street:type": "Street", "amenity": "cafe", "building": "yes", "building:levels": "2", "chicago:building_id": "284167", "name": "Red June", "phone": "+1-773-227-2600", "website": "http://www.redjunecafe.com/"}}, {"type": "way", "id": 209882840, "nodes": [2200343250, 2200343368, 2200343378, 2200343276, 2200343272, 2200343251, 2200343250], "tags": {"addr:housenumber": "2418", "addr:postcode": "60614", "addr:street": "North Ashland Avenue", "addr:street:name": "Ashland", "addr:street:prefix": "North", "addr:street:type": "Avenue", "amenity": "restaurant", "building": "yes", "building:levels": "1", "chicago:building_id": "261255", "name": "The Squared Circle"}}, {"type": "way", "id": 375835721, "nodes": [3791781401, 3791781402, 3791781403, 3791781404, 3791781405, 3791781406, 3791781407, 3791781408, 3791781409, 3791781401], "tags": {"amenity": "bar", "building": "yes", "building:levels": "2", "name": "WhirlyBall"}}]}