{"version": 0.6, "generator": "Overpass API 0.7.56.3 eb200aeb", "osm3s": {"timestamp_osm_base": "2020-07-20T22:18:03Z", "copyright": "The data included in this document is from www.openstreetmap.org. The data is made available under ODbL."}, "elements": [{"type": "node", "id": 349255925, "lat": 41.9103567, "lon": -87.6776669, "tags": {"amenity": "cafe", "brand": "Starbucks", "brand:wikidata": "Q37158", "brand:wikipedia": "en:Starbucks", "cuisine": "coffee_shop", "name": "Starbucks", "takeaway": "yes"}}, {"type": "node", "id": 846810579, "lat": 41.8993137, "lon": -87.6818666, "tags": {"addr:city": "Chicago", "addr:housenumber": "957", "addr:postcode": "60622", "addr:state": "IL", "addr:street": "North Leavitt Street", "amenity": "bar", "name": "J&M Tap", "phone": "+1-773-235-0499", "website": "https://www.jmtap.com/"}}, {"type": "node", "id": 1666244561, "lat": 41.9103339, "lon": -87.6797489, "tags": {"addr:city": "Chicago", "addr:housenumber": "2057", "addr:postcode": "60647", "addr:state": "IL", "addr:street": "West North Avenue", "amenity": "restaurant", "name": "Sultan's Market", "phone": "+1-773-235-3072", "website": "http://chicagofalafel.com/"}}, {"type": "node", "id": 1786793062, "lat": 41.8994033, "lon": -87.6965093, "tags": {"addr:city": "Chicago", "addr:housenumber": "1001", "addr:postcode": "60622", "addr:state": "IL", "addr:street": "North California Avenue", "amenity": "cafe", "name": "Cafe Marie-Jeanne", "phone": "+1-773-904-7660", "website": "http://www.cafe-marie-jeanne.com/"}}, {"type": "node", "id": 1786793073, "lat": 41.8994722, "lon": -87.6969571, "tags": {"addr:city": "Chicago", "addr:housenumber": "1002", "addr:postcode": "60622", "addr:state": "IL", "addr:street": "North California Avenue", "amenity": "bar", "name": "California Clipper", "phone": "+1-773-384-2547", "website": "http://californiaclipper.com/", "wikidata": "Q42539292"}}, {"type": "node", "id": 1786793076, "lat": 41.8987428, "lon": -87.686696, "tags": {"addr:city": "Chicago", "addr:housenumber": "939", "addr:postcode": "60622", "addr:state": "IL", "addr:street": "North Western Avenue", "amenity": "cafe", "name": "Cafe Ballou", "phone": "+1-773-661-2114"}}, {"type": "node", "id": 1786793079, "lat": 41.897642, "lon": -87.6919568, "tags": {"addr:city": "Chicago", "addr:housenumber": "2600", "addr:postcode": "60622", "addr:state": "IL", "addr:street": "West Iowa Street", "amenity": "bar", "name": "Archie's", "phone": "+1-872-206-5119", "wifi": "no"}}, {"type": "node", "id": 2196100859, "lat": 41.9005157, "lon": -87.6966727}, {"type": "node", "id": 2196100869, "lat": 41.9005181, "lon": -87.6964112}, {"type": "node", "id": 2196100913, "lat": 41.9005473, "lon": -87.6963896}, {"type": "node", "id": 2196100915, "lat": 41.9005474, "lon": -87.6964116}, {"type": "node", "id": 2196101394, "lat": 41.9005726, "lon": -87.6965032}, {"type": "node", "id": 2196101395, "lat": 41.9005728, "lon": -87.6965307}, {"type": "node", "id": 2196101452, "lat": 41.9005846, "lon": -87.6966739}, {"type": "node", "id": 2196101455, "lat": 41.9005851, "lon": -87.6965325}, {"type": "node", "id": 2196101458, "lat": 41.9005863, "lon": -87.6965031}, {"type": "node", "id": 2196101461, "lat": 41.9005871, "lon": -87.696391}, {"type": "node", "id": 2196110741, "lat": 41.9030759, "lon": -87.6956077}, {"type": "node", "id": 2196110744, "lat": 41.9030768, "lon": -87.6955287}, {"type": "node", "id": 2196110833, "lat": 41.9031191, "lon": -87.6909479}, {"type": "node", "id": 2196110839, "lat": 41.9031207, "lon": -87.6908429}, {"type": "node", "id": 2196110875, "lat": 41.9031372, "lon": -87.688657}, {"type": "node", "id": 2196110876, "lat": 41.9031382, "lon": -87.688578}, {"type": "node", "id": 2196110988, "lat": 41.9032316, "lon": -87.6909483}, {"type": "node", "id": 2196111001, "lat": 41.9032332, "lon": -87.6908454}, {"type": "node", "id": 2196111201, "lat": 41.9033435, "lon": -87.6956142}, {"type": "node", "id": 2196111203, "lat": 41.9033444, "lon": -87.6955353}, {"type": "node", "id": 2196111223, "lat": 41.9033705, "lon": -87.6886639}, {"type": "node", "id": 2196111225, "lat": 41.9033715, "lon": -87.6885849}, {"type": "node", "id": 2200128605, "lat": 41.9032797, "lon": -87.6813653}, {"type": "node", "id": 2200128606, "lat": 41.9032811, "lon": -87.6812716}, {"type": "node", "id": 2200128905, "lat": 41.9034915, "lon": -87.6813701}, {"type": "node", "id": 2200128910, "lat": 41.9034935, "lon": -87.6812764}, {"type": "node", "id": 2200197714, "lat": 41.9090645, "lon": -87.6771411}, {"type": "node", "id": 2200197719, "lat": 41.9091025, "lon": -87.6770996}, {"type": "node", "id": 2200197827, "lat": 41.9091083, "lon": -87.6772298}, {"type": "node", "id": 2200197830, "lat": 41.9091075, "lon": -87.6771715}, {"type": "node", "id": 2200198037, "lat": 41.9092222, "lon": -87.6769592}, {"type": "node", "id": 2200198076, "lat": 41.9092402, "lon": -87.6772327}, {"type": "node", "id": 2200198085, "lat": 41.9092443, "lon": -87.676992}, {"type": "node", "id": 2200199931, "lat": 41.9098366, "lon": -87.6764385}, {"type": "node", "id": 2200200048, "lat": 41.9098768, "lon": -87.6765024}, {"type": "node", "id": 2200200690, "lat": 41.9100848, "lon": -87.6761549}, {"type": "node", "id": 2200200807, "lat": 41.9101249, "lon": -87.6762188}, {"type": "node", "id": 2200201023, "lat": 41.9102042, "lon": -87.6780861}, {"type": "node", "id": 2200201025, "lat": 41.9102053, "lon": -87.6780439}, {"type": "node", "id": 2200201093, "lat": 41.9102374, "lon": -87.6781299}, {"type": "node", "id": 2200201390, "lat": 41.9103856, "lon": -87.6781357}, {"type": "node", "id": 2200201393, "lat": 41.9103865, "lon": -87.6780475}, {"type": "node", "id": 2200202220, "lat": 41.9109539, "lon": -87.678174}, {"type": "node", "id": 2200202308, "lat": 41.9109954, "lon": -87.6782397}, {"type": "node", "id": 2200203017, "lat": 41.911161, "lon": -87.6779331}, {"type": "node", "id": 2200203161, "lat": 41.911204, "lon": -87.6779988}, {"type": "node", "id": 2200203181, "lat": 41.9112141, "lon": -87.6785791}, {"type": "node", "id": 2200203246, "lat": 41.9112404, "lon": -87.6786211}, {"type": "node", "id": 2200203589, "lat": 41.9113164, "lon": -87.6784605}, {"type": "node", "id": 2200204258, "lat": 41.9113781, "lon": -87.6784599}, {"type": "node", "id": 2200204292, "lat": 41.9113859, "lon": -87.678379}, {"type": "node", "id": 2200204442, "lat": 41.9114122, "lon": -87.678421}, {"type": "node", "id": 2200219542, "lat": 41.9136457, "lon": -87.6774098}, {"type": "node", "id": 2200219565, "lat": 41.9136529, "lon": -87.6769799}, {"type": "node", "id": 2200219709, "lat": 41.9137061, "lon": -87.677411}, {"type": "node", "id": 2200219736, "lat": 41.9137132, "lon": -87.6769811}, {"type": "node", "id": 2361008461, "lat": 41.9098468, "lon": -87.6768908, "tags": {"addr:city": "Chicago", "addr:housenumber": "1562", "addr:postcode": "60622", "addr:state": "IL", "addr:street": "North Milwaukee Avenue", "amenity": "restaurant", "name": "Bru Chicago", "phone": "+1-872-802-0800", "website": "https://www.bruchicago.com/"}}, {"type": "node", "id": 2789533723, "lat": 41.9018656, "lon": -87.6966658, "tags": {"addr:city": "Chicago", "addr:housenumber": "1123", "addr:postcode": "60622", "addr:state": "IL", "addr:street": "North California Avenue", "amenity": "restaurant", "name": "Flying Saucer", "phone": "+1-773-342-9076", "wheelchair": "no"}}, {"type": "node", "id": 3077044833, "lat": 41.9097388, "lon": -87.6776917, "tags": {"addr:city": "Chicago", "addr:housenumber": "1552", "addr:postcode": "60622", "addr:state": "IL", "addr:street": "North Damen Avenue", "amenity": "cafe", "name": "La Colombe Coffee", "phone": "+1-872-829-3681", "website": "https://www.lacolombe.com/"}}, {"type": "node", "id": 3080898769, "lat": 41.9112092, "lon": -87.6785386, "tags": {"amenity": "restaurant", "cuisine": "sandwich", "name": "Lucky's Sandwich Co."}}, {"type": "node", "id": 3570110793, "lat": 41.909438, "lon": -87.6772965, "tags": {"addr:city": "Chicago", "addr:housenumber": "1545", "addr:postcode": "60622", "addr:state": "IL", "addr:street": "North Damen Avenue", "amenity": "restaurant", "cuisine": "mexican;tex-mex", "name": "Dove's Luncheonette", "phone": "+1-773-645-4060", "website": "http://doveschicago.com/"}}, {"type": "node", "id": 3570112793, "lat": 41.9090451, "lon": -87.6775907, "tags": {"addr:city": "Chicago", "addr:housenumber": "1520", "addr:postcode": "60622", "addr:state": "IL", "addr:street": "North Damen Avenue", "amenity": "bar", "name": "The Violet Hour", "phone": "+1-773-252-1500", "website": "http://www.theviolethour.com"}}, {"type": "node", "id": 3570113238, "lat": 41.9028218, "lon": -87.6774009, "tags": {"addr:city": "Chicago", "addr:housenumber": "1150", "addr:postcode": "60622", "addr:state": "IL", "addr:street": "North Damen Avenue", "amenity": "bar", "name": "Rainbo Club", "phone": "+1-773-489-5999"}}, {"type": "node", "id": 3570191046, "lat": 41.9128303, "lon": -87.6972374, "tags": {"amenity": "restaurant", "cuisine": "puerto_rican", "name": "El Nuevo Borinquen"}}, {"type": "node", "id": 3570220109, "lat": 41.9101151, "lon": -87.6767615, "tags": {"addr:city": "Chicago", "addr:housenumber": "1571", "addr:postcode": "60622", "addr:state": "IL", "addr:street": "North Milwaukee Avenue", "amenity": "restaurant", "cuisine": "japanese", "name": "Furious Spoon - Wicker Park", "opening_hours": "Su-Th 11:00-01:00; Fr-Sa 11:00-02:00", "phone": "+1- 773-687-8445", "website": "http://furiousramen.com"}}, {"type": "node", "id": 3570220893, "lat": 41.9100848, "lon": -87.6772656, "tags": {"addr:city": "Chicago", "addr:housenumber": "1576", "addr:postcode": "60622", "addr:state": "IL", "addr:street": "North Milwaukee Avenue", "amenity": "restaurant", "cuisine": "french", "name": "Caf\u00e9 Cancale", "phone": "+1-773-904-1121", "website": "https://www.cafecancale.com"}}, {"type": "node", "id": 3570221193, "lat": 41.9096809, "lon": -87.6776173, "tags": {"addr:city": "Chicago", "addr:housenumber": "1548", "addr:postcode": "60622", "addr:state": "IL", "addr:street": "North Damen Avenue", "amenity": "bar", "name": "Blue Line Lounge & Grill", "phone": "+1-773-395-3700", "website": "http://www.bluelineclubcar.com/"}}, {"type": "node", "id": 3575021393, "lat": 41.9006069, "lon": -87.6867497, "tags": {"addr:city": "Chicago", "addr:housenumber": "1039", "addr:postcode": "60622", "addr:state": "IL", "addr:street": "North Western Avenue", "amenity": "restaurant", "name": "Bite Cafe"}}, {"type": "node", "id": 3575025688, "lat": 41.8998468, "lon": -87.6871843, "tags": {"addr:city": "Chicago", "addr:housenumber": "1012", "addr:postcode": "60622", "addr:state": "IL", "addr:street": "North Western Avenue", "amenity": "restaurant", "name": "Boeufhaus", "phone": "+1-773-661-2116", "website": "http://www.boeufhaus.com/"}}, {"type": "node", "id": 3575025689, "lat": 41.8989825, "lon": -87.6872868, "tags": {"addr:city": "Chicago", "addr:housenumber": "948", "addr:postcode": "60622", "addr:state": "IL", "addr:street": "North Western Avenue", "amenity": "bar", "name": "Sportsman's Club", "phone": "+1-872-206-8054", "website": "https://drinkingandgathering.com/"}}, {"type": "node", "id": 3575025690, "lat": 41.8986011, "lon": -87.6866989, "tags": {"amenity": "bar", "name": "Stella's Tap"}}, {"type": "node", "id": 3575070893, "lat": 41.9032845, "lon": -87.6816046, "tags": {"addr:city": "Chicago", "addr:housenumber": "2124", "addr:postcode": "60622", "addr:state": "IL", "addr:street": "West Division Street", "amenity": "restaurant", "cuisine": "italian", "name": "Enoteca Roma Ristorante", "phone": "+1-773-772-7700", "website": "http://www.superyummy.us/enotecaroma/"}}, {"type": "node", "id": 3575070894, "lat": 41.9032905, "lon": -87.681508, "tags": {"addr:city": "Chicago", "addr:housenumber": "2144", "addr:postcode": "60622", "addr:state": "IL", "addr:street": "West Division Street", "amenity": "cafe", "name": "Letizia's Natural Bakery", "website": "http://fsorano.wix.com/letiziasbakery-the-original"}}, {"type": "node", "id": 3575070895, "lat": 41.9033184, "lon": -87.6798799, "tags": {"addr:city": "Chicago", "addr:housenumber": "2100", "addr:postcode": "60622", "addr:state": "IL", "addr:street": "West Division Street", "amenity": "restaurant", "cuisine": "argentinian", "name": "Folklore", "phone": "+1-773-292-1600", "website": "http://folklorechicago.com/"}}, {"type": "node", "id": 3575070896, "lat": 41.9033344, "lon": -87.6795178, "tags": {"amenity": "restaurant", "cuisine": "pizza", "name": "Pizano's"}}, {"type": "node", "id": 3575070897, "lat": 41.902995, "lon": -87.6793622, "tags": {"amenity": "restaurant", "cuisine": "thai", "name": "Thai Village"}}, {"type": "node", "id": 3575070900, "lat": 41.9033393, "lon": -87.6782034, "tags": {"amenity": "restaurant", "cuisine": "sushi", "name": "Mirai"}}, {"type": "node", "id": 3575070901, "lat": 41.9033504, "lon": -87.6780426, "tags": {"amenity": "restaurant", "cuisine": "mexican", "name": "Picante"}}, {"type": "node", "id": 3575070902, "lat": 41.903019, "lon": -87.677777, "tags": {"addr:city": "Chicago", "addr:housenumber": "2011", "addr:postcode": "60622", "addr:state": "IL", "addr:street": "West Division Street", "amenity": "cafe", "name": "Janik's Cafe", "opening_hours": "Su-We 07:00-16:00; Th-Sa 07:00-21:00", "phone": "+1-773-276-7930", "website": "https://janikscafe.com/"}}, {"type": "node", "id": 3575084300, "lat": 41.8972953, "lon": -87.6866638, "tags": {"addr:city": "Chicago", "addr:housenumber": "853", "addr:postcode": "60622", "addr:state": "IL", "addr:street": "North Western Avenue", "amenity": "bar", "name": "Blind Robin", "phone": "+1-773-395-3002", "website": "http://theblindrobin.com/"}}, {"type": "node", "id": 3575120594, "lat": 41.9103246, "lon": -87.6787813, "tags": {"amenity": "restaurant", "name": "Chop Shop"}}, {"type": "node", "id": 3575120598, "lat": 41.910214, "lon": -87.6853111, "tags": {"addr:city": "Chicago", "addr:housenumber": "2311", "addr:postcode": "60647", "addr:state": "IL", "addr:street": "West North Avenue", "amenity": "restaurant", "diet:vegan": "yes", "diet:vegetarian": "only", "name": "Handlebar", "opening_hours": "Mo-Su 10:00-01:00", "phone": "+1-773-384-9546", "website": "https://www.handlebarchicago.com/"}}, {"type": "node", "id": 3575120599, "lat": 41.9104695, "lon": -87.68575, "tags": {"amenity": "restaurant", "cuisine": "thai", "name": "Thai Lagoon"}}, {"type": "node", "id": 3575120600, "lat": 41.9101455, "lon": -87.6881071, "tags": {"addr:city": "Chicago", "addr:housenumber": "2421", "addr:postcode": "60647", "addr:state": "IL", "addr:street": "West North Avenue", "amenity": "restaurant", "cuisine": "indian", "delivery": "yes", "name": "Rangoli", "phone": "+1-773-697-7114", "takeaway": "yes", "website": "http://rangolifeast.com/"}}, {"type": "node", "id": 3575497026, "lat": 41.9137424, "lon": -87.6773235, "tags": {"amenity": "restaurant", "name": "Presidio"}}, {"type": "node", "id": 3651370985, "lat": 41.9097007, "lon": -87.6766755, "tags": {"addr:city": "Chicago", "addr:housenumber": "1558", "addr:postcode": "60622", "addr:state": "IL", "addr:street": "North Milwaukee Avenue", "amenity": "restaurant", "name": "Taxim", "phone": "+1-773-252-1558", "website": "http://www.taximchicago.com/"}}, {"type": "node", "id": 3652955076, "lat": 41.9101567, "lon": -87.6878456, "tags": {"amenity": "restaurant", "name": "China Station"}}, {"type": "node", "id": 3652970966, "lat": 41.9062101, "lon": -87.6771901, "tags": {"amenity": "restaurant", "name": "The Tamale Spaceship"}}, {"type": "node", "id": 3652970968, "lat": 41.9048848, "lon": -87.6774662, "tags": {"amenity": "restaurant", "name": "Craft Pizza"}}, {"type": "node", "id": 3656001344, "lat": 41.9090649, "lon": -87.6771668}, {"type": "node", "id": 3656001345, "lat": 41.9088352, "lon": -87.6779484, "tags": {"amenity": "restaurant", "cuisine": "pizza", "name": "Lou Malnati's"}}, {"type": "node", "id": 3656001352, "lat": 41.9106249, "lon": -87.6771302, "tags": {"amenity": "restaurant", "cuisine": "sushi", "name": "Bluefin"}}, {"type": "node", "id": 3656015215, "lat": 41.9103408, "lon": -87.6793224, "tags": {"addr:city": "Chicago", "addr:housenumber": "2045", "addr:postcode": "60647", "addr:state": "IL", "addr:street": "West North Avenue", "amenity": "restaurant", "cuisine": "empanada;argentinian", "name": "5411 Empanadas - Wicker Park", "opening_hours": "Su-Th 11:00-22:00; Fr-Sa 11:00-00:00", "phone": "+1-773-276-8344", "website": "http://www.5411empanadas.com"}}, {"type": "node", "id": 3656023047, "lat": 41.9111767, "lon": -87.6784624, "tags": {"amenity": "restaurant", "name": "Sushi Para M"}}, {"type": "node", "id": 3656028533, "lat": 41.9109478, "lon": -87.6773351, "tags": {"amenity": "restaurant", "name": "Enso Sushi & Bar"}}, {"type": "node", "id": 3656028534, "lat": 41.9110097, "lon": -87.6773378, "tags": {"amenity": "restaurant", "name": "Dimo's Pizza"}}, {"type": "node", "id": 3659172691, "lat": 41.9100888, "lon": -87.6938521, "tags": {"addr:city": "Chicago", "addr:housenumber": "2465", "addr:postcode": "60622", "addr:state": "IL", "addr:street": "West North Avenue", "amenity": "bar", "name": "Boulevard Sports Lounge", "phone": "+1-773-687-8456", "website": "http://www.boulevardsportslounge.com/"}}, {"type": "node", "id": 3659172692, "lat": 41.910114, "lon": -87.6927745, "tags": {"amenity": "cafe", "name": "Se\u00f1or Pan Cafe"}}, {"type": "node", "id": 3659464596, "lat": 41.9029591, "lon": -87.6768288, "tags": {"addr:city": "Chicago", "addr:housenumber": "1951", "addr:postcode": "60622", "addr:state": "IL", "addr:street": "West Division Street", "amenity": "restaurant", "name": "Shawarma Garden", "phone": "+1-773-904-8897"}}, {"type": "node", "id": 3659464598, "lat": 41.9030282, "lon": -87.6778648, "tags": {"amenity": "restaurant", "name": "Ta-Ki-To"}}, {"type": "node", "id": 3675060651, "lat": 41.9065532, "lon": -87.6868969, "tags": {"addr:city": "Chicago", "addr:housenumber": "1357", "addr:postcode": "60622", "addr:state": "IL", "addr:street": "North Western Avenue", "amenity": "restaurant", "cuisine": "american;breakfast;brunch", "name": "Hash Chicago", "opening_hours": "Su-Mo 08:00-15:00; We-Sa 08:00-15:00", "phone": "+1-773-661-2964", "website": "https://www.hashchicago.com/"}}, {"type": "node", "id": 3908762561, "lat": 41.8993899, "lon": -87.6970785, "tags": {"addr:city": "Chicago", "addr:country": "US", "addr:housenumber": "2806", "addr:postcode": "60622", "addr:state": "IL", "addr:street": "West Augusta Boulevard", "amenity": "cafe", "name": "CC Ferns Coffee Bar & Spirits", "phone": "+1-773-384-2547", "website": "http://ccferns.com/"}}, {"type": "node", "id": 4039273390, "lat": 41.9135894, "lon": -87.6972582, "tags": {"addr:city": "Chicago", "addr:country": "US", "addr:housenumber": "1752", "addr:postcode": "60647", "addr:state": "IL", "addr:street": "North California Avenue", "amenity": "cafe", "name": "Donut Delight"}}, {"type": "node", "id": 4119390732, "lat": 41.8996708, "lon": -87.6773815, "tags": {"addr:city": "Chicago", "addr:housenumber": "1000", "addr:postcode": "60622", "addr:state": "IL", "addr:street": "North Damen Avenue", "amenity": "cafe", "cuisine": "coffee_shop", "name": "Dollop", "website": "https://dollop.coffee/"}}, {"type": "node", "id": 4130928514, "lat": 41.902948, "lon": -87.6807433, "tags": {"addr:city": "Chicago", "addr:housenumber": "2125", "addr:postcode": "60622", "addr:state": "IL", "addr:street": "West Division Street", "amenity": "bar", "name": "Queen Mary Tavern", "phone": "+1-773-697-3522", "website": "https://www.queenmarytavern.com/"}}, {"type": "node", "id": 4363752189, "lat": 41.9023766, "lon": -87.6967084, "tags": {"addr:city": "Chicago", "addr:housenumber": "1143", "addr:postcode": "60622", "addr:state": "IL", "addr:street": "North California Avenue", "amenity": "restaurant", "cuisine": "american", "name": "Bullhead Cantina", "name:en": "Bullhead Cantina", "phone": "+1-773-250-0567", "website": "http://bullheadcantina.com/"}}, {"type": "node", "id": 4599123098, "lat": 41.8992629, "lon": -87.6867058, "tags": {"addr:city": "Chicago", "addr:housenumber": "959", "addr:postcode": "60622", "addr:state": "IL", "addr:street": "North Western Avenue", "amenity": "restaurant", "cuisine": "american", "name": "Leghorn Chicken", "website": "http://www.leghornchicken.com"}}, {"type": "node", "id": 4697800145, "lat": 41.9031227, "lon": -87.6935215, "tags": {"addr:city": "Chicago", "addr:housenumber": "2638", "addr:postcode": "60622", "addr:state": "IL", "addr:street": "West Division Street", "amenity": "cafe", "name": "Caf\u00e9 Colao", "phone": "+1-773-799-8454", "website": "https://www.cafecolaochicago.com/"}}, {"type": "node", "id": 4724858615, "lat": 41.8982098, "lon": -87.6866754, "tags": {"addr:city": "Chicago", "addr:housenumber": "921", "addr:postcode": "60622", "addr:state": "IL", "addr:street": "North Western Avenue", "amenity": "bar", "name": "EZ Inn", "opening_hours": "Su-Fr 17:00-02:00; Sa 17:00-03:00", "phone": "+1-773-698-7372", "website": "http://www.ez-inn.com"}}, {"type": "node", "id": 4965968690, "lat": 41.9033986, "lon": -87.6783186, "tags": {"addr:city": "Chicago", "addr:housenumber": "2050", "addr:postcode": "60622", "addr:state": "IL", "addr:street": "West Division Street", "amenity": "restaurant", "cuisine": "american", "email": "jun@bourbonondivision.com", "name": "Bourbon On Division", "opening_hours": "Mo-Su 17:00-04:00; Sa 17:00-05:00", "phone": "773-796-5879", "website": "http://bourbonondivision.com"}}, {"type": "node", "id": 5025496847, "lat": 41.9144268, "lon": -87.6832788, "tags": {"addr:city": "Chicago", "addr:housenumber": "1813", "addr:postcode": "60647", "addr:state": "IL", "addr:street": "North Milwaukee Avenue", "amenity": "cafe", "cuisine": "coffee_shop", "name": "Ipsento 606", "phone": "+1-872-206-8697", "website": "http://ipsento.com/"}}, {"type": "node", "id": 5418578561, "lat": 41.9094984, "lon": -87.6775992, "tags": {"addr:city": "Chicago", "addr:housenumber": "1542", "addr:postcode": "60622", "addr:state": "IL", "addr:street": "North Damen Avenue", "amenity": "restaurant", "cuisine": "dumplings;asian", "delivery": "yes", "name": "Urbanbelly", "opening_hours": "Su-Th 11:00-22:00; Fr-Sa 11:00-23:00", "outdoor_seating": "yes", "phone": "+1-773-904-8606", "takeaway": "yes", "website": "http://urbanbellychicago.com"}}, {"type": "node", "id": 5460869986, "lat": 41.9029891, "lon": -87.6779447, "tags": {"addr:city": "Chicago", "addr:housenumber": "2015", "addr:postcode": "60622", "addr:state": "IL", "addr:street": "West Division Street", "amenity": "restaurant", "cuisine": "american", "name": "Clever Rabbit", "opening_hours": "Su-Th 16:30-22:00; Fr-Sa 16:30-23:00; Sa-Su 10:00-15:00", "phone": "+1-773-697-8711", "website": "http://www.cleverrabbitchicago.com/"}}, {"type": "node", "id": 5597509421, "lat": 41.9103358, "lon": -87.6800494, "tags": {"amenity": "restaurant", "cuisine": "italian_pizza;pizza", "name": "Knead"}}, {"type": "node", "id": 5597509423, "lat": 41.9131516, "lon": -87.6819688, "tags": {"addr:city": "Chicago", "addr:housenumber": "1750", "addr:postcode": "606476", "addr:state": "IL", "addr:street": "North Milwaukee Avenue", "amenity": "bar", "name": "The Royal Palms Shuffleboard Club", "name:en": "Royal Palms Shuffleboard Club", "phone": "+1-773-486-8682", "website": "https://www.royalpalmschicago.com/"}}, {"type": "node", "id": 5597509522, "lat": 41.9143219, "lon": -87.6838026, "tags": {"addr:city": "Chicago", "addr:housenumber": "1812", "addr:postcode": "60647", "addr:state": "IL", "addr:street": "North Milwaukee Avenue", "amenity": "restaurant", "cuisine": "pizza;burger;american", "name": "The Stop Along", "phone": "1+773-394-4694", "website": "https://www.thestopalong.com/"}}, {"type": "node", "id": 6070815826, "lat": 41.9101378, "lon": -87.6776238, "tags": {"addr:city": "Chicago", "addr:housenumber": "1566", "addr:postcode": "60622", "addr:state": "IL", "addr:street": "North Damen Avenue", "amenity": "restaurant", "cuisine": "italian_pizza", "delivery": "yes", "name": "Bonci", "outdoor_seating": "no", "phone": "+1-872-829-3144", "smoking": "no", "takeaway": "yes", "website": "https://bonciusa.com/"}}, {"type": "node", "id": 6154690337, "lat": 41.9033253, "lon": -87.6792509, "tags": {"addr:city": "Chicago", "addr:housenumber": "2050", "addr:postcode": "60622", "addr:state": "IL", "addr:street": "West Division Street", "amenity": "restaurant", "name": "Bourbon on Division", "phone": "+1-773-796-5879", "website": "http://bourbonondivision.com"}}, {"type": "node", "id": 6239205557, "lat": 41.9103281, "lon": -87.6785033, "tags": {"addr:city": "Chicago", "addr:housenumber": "2027", "addr:postcode": "60647", "addr:state": "IL", "addr:street": "West North Avenue", "amenity": "bar", "name": "Tapster", "phone": "+1-773-661-2182", "website": "http://www.tapsterchicago.com/"}}, {"type": "node", "id": 6249982165, "lat": 41.9101156, "lon": -87.6927943, "tags": {"addr:city": "Chicago", "addr:housenumber": "2615", "addr:postcode": "60647", "addr:state": "IL", "addr:street": "West North Avenue", "amenity": "restaurant", "cuisine": "cuban", "name": "1492 Cuban Fusion", "phone": "+1-773 227-9601", "website": "http://1492cubanfusion.com/"}}, {"type": "node", "id": 6269184366, "lat": 41.9100775, "lon": -87.6900295, "tags": {"addr:city": "Chicago", "addr:housenumber": "2507", "addr:postcode": "60647", "addr:state": "IL", "addr:street": "West North Avenue", "amenity": "restaurant", "name": "Bulerias Tapas Bar", "phone": "+1-773-404-2855", "website": "http://www.buleriastapas.com/"}}, {"type": "node", "id": 6269695066, "lat": 41.9034877, "lon": -87.677874, "tags": {"addr:city": "Chicago", "addr:housenumber": "2014", "addr:postcode": "60622", "addr:state": "IL", "addr:street": "West Division Street", "amenity": "restaurant", "name": "Cafe Istanbul", "phone": "+1-773-661-9487", "website": "http://www.mycafeistanbul.com/"}}, {"type": "node", "id": 6284020693, "lat": 41.9101324, "lon": -87.6880221, "tags": {"addr:city": "Chicago", "addr:housenumber": "2415", "addr:postcode": "60647", "addr:state": "IL", "addr:street": "West North Avenue", "amenity": "restaurant", "name": "Cup & Spoon", "phone": "+1-773-697-4421", "website": "http://www.cupandspoonchicago.com/"}}, {"type": "node", "id": 6284308831, "lat": 41.9117562, "lon": -87.6773347, "tags": {"addr:city": "Chicago", "addr:housenumber": "1645A", "addr:postcode": "60647", "addr:state": "IL", "addr:street": "North Damen Avenue", "addr:unit": "2", "amenity": "cafe", "name": "DAVIDsTEA", "phone": "+1-773-697-9737", "website": "https://www.davidstea.com/us_en/home/"}}, {"type": "node", "id": 6284447675, "lat": 41.899387, "lon": -87.6995161, "tags": {"addr:city": "Chicago", "addr:housenumber": "1000", "addr:postcode": "60622", "addr:state": "IL", "addr:street": "North Francisco Avenue", "amenity": "restaurant", "name": "Diana\u2019s Food & Restaurant", "phone": "+1-773-235-9218"}}, {"type": "node", "id": 6284714257, "lat": 41.9103836, "lon": -87.6765997, "tags": {"addr:city": "Chicago", "addr:housenumber": "1939", "addr:postcode": "60622", "addr:state": "IL", "addr:street": "West North Avenue", "amenity": "restaurant", "name": "Dorian\u2019s", "phone": "+1-773-687-9824", "website": "http://throughtherecordshop.com/"}}, {"type": "node", "id": 6284971942, "lat": 41.9034989, "lon": -87.6766382, "tags": {"addr:city": "Chicago", "addr:housenumber": "1944", "addr:postcode": "60622", "addr:state": "IL", "addr:street": "West Division Street", "amenity": "bar", "name": "Easy Bar", "phone": "+1-773-227-4644", "website": "http://easybarchicago.com/"}}, {"type": "node", "id": 6291245713, "lat": 41.8975737, "lon": -87.6773583, "tags": {"addr:city": "Chicago", "addr:housenumber": "852", "addr:postcode": "60622", "addr:state": "IL", "addr:street": "North Damen Avenue", "amenity": "cafe", "name": "Francesca\u2019s Cafe", "phone": "+1-630-440-8306", "website": "http://francescasondamen.com/"}}, {"type": "node", "id": 6291791910, "lat": 41.897562, "lon": -87.6772721, "tags": {"addr:city": "Chicago", "addr:housenumber": "852", "addr:postcode": "60622", "addr:state": "IL", "addr:street": "North Damen Avenue", "amenity": "cafe", "name": "Gigi\u2019s Cafe & Juicery", "phone": "+1-312-675-8174", "website": "https://gigis-cafe-juicery.business.site/#details"}}, {"type": "node", "id": 6291896890, "lat": 41.9119269, "lon": -87.6772749, "tags": {"addr:city": "Chicago", "addr:housenumber": "1649", "addr:postcode": "60647", "addr:state": "IL", "addr:street": "North Damen Avenue", "amenity": "restaurant", "name": "Goddess and Grocer", "phone": "+1-773-342-3200", "website": "http://goddessandgrocer.com/"}}, {"type": "node", "id": 6294262005, "lat": 41.9027426, "lon": -87.6904806, "tags": {"addr:city": "Chicago", "addr:housenumber": "2525", "addr:postcode": "60622", "addr:state": "IL", "addr:street": "West Division Street", "amenity": "restaurant", "name": "The Chicago Teachers\u2019 Lounge & Eatery", "phone": "+1-773-366-8700", "website": "https://www.thechicagoteacherslounge.com/"}}, {"type": "node", "id": 6298767975, "lat": 41.9029495, "lon": -87.6793785, "tags": {"addr:city": "Chicago", "addr:housenumber": "2053", "addr:postcode": "60622", "addr:state": "IL", "addr:street": "West Division Street", "amenity": "restaurant", "name": "Silli Kori", "phone": "+1-773-384-5352", "website": "http://www.sillikorichicago.com/"}}, {"type": "node", "id": 6300304352, "lat": 41.899407, "lon": -87.6971852, "tags": {"addr:city": "Chicago", "addr:housenumber": "1000", "addr:postcode": "60622", "addr:state": "IL", "addr:street": "North California Avenue", "amenity": "cafe", "name": "Spinning J", "phone": "+1-872-829-2793", "website": "http://www.spinningj.com/"}}, {"type": "node", "id": 6300350387, "lat": 41.910051, "lon": -87.6776148, "tags": {"addr:city": "Chicago", "addr:housenumber": "1560", "addr:postcode": "60622", "addr:state": "IL", "addr:street": "North Damen Avenue", "amenity": "cafe", "name": "Stan\u2019s Donuts & Coffee", "phone": "+1-773-360-7386", "website": "http://www.stansdonutschicago.com/"}}, {"type": "node", "id": 6300782077, "lat": 41.8989745, "lon": -87.6865757, "tags": {"addr:city": "Chicago", "addr:housenumber": "949", "addr:postcode": "60622", "addr:state": "IL", "addr:street": "North Western Avenue", "amenity": "restaurant", "name": "Salsa Picante", "phone": "+1-773-904-8406", "website": "http://www.salsapicante949.com/"}}, {"type": "node", "id": 6300825544, "lat": 41.9098184, "lon": -87.6771283, "tags": {"addr:city": "Chicago", "addr:housenumber": "1566", "addr:postcode": "60622", "addr:state": "IL", "addr:street": "North Milwaukee Avenue", "amenity": "bar", "name": "The Revel Room", "phone": "1-773-278-1600", "website": "https://revelroom.com/"}}, {"type": "node", "id": 6301042528, "lat": 41.8990442, "lon": -87.6969506, "tags": {"addr:city": "Chicago", "addr:housenumber": "954", "addr:postcode": "60622", "addr:state": "IL", "addr:street": "North California Avenue", "amenity": "bar", "name": "Rootstock Wine & Beer Bar", "phone": "+1-773-292-1616", "website": "https://www.rootstockbar.com/"}}, {"type": "node", "id": 6301103471, "lat": 41.9101746, "lon": -87.6846028, "tags": {"addr:city": "Chicago", "addr:housenumber": "2257", "addr:postcode": "60647", "addr:state": "IL", "addr:street": "West North Avenue", "amenity": "restaurant", "name": "Runa Japanese", "phone": "+1-773-278-8887", "website": "http://www.runajapanesechicago.com/"}}, {"type": "node", "id": 6301585470, "lat": 41.8989024, "lon": -87.6766499, "tags": {"addr:city": "Chicago", "addr:housenumber": "941", "addr:postcode": "60622", "addr:state": "IL", "addr:street": "North Damen Avenue", "amenity": "restaurant", "name": "Sabroso! Mexican Grill", "phone": "+1-773-253-5001", "website": "http://sabrosochicago.com/"}}, {"type": "node", "id": 6301725940, "lat": 41.8986252, "lon": -87.6866105, "tags": {"addr:city": "Chicago", "addr:housenumber": "935", "addr:postcode": "60622", "addr:state": "IL", "addr:street": "West Walton Street", "amenity": "bar", "name": "Stella\u2019s Sports Bar", "phone": "+1-773-384-0077"}}, {"type": "node", "id": 6302695669, "lat": 41.9112765, "lon": -87.6784697, "tags": {"addr:city": "Chicago", "addr:housenumber": "1635", "addr:postcode": "60647", "addr:state": "IL", "addr:street": "North Milwaukee Avenue", "amenity": "restaurant", "name": "The Tankard", "phone": "+1-773-292-2765", "website": "https://www.tankardchicago.com/"}}, {"type": "node", "id": 6303075481, "lat": 41.9030254, "lon": -87.6778329, "tags": {"addr:city": "Chicago", "addr:housenumber": "2013", "addr:postcode": "60622", "addr:state": "IL", "addr:street": "West Division Street", "amenity": "restaurant", "name": "Takito Kitchen", "phone": "+1-773-687-9620", "website": "http://takitokitchen.com/"}}, {"type": "node", "id": 6305175550, "lat": 41.9108863, "lon": -87.6771631, "tags": {"addr:city": "Chicago", "addr:housenumber": "1611", "addr:postcode": "60647", "addr:state": "IL", "addr:street": "North Damen Avenue", "amenity": "cafe", "name": "Toms Roasting Co", "phone": "+1-773-486-5882", "website": "https://www.toms.com/coffee/"}}, {"type": "node", "id": 6306657812, "lat": 41.9124463, "lon": -87.6777172, "tags": {"addr:city": "Chicago", "addr:housenumber": "1700", "addr:postcode": "60647", "addr:state": "IL", "addr:street": "North Damen Avenue", "amenity": "restaurant", "name": "Tricycle Chicago", "phone": "+1-773-697-9275", "website": "https://www.tricyclechicago.com/"}}, {"type": "node", "id": 6306805258, "lat": 41.9033814, "lon": -87.6763868, "tags": {"addr:city": "Chicago", "addr:housenumber": "1938", "addr:postcode": "60622", "addr:state": "IL", "addr:street": "West Division Street", "amenity": "restaurant", "name": "Sea & Olive", "phone": "+1-773-770-3658", "website": "https://www.seaandolive.com"}}, {"type": "node", "id": 6315209496, "lat": 41.9004807, "lon": -87.6866529, "tags": {"addr:city": "Chicago", "addr:housenumber": "1035", "addr:postcode": "60622", "addr:state": "IL", "addr:street": "North Western Avenue", "amenity": "bar", "name": "The Empty Bottle", "phone": "+1-773-276-3600", "website": "http://emptybottle.com/"}}, {"type": "node", "id": 6315217965, "lat": 41.9100689, "lon": -87.6766782, "tags": {"addr:city": "Chicago", "addr:housenumber": "1565", "addr:postcode": "60622", "addr:state": "IL", "addr:street": "North Milwaukee Avenue", "amenity": "bar", "name": "The Flat Iron", "phone": "+1-773-365-9000", "website": "theflatironchicago.com/"}}, {"type": "node", "id": 6317085920, "lat": 41.9136888, "lon": -87.6820343, "tags": {"addr:city": "Chicago", "addr:housenumber": "1767", "addr:postcode": "60647", "addr:state": "IL", "addr:street": "North Milwaukee Avenue", "amenity": "restaurant", "name": "Yolk Test Kitchen - Bucktown", "phone": "(312) 348-1333", "website": "https://www.eatyolk.com/"}}, {"type": "node", "id": 6319207395, "lat": 41.9028804, "lon": -87.6808451, "tags": {"addr:city": "Chicago", "addr:housenumber": "2127", "addr:postcode": "60622", "addr:state": "IL", "addr:street": "West Division Street", "amenity": "cafe", "name": "Kanela Breakfast Club", "phone": "+1-773-362-5052", "website": "http://www.kanelabreakfastclub.com/"}}, {"type": "node", "id": 6319774899, "lat": 41.910295, "lon": -87.6803201, "tags": {"addr:city": "Chicago", "addr:housenumber": "2101", "addr:postcode": "60647", "addr:state": "IL", "addr:street": "West North Avenue", "amenity": "restaurant", "name": "Knead", "phone": "+1-773-974-6004", "website": "https://kneadpizzas.com/"}}, {"type": "node", "id": 6320597249, "lat": 41.9001764, "lon": -87.6873202, "tags": {"addr:city": "Chicago", "addr:housenumber": "1024", "addr:postcode": "60622", "addr:state": "IL", "addr:street": "North Western Avenue", "amenity": "restaurant", "name": "Lockdown Bar & Grill", "phone": "+1-773-451-5625", "website": "http://www.lockdownbar.com/"}}, {"type": "node", "id": 6320599857, "lat": 41.9001086, "lon": -87.6872894, "tags": {"addr:city": "Chicago", "addr:housenumber": "1022", "addr:postcode": "60622", "addr:state": "IL", "addr:street": "North Western Avenue", "amenity": "restaurant", "name": "Lockdown Smoked", "phone": "+1-773-270-5987"}}, {"type": "node", "id": 6321986649, "lat": 41.912826, "lon": -87.681489, "tags": {"addr:city": "Chicago", "addr:housenumber": "1732", "addr:postcode": "60647", "addr:state": "Il", "addr:street": "North Milwaukee Avenue", "amenity": "restaurant", "name": "Small Cheval", "website": "http://smallcheval.com/"}}, {"type": "node", "id": 6322126530, "lat": 41.8988016, "lon": -87.6767479, "tags": {"addr:city": "Chicago", "addr:housenumber": "937", "addr:postcode": "60622", "addr:state": "IL", "addr:street": "North Damen Avenue", "amenity": "restaurant", "name": "Tai Nang", "phone": "+1-773-666-5996"}}, {"type": "node", "id": 6323063285, "lat": 41.9033048, "lon": -87.689323, "tags": {"addr:city": "Chicago", "addr:housenumber": "2458", "addr:postcode": "60622", "addr:state": "IL", "addr:street": "West Division Street", "amenity": "restaurant", "name": "Nellie\u2019s", "phone": "+1-773-252-5520", "website": "https://www.nelliesrestaurant.com/"}}, {"type": "node", "id": 6323181243, "lat": 41.9103715, "lon": -87.6767531, "tags": {"addr:city": "Chicago", "addr:housenumber": "1943", "addr:postcode": "60622", "addr:state": "IL", "addr:street": "West North Avenue", "amenity": "bar", "name": "No Bones Beach Club", "website": "https://nobonesbeachclub.com/"}}, {"type": "node", "id": 6323927179, "lat": 41.8991171, "lon": -87.6769007, "tags": {"addr:city": "Chicago", "addr:housenumber": "947", "addr:postcode": "60622", "addr:state": "IL", "addr:street": "North Damen Avenue", "amenity": "bar", "name": "Ola\u2019s Liquor", "phone": "+1-773-384-7250"}}, {"type": "node", "id": 6324324927, "lat": 41.902745, "lon": -87.6902284, "tags": {"addr:city": "Chicago", "addr:housenumber": "2517", "addr:postcode": "60622", "addr:state": "IL", "addr:street": "West Division Street", "amenity": "restaurant", "name": "Papa\u2019s Cache Sabroso", "phone": "+1-773-862-8313", "website": "http://www.papascache.com/"}}, {"type": "node", "id": 6459369044, "lat": 41.9102472, "lon": -87.6828793, "tags": {"addr:city": "Chicago", "addr:housenumber": "2211", "addr:postcode": "60647", "addr:state": "IL", "addr:street": "West North Avenue", "amenity": "restaurant", "cuisine": "filipino", "name": "Cebu", "phone": "+1-773-799-8650", "website": "https://cebuchicago.com"}}, {"type": "node", "id": 6842444182, "lat": 41.9144405, "lon": -87.6839628, "tags": {"addr:city": "Chicago", "addr:housenumber": "1818", "addr:street": "North Milwaukee Avenue", "amenity": "cafe", "name": "Easthill Tea"}}, {"type": "node", "id": 7442221184, "lat": 41.9035996, "lon": -87.6770813, "tags": {"addr:city": "Chicago", "addr:housenumber": "1211", "addr:postcode": "60622", "addr:state": "IL", "addr:street": "North Damen Avenue", "amenity": "cafe", "internet_access": "wlan", "name": "Colectivo Coffee", "outdoor_seating": "yes", "website": "https://colectivocoffee.com"}}, {"type": "way", "id": 209388381, "nodes": [2196100869, 2196100859, 2196101452, 2196101455, 2196101395, 2196101394, 2196101458, 2196101461, 2196100913, 2196100915, 2196100869], "tags": {"addr:city": "Chicago", "addr:housenumber": "1043", "addr:postcode": "60622", "addr:state": "IL", "addr:street": "North California Avenue", "addr:street:name": "California", "addr:street:prefix": "North", "addr:street:type": "Avenue", "amenity": "bar", "building": "yes", "building:levels": "2", "chicago:building_id": "867167", "name": "Lucy\u2019s", "phone": "+1-312-675-8385", "website": "http://www.lucyschicago.com/"}}, {"type": "way", "id": 209390013, "nodes": [2196110875, 2196111223, 2196111225, 2196110876, 2196110875], "tags": {"addr:housenumber": "2438", "addr:street": "West Division Street", "addr:street:name": "Division", "addr:street:prefix": "West", "addr:street:type": "Street", "amenity": "restaurant", "building": "yes", "building:levels": "2", "chicago:building_id": "322558", "cuisine": "chinese", "name": "New China Restaurant"}}, {"type": "way", "id": 209390479, "nodes": [2196110833, 2196110988, 2196111001, 2196110839, 2196110833], "tags": {"addr:housenumber": "2534", "addr:street": "West Division Street", "addr:street:name": "Division", "addr:street:prefix": "West", "addr:street:type": "Street", "amenity": "restaurant", "building": "yes", "chicago:building_id": "860071", "cuisine": "pizza", "name": "Guerrero's Tacos and Pizza", "wheelchair": "yes"}}, {"type": "way", "id": 209391564, "nodes": [2196110741, 2196111201, 2196111203, 2196110744, 2196110741], "tags": {"addr:housenumber": "2726", "addr:street": "West Division Street", "addr:street:name": "Division", "addr:street:prefix": "West", "addr:street:type": "Street", "amenity": "restaurant", "building": "yes", "building:levels": "2", "chicago:building_id": "322673", "name": "La Bruquena", "wheelchair": "limited"}}, {"type": "way", "id": 209854327, "nodes": [2200128606, 2200128605, 2200128905, 2200128910, 2200128606], "tags": {"addr:city": "Chicago", "addr:housenumber": "2140", "addr:postcode": "60622", "addr:state": "IL", "addr:street": "West Division Street", "addr:street:name": "Division", "addr:street:prefix": "West", "addr:street:type": "Street", "amenity": "cafe", "building": "yes", "chicago:building_id": "868559", "name": "Purple Llama", "phone": "+1-773-687-9900", "website": "http://www.purplellamachicago.com/"}}, {"type": "way", "id": 209864952, "nodes": [2200197714, 3656001344, 2200197830, 2200197827, 2200198076, 2200198085, 2200198037, 2200197719, 2200197714], "tags": {"addr:city": "Chicago", "addr:housenumber": "1531", "addr:postcode": "60622", "addr:state": "IL", "addr:street": "North Damen Avenue", "addr:street:name": "Damen", "addr:street:prefix": "North", "addr:street:type": "Avenue", "amenity": "restaurant", "building": "yes", "building:levels": "1", "chicago:building_id": "309390", "cuisine": "mexican", "name": "Big Star", "phone": "+1-773-235-4039", "website": "http://www.bigstarchicago.com/"}}, {"type": "way", "id": 209865102, "nodes": [2200199931, 2200200048, 2200200807, 2200200690, 2200199931], "tags": {"addr:city": "Chicago", "addr:housenumber": "1559", "addr:postcode": "60622", "addr:state": "IL", "addr:street": "North Milwaukee Avenue", "addr:street:name": "Milwaukee", "addr:street:prefix": "North", "addr:street:type": "Avenue", "amenity": "bar", "building": "yes", "building:levels": "1", "chicago:building_id": "306894", "name": "Links Taproom", "opening_hours": "Mo-Su 11:30-02:00", "phone": "+1- 773-360-7692", "website": "http://www.linkstaproom.com"}}, {"type": "way", "id": 209865386, "nodes": [2200202220, 2200202308, 2200203161, 2200203017, 2200202220], "tags": {"addr:city": "Chicago", "addr:housenumber": "1623", "addr:postcode": "60647", "addr:state": "IL", "addr:street": "North Milwaukee Avenue", "addr:street:name": "Milwaukee", "addr:street:prefix": "North", "addr:street:type": "Avenue", "amenity": "restaurant", "building": "yes", "building:levels": "1", "chicago:building_id": "303574", "name": "Pork & Mindy\u2019s", "phone": "+1-773-799-8759", "website": "https://porkandmindys.com/"}}, {"type": "way", "id": 209865630, "nodes": [2200203181, 2200203246, 2200204258, 2200204442, 2200204292, 2200203589, 2200203181], "tags": {"addr:housenumber": "1639", "addr:street": "North Milwaukee Avenue", "addr:street:name": "Milwaukee", "addr:street:prefix": "North", "addr:street:type": "Avenue", "amenity": "restaurant", "brand": "Wingstop", "brand:wikidata": "Q8025339", "brand:wikipedia": "en:Wingstop", "building": "yes", "chicago:building_id": "302761", "cuisine": "wings", "name": "Wingstop"}}, {"type": "way", "id": 209866943, "nodes": [2200219542, 2200219709, 2200219736, 2200219565, 2200219542], "tags": {"addr:city": "Chicago", "addr:housenumber": "1747", "addr:postcode": "60647", "addr:state": "IL", "addr:street": "North Damen Avenue", "addr:street:type": "Avenue", "amenity": "restaurant", "name": "Mindy's Hot Chocolate", "phone": "+1-773-489-1747", "website": "http://www.hotchocolatechicago.com/"}}, {"type": "way", "id": 209868248, "nodes": [2200201023, 2200201093, 2200201390, 2200201393, 2200201025, 2200201023], "tags": {"addr:housenumber": "2013", "addr:street": "West North Avenue", "addr:street:name": "North", "addr:street:prefix": "West", "addr:street:type": "Avenue", "amenity": "bar", "building": "yes", "building:levels": "3", "chicago:building_id": "306183", "name": "Estelle's"}}]}