{"version": 0.6, "generator": "Overpass API 0.7.56.1004 6cd3eaec", "osm3s": {"timestamp_osm_base": "2020-07-22T02:00:02Z", "copyright": "The data included in this document is from www.openstreetmap.org. The data is made available under ODbL."}, "elements": [{"type": "node", "id": 699226527, "lat": 41.8586987, "lon": -87.6606769, "tags": {"amenity": "cafe", "name": "Efebina's"}}, {"type": "node", "id": 1796488740, "lat": 41.8577506, "lon": -87.6627852, "tags": {"amenity": "cafe", "name": "Jumping Bean"}}, {"type": "node", "id": 2199651694, "lat": 41.8574915, "lon": -87.6645397}, {"type": "node", "id": 2199651696, "lat": 41.8574916, "lon": -87.6645654}, {"type": "node", "id": 2199651845, "lat": 41.857504, "lon": -87.6645652}, {"type": "node", "id": 2199651851, "lat": 41.8575042, "lon": -87.6645964}, {"type": "node", "id": 2199651883, "lat": 41.8575065, "lon": -87.6645157}, {"type": "node", "id": 2199651889, "lat": 41.8575066, "lon": -87.6645395}, {"type": "node", "id": 2199652436, "lat": 41.8575573, "lon": -87.6676041}, {"type": "node", "id": 2199652486, "lat": 41.8575596, "lon": -87.6675215}, {"type": "node", "id": 2199653406, "lat": 41.8576589, "lon": -87.6676067}, {"type": "node", "id": 2199653408, "lat": 41.8576611, "lon": -87.6675241}, {"type": "node", "id": 2199653459, "lat": 41.8577, "lon": -87.6645283}, {"type": "node", "id": 2199653460, "lat": 41.8577004, "lon": -87.6645981}, {"type": "node", "id": 2203214988, "lat": 41.857623, "lon": -87.6595772}, {"type": "node", "id": 2203215013, "lat": 41.8576254, "lon": -87.6595074}, {"type": "node", "id": 2203215800, "lat": 41.8578166, "lon": -87.6595862}, {"type": "node", "id": 2203215803, "lat": 41.8578189, "lon": -87.6595164}, {"type": "node", "id": 3239038814, "lat": 41.8578459, "lon": -87.6565924, "tags": {"amenity": "restaurant", "name": "Honky Tonk BBQ"}}, {"type": "node", "id": 3919513824, "lat": 41.8578685, "lon": -87.6708525, "tags": {"amenity": "restaurant", "name": "Taqueria El Mezquite"}}, {"type": "node", "id": 4075429622, "lat": 41.8578003, "lon": -87.6574498, "tags": {"addr:city": "Chicago", "addr:housenumber": "1227", "addr:postcode": "60608", "addr:state": "IL", "addr:street": "West 18th Street", "amenity": "restaurant", "name": "Dusek's", "phone": "+1-312-526-3851", "website": "https://www.dusekschicago.com/"}}, {"type": "node", "id": 4075429624, "lat": 41.856988, "lon": -87.6621299, "tags": {"amenity": "restaurant", "name": "La Casa del Pueblo Taqueria"}}, {"type": "node", "id": 4075429625, "lat": 41.8553587, "lon": -87.6630543, "tags": {"amenity": "restaurant", "name": "Taqueria El Milagro"}}, {"type": "node", "id": 4356614733, "lat": 41.8581709, "lon": -87.655731, "tags": {"addr:city": "Chicago", "addr:country": "US", "addr:housenumber": "1160", "addr:postcode": "60608", "addr:state": "IL", "addr:street": "West 18th Street", "amenity": "restaurant", "cuisine": "mexican", "name": "La Vaca Margarita Bar", "outdoor_seating": "yes", "phone": "+1-312-829-1147", "takeaway": "yes", "toilets:wheelchair": "no", "wheelchair": "yes"}}, {"type": "node", "id": 4426305522, "lat": 41.8577935, "lon": -87.6556289, "tags": {"amenity": "restaurant", "name": "Perez Restaurant", "phone": "(312) 421-3631"}}, {"type": "node", "id": 5168246245, "lat": 41.8579032, "lon": -87.6534748, "tags": {"addr:city": "Chicago", "addr:housenumber": "1800", "addr:postcode": "60608", "addr:state": "IL", "addr:street": "South Carpenter Street", "amenity": "restaurant", "cuisine": "vietnamese;asian", "description": "Bib Gourmand Recommendation", "name": "HaiSous Vietnamese Kitchen", "phone": "+1-312-702-1303", "website": "https://www.haisous.com"}}, {"type": "node", "id": 5412527235, "lat": 41.8525896, "lon": -87.6588982}, {"type": "node", "id": 5412527236, "lat": 41.8526696, "lon": -87.6589006}, {"type": "node", "id": 5412527237, "lat": 41.8526644, "lon": -87.6592065}, {"type": "node", "id": 5412527238, "lat": 41.8525844, "lon": -87.6592041}, {"type": "node", "id": 5699829867, "lat": 41.8544381, "lon": -87.65616, "tags": {"addr:city": "Chicago", "addr:housenumber": "2023", "addr:postcode": "60608", "addr:state": "IL", "addr:street": "South Racine Avenue", "amenity": "cafe", "internet_access": "yes", "name": "Step Down Caf\u00e9", "phone": "+1-312-877-5410", "website": "http://stepdowncafepilsen.com/"}}, {"type": "node", "id": 5792369884, "lat": 41.8533755, "lon": -87.6526694, "tags": {"addr:city": "Chicago", "addr:housenumber": "2101", "addr:postcode": "60608", "addr:state": "IL", "addr:street": "South Carpenter Street", "amenity": "bar", "name": "Lo Rez Brewing and Taproom", "phone": "+1-888-404-2262", "website": "http://lorezbrewing.com/"}}, {"type": "node", "id": 5928912596, "lat": 41.8580162, "lon": -87.6595637, "tags": {"addr:city": "Chicago", "addr:housenumber": "1314", "addr:postcode": "60608", "addr:state": "IL", "addr:street": "West 18th Street", "amenity": "restaurant", "cuisine": "mexican", "name": "Casa \u00cdnd\u00edg\u014d", "opening_hours": "Tu-Fr 10:30-20:00; Su-Sa 09:00-15:30", "phone": "+1- 312-929-3653", "website": "http://pilsenkitchen.com"}}, {"type": "node", "id": 5928912597, "lat": 41.8577741, "lon": -87.660619, "tags": {"addr:city": "Chicago", "addr:housenumber": "1345", "addr:postcode": "60608", "addr:state": "IL", "addr:street": "West 18th Street", "amenity": "bar", "brewery": "yes", "name": "Harbee Liquor & Tavern", "phone": "+1-312-733-0333"}}, {"type": "node", "id": 6126571201, "lat": 41.8574586, "lon": -87.6663934, "tags": {"addr:city": "Chicago", "addr:housenumber": "1808", "addr:postcode": "60608", "addr:state": "IL", "addr:street": "South Ashland Avenue", "amenity": "restaurant", "cuisine": "mexican;carnitas", "drink:alcohol": "no", "name": "Sabas Vega", "phone": "+1 312-666-5180", "website": "https://donrafarestaurants.com/sabasvega/"}}, {"type": "node", "id": 6126580564, "lat": 41.8578806, "lon": -87.6702407, "tags": {"addr:city": "Chicago", "addr:housenumber": "1738", "addr:postcode": "60608", "addr:state": "IL", "addr:street": "West 18th Street", "amenity": "cafe", "cuisine": "coffee_shop", "name": "Cafe Mestizo", "phone": "+1 312-425-5724"}}, {"type": "node", "id": 6251767399, "lat": 41.8580855, "lon": -87.6709499, "tags": {"addr:city": "Chicago", "addr:housenumber": "1758", "addr:postcode": "60608", "addr:state": "IL", "addr:street": "West 18th Street", "amenity": "restaurant", "name": "5 Rabanitos Restaurante and Taqueria", "phone": "+1-312-285-2710", "website": "https://5rabanitosdotcom.wordpress.com/"}}, {"type": "node", "id": 6263803114, "lat": 41.8580471, "lon": -87.6579046, "tags": {"addr:city": "Chicago", "addr:housenumber": "1236", "addr:postcode": "60608", "addr:state": "IL", "addr:street": "West 18th Street", "amenity": "restaurant", "name": "Azul 18", "phone": "+1-312 -285-2964", "website": "http://azul18chicago.com/"}}, {"type": "node", "id": 6280027510, "lat": 41.8580582, "lon": -87.6596505, "tags": {"addr:city": "Chicago", "addr:housenumber": "1316", "addr:postcode": "60608", "addr:state": "IL", "addr:street": "West 18th Street", "amenity": "restaurant", "cuisine": "ramen;japanese;asian", "name": "Furious Spoon - Pilsen", "opening_hours": "Mo-Th 16:00-23:00; Fr 16:00-00:00; Sa 11:00-00:00; Su 11:00-23:00", "phone": "+1-312-624-8461", "website": "http://furiousramen.com"}}, {"type": "node", "id": 6280472914, "lat": 41.8548431, "lon": -87.6684053, "tags": {"addr:city": "Chicago", "addr:housenumber": "1659", "addr:postcode": "60608", "addr:state": "IL", "addr:street": "West Cullerton Street", "amenity": "bar", "name": "Caminos De Michoacan Bar", "phone": "+1-312-226-0687", "website": "https://www.tpskaraoke.com/karaoke-fridays-caminos-de-michoacan-bar"}}, {"type": "node", "id": 6280484810, "lat": 41.8579942, "lon": -87.6642865, "tags": {"addr:city": "Chicago", "addr:housenumber": "1510", "addr:postcode": "60608", "addr:state": "IL", "addr:street": "West 18th Street", "amenity": "restaurant", "name": "Canton Regio", "phone": "+1-312-733-3045", "website": "https://cantonregio.business.site/"}}, {"type": "node", "id": 6280524453, "lat": 41.8575892, "lon": -87.6697952, "tags": {"addr:city": "Chicago", "addr:housenumber": "1725", "addr:postcode": "60608", "addr:state": "IL", "addr:street": "West 18th Street", "amenity": "restaurant", "name": "Carnitas Uruapan Restaurant", "phone": "+1-312-226-2654", "website": "http://www.carnitasuruapanchi.com/"}}, {"type": "node", "id": 6284702362, "lat": 41.8577871, "lon": -87.6538182, "tags": {"addr:city": "Chicago", "addr:housenumber": "1113", "addr:postcode": "60608", "addr:state": "IL", "addr:street": "West 18th Street", "amenity": "cafe", "name": "Don Pedro Carnitas", "phone": "+1-312-829-4757"}}, {"type": "node", "id": 6285868671, "lat": 41.8553229, "lon": -87.6630105, "tags": {"addr:city": "Chicago", "addr:housenumber": "1972", "addr:postcode": "60608", "addr:state": "IL", "addr:street": "South Blue Island Avenue", "amenity": "restaurant", "name": "El Milagro Tortilla", "phone": "+1-312-421-7443", "website": "http://www.el-milagro.com/"}}, {"type": "node", "id": 6291551593, "lat": 41.8580305, "lon": -87.6634252, "tags": {"addr:city": "Chicago", "addr:housenumber": "1454", "addr:postcode": "60608", "addr:state": "IL", "addr:street": "West 18th Street", "amenity": "restaurant", "name": "Frida Room", "phone": "+1-312-631-3620"}}, {"type": "node", "id": 6294594846, "lat": 41.8578174, "lon": -87.6567816, "tags": {"addr:city": "Chicago", "addr:housenumber": "1800", "addr:postcode": "60608", "addr:state": "IL", "addr:street": "South Racine Avenue", "amenity": "restaurant", "name": "Honky Tonk BBQ", "phone": "+1-312-226-7427", "website": "http://www.honkytonkbbqchicago.com/"}}, {"type": "node", "id": 6300146985, "lat": 41.8575391, "lon": -87.6697878, "tags": {"addr:city": "Chicago", "addr:housenumber": "1727", "addr:postcode": "60608", "addr:state": "IL", "addr:street": "West 18th Street", "amenity": "cafe", "name": "INTERSECT", "phone": "+1-312-846-6805", "website": "https://www.intersectcoffee.com/"}}, {"type": "node", "id": 6300537487, "lat": 41.8578025, "lon": -87.6573946, "tags": {"addr:city": "Chicago", "addr:housenumber": "1227", "addr:postcode": "60608", "addr:state": "IL", "addr:street": "West 18th Street", "amenity": "bar", "name": "Punch House", "phone": "+1-312-526-3851", "website": "https://www.punchhousechicago.com/"}}, {"type": "node", "id": 6303127333, "lat": 41.8579759, "lon": -87.6655859, "tags": {"addr:city": "Chicago", "addr:housenumber": "1544", "addr:postcode": "60608", "addr:state": "IL", "addr:street": "West 18th Street", "amenity": "restaurant", "name": "Taqueria Los Comales 3", "phone": "+1-312-666-2251", "website": "https://www.loscomales.com/"}}, {"type": "node", "id": 6305247842, "lat": 41.8544099, "lon": -87.6757334, "tags": {"addr:city": "Chicago", "addr:housenumber": "2015", "addr:postcode": "60608", "addr:state": "IL", "addr:street": "South Damen Avenue", "amenity": "bar", "name": "The Barrel", "phone": "+1-312-754-0156"}}, {"type": "node", "id": 6306942282, "lat": 41.8586774, "lon": -87.6606638, "tags": {"addr:city": "Chicago", "addr:housenumber": "1640", "addr:postcode": "60608", "addr:state": "IL", "addr:street": "South Blue Island Avenue", "amenity": "bar", "name": "Twisted Cantina", "phone": "+1-312-265-0923", "website": "http://twistedcantina.com/"}}, {"type": "node", "id": 6315246763, "lat": 41.8577533, "lon": -87.6578625, "tags": {"addr:city": "Chicago", "addr:housenumber": "1802", "addr:postcode": "60608", "addr:state": "IL", "addr:street": "South Allport Street", "amenity": "bar", "name": "The Green Room Tap", "phone": "+1-773-360-3489"}}, {"type": "node", "id": 6315605303, "lat": 41.857978, "lon": -87.6680425, "tags": {"addr:city": "Chicago", "addr:housenumber": "1646", "addr:postcode": "60608", "addr:state": "IL", "addr:street": "West 18th Street", "amenity": "restaurant", "name": "The Jibarito Stop", "phone": "+1-312-988-0585", "website": "https://thejibaritostop.com/Home/HomeManager"}}, {"type": "node", "id": 6315616974, "lat": 41.8581626, "lon": -87.6599082, "tags": {"addr:city": "Chicago", "addr:housenumber": "1324", "addr:postcode": "60608", "addr:state": "IL", "addr:street": "West 18th Street", "amenity": "cafe", "name": "The Juice House", "phone": "+1-312-846-6844"}}, {"type": "node", "id": 6316993588, "lat": 41.852777, "lon": -87.6526641, "tags": {"addr:city": "Chicago", "addr:housenumber": "2155", "addr:postcode": "60608", "addr:state": "IL", "addr:street": "South Carpenter Street", "amenity": "cafe", "name": "Workwell Food and Beverage", "phone": "+1-844-245-4964", "website": "http://dockspace.co/"}}, {"type": "node", "id": 6317051145, "lat": 41.8574736, "lon": -87.6692665, "tags": {"addr:city": "Chicago", "addr:housenumber": "1711", "addr:postcode": "60608", "addr:state": "IL", "addr:street": "West 18th Street", "amenity": "cafe", "name": "Xurro", "phone": "+1-773-823-9571", "website": "https://www.churrofactory.com/"}}, {"type": "node", "id": 6322798692, "lat": 41.8575287, "lon": -87.655619, "tags": {"addr:city": "Chicago", "addr:housenumber": "1163", "addr:postcode": "60608", "addr:state": "IL", "addr:street": "West 18th Street", "amenity": "restaurant", "name": "Monnie Burke\u2019s", "phone": "+1-312-243-2410", "website": "https://www.monnieburkes.com/"}}, {"type": "node", "id": 6397277460, "lat": 41.8578137, "lon": -87.6579875, "tags": {"addr:city": "Chicago", "addr:housenumber": "1239", "addr:postcode": "60608", "addr:state": "IL", "addr:street": "West 18th Street", "amenity": "restaurant", "cuisine": "american;american_new;new_american", "name": "S.K.Y.", "phone": "+1-312-846-1077", "website": "https://www.skyrestaurantchicago.com"}}, {"type": "way", "id": 209782483, "nodes": [2199651694, 2199651696, 2199651845, 2199651851, 2199653460, 2199653459, 2199651883, 2199651889, 2199651694], "tags": {"addr:city": "Chicago", "addr:housenumber": "1519", "addr:postcode": "60608", "addr:state": "IL", "addr:street": "West 18th Street", "addr:street:name": "18th", "addr:street:prefix": "West", "addr:street:type": "Street", "amenity": "restaurant", "building": "yes", "building:levels": "2", "chicago:building_id": "378444", "name": "Pl-zen", "phone": "+1-312-733-0248", "website": "http://pl-zen.com/"}}, {"type": "way", "id": 209782710, "nodes": [2199652436, 2199653406, 2199653408, 2199652486, 2199652436], "tags": {"addr:housenumber": "1635", "addr:street": "West 18th Street", "addr:street:name": "18th", "addr:street:prefix": "West", "addr:street:type": "Street", "amenity": "cafe", "building": "yes", "chicago:building_id": "378524", "name": "Monsivais Cafe"}}, {"type": "way", "id": 210222147, "nodes": [2203214988, 2203215800, 2203215803, 2203215013, 2203214988], "tags": {"addr:city": "Chicago", "addr:housenumber": "1315", "addr:postcode": "60608", "addr:state": "IL", "addr:street": "West 18th Street", "addr:street:name": "18th", "addr:street:prefix": "West", "addr:street:type": "Street", "amenity": "restaurant", "building": "yes", "building:levels": "2", "chicago:building_id": "378247", "name": "Pollo Express", "phone": "+1-312-829-1550"}}, {"type": "way", "id": 561295402, "nodes": [5412527235, 5412527236, 5412527237, 5412527238, 5412527235], "tags": {"addr:city": "Chicago", "addr:housenumber": "1316", "addr:postcode": "60608", "addr:state": "IL", "addr:street": "West Cermak Road", "amenity": "cafe", "building": "retail", "cuisine": "donut", "name": "Dunkin' Donuts"}}]}