{"version": 0.6, "generator": "Overpass API 0.7.56.1004 6cd3eaec", "osm3s": {"timestamp_osm_base": "2020-07-22T05:21:02Z", "copyright": "The data included in this document is from www.openstreetmap.org. The data is made available under ODbL."}, "elements": [{"type": "node", "id": 1700855288, "lat": 41.9297395, "lon": -87.7072028, "tags": {"amenity": "restaurant", "name": "El Cid #2"}}, {"type": "node", "id": 1700855295, "lat": 41.927807, "lon": -87.706844, "tags": {"addr:city": "Chicago", "addr:housenumber": "2545", "addr:postcode": "60647", "addr:state": "IL", "addr:street": "North Kedzie Boulevard", "amenity": "bar", "drive_through": "no", "internet_access": "no", "name": "Young American", "outdoor_seating": "no", "phone": "+1-773-687-8385", "website": "https://www.youngamericanbar.com"}}, {"type": "node", "id": 1700855300, "lat": 41.927684, "lon": -87.706813, "tags": {"addr:city": "Chicago", "addr:housenumber": "2537", "addr:postcode": "60647", "addr:state": "IL", "addr:street": "North Kedzie Boulevard", "amenity": "restaurant", "name": "Lula Cafe", "outdoor_seating": "yes", "phone": "+1-773-489-9554", "smoking": "no", "website": "http://lulacafe.com/"}}, {"type": "node", "id": 1700855310, "lat": 41.9279155, "lon": -87.7051197, "tags": {"addr:city": "Chicago", "addr:housenumber": "2557", "addr:postcode": "60618", "addr:street": "North Milwaukee Avenue", "amenity": "cafe", "atm": "yes", "drive_through": "no", "internet_access": "wlan", "name": "New Wave Coffee", "outdoor_seating": "yes", "phone": "+1-773-489-0646", "smoking": "no", "takeaway": "yes", "website": "http://newwavecoffee.com/", "wheelchair": "no", "wheelchair:description": "accessible toilets but one step at the entrance"}}, {"type": "node", "id": 1700855329, "lat": 41.9274808, "lon": -87.7044772, "tags": {"addr:city": "Chicago", "addr:housenumber": "2535", "addr:postcode": "60647", "addr:state": "IL", "addr:street": "North Milwaukee Avenue", "amenity": "bar", "name": "Rocking Horse", "phone": "+1-773-486-0011", "website": "https://www.rockinghorsechicago.com/"}}, {"type": "node", "id": 1700855335, "lat": 41.9355781, "lon": -87.7053238, "tags": {"addr:city": "Chicago", "addr:housenumber": "2956", "addr:postcode": "60618", "addr:state": "IL", "addr:street": "North Albany Avenue", "amenity": "bar", "name": "Small Bar", "phone": "+1-773-509-9888", "website": "http://www.theoriginalsmallbar.com/"}}, {"type": "node", "id": 1755629936, "lat": 41.9297941, "lon": -87.7092072}, {"type": "node", "id": 1755629943, "lat": 41.9297965, "lon": -87.7093006}, {"type": "node", "id": 1755630510, "lat": 41.9299571, "lon": -87.7090524}, {"type": "node", "id": 1755630748, "lat": 41.930032, "lon": -87.707248}, {"type": "node", "id": 1755630750, "lat": 41.9300326, "lon": -87.7070918}, {"type": "node", "id": 1755630752, "lat": 41.930034, "lon": -87.7071102}, {"type": "node", "id": 1755630754, "lat": 41.9300348, "lon": -87.7069944}, {"type": "node", "id": 1755630784, "lat": 41.9300545, "lon": -87.7070916}, {"type": "node", "id": 1755630786, "lat": 41.9300546, "lon": -87.7071118}, {"type": "node", "id": 1755630822, "lat": 41.9300955, "lon": -87.7093237}, {"type": "node", "id": 1755630825, "lat": 41.9301063, "lon": -87.7092979}, {"type": "node", "id": 1755630828, "lat": 41.9301102, "lon": -87.7072491}, {"type": "node", "id": 1755630831, "lat": 41.930113, "lon": -87.7069955}, {"type": "node", "id": 1755640402, "lat": 41.9326003, "lon": -87.7130001}, {"type": "node", "id": 1755640571, "lat": 41.9326391, "lon": -87.7130659}, {"type": "node", "id": 1755641653, "lat": 41.9328554, "lon": -87.7127349}, {"type": "node", "id": 1755641768, "lat": 41.9328928, "lon": -87.7128007}, {"type": "node", "id": 2162237021, "lat": 41.9356172, "lon": -87.6975623, "tags": {"amenity": "restaurant", "name": "Orbit Room"}}, {"type": "node", "id": 2196712373, "lat": 41.9264617, "lon": -87.7029669}, {"type": "node", "id": 2196712999, "lat": 41.9265416, "lon": -87.7025251}, {"type": "node", "id": 2196713072, "lat": 41.9265503, "lon": -87.7031057}, {"type": "node", "id": 2196713167, "lat": 41.926573, "lon": -87.7024881}, {"type": "node", "id": 2196713554, "lat": 41.9265922, "lon": -87.7024952}, {"type": "node", "id": 2196713586, "lat": 41.9266717, "lon": -87.7027297}, {"type": "node", "id": 2196713835, "lat": 41.9267998, "lon": -87.7028203}, {"type": "node", "id": 2196733822, "lat": 41.9318866, "lon": -87.7023824}, {"type": "node", "id": 2196733857, "lat": 41.9318937, "lon": -87.7019377}, {"type": "node", "id": 2196733985, "lat": 41.9319497, "lon": -87.7023855}, {"type": "node", "id": 2196734001, "lat": 41.931962, "lon": -87.7023854}, {"type": "node", "id": 2196734010, "lat": 41.9319648, "lon": -87.7023872}, {"type": "node", "id": 2196734021, "lat": 41.9319703, "lon": -87.7023871}, {"type": "node", "id": 2196734025, "lat": 41.9319729, "lon": -87.7023595}, {"type": "node", "id": 2196734036, "lat": 41.9319758, "lon": -87.7023871}, {"type": "node", "id": 2196734040, "lat": 41.9319784, "lon": -87.702365}, {"type": "node", "id": 2196734041, "lat": 41.9319785, "lon": -87.7023815}, {"type": "node", "id": 2196734045, "lat": 41.9319798, "lon": -87.7023687}, {"type": "node", "id": 2196734046, "lat": 41.9319798, "lon": -87.702376}, {"type": "node", "id": 2196734049, "lat": 41.9319802, "lon": -87.7019405}, {"type": "node", "id": 2196734852, "lat": 41.9321972, "lon": -87.6982412}, {"type": "node", "id": 2196734859, "lat": 41.932198, "lon": -87.6981512}, {"type": "node", "id": 2196735073, "lat": 41.9322589, "lon": -87.6982425}, {"type": "node", "id": 2196735074, "lat": 41.932259, "lon": -87.6982572}, {"type": "node", "id": 2196735348, "lat": 41.9323701, "lon": -87.6982432}, {"type": "node", "id": 2196735349, "lat": 41.9323701, "lon": -87.6982597}, {"type": "node", "id": 2196735588, "lat": 41.9324743, "lon": -87.6982458}, {"type": "node", "id": 2196735590, "lat": 41.9324752, "lon": -87.6981558}, {"type": "node", "id": 2196790368, "lat": 41.942518, "lon": -87.7026838}, {"type": "node", "id": 2196790640, "lat": 41.9426438, "lon": -87.7028645}, {"type": "node", "id": 2196790727, "lat": 41.9426699, "lon": -87.7028661}, {"type": "node", "id": 2196790730, "lat": 41.9426714, "lon": -87.7026327}, {"type": "node", "id": 2285167402, "lat": 41.9339805, "lon": -87.7072158, "tags": {"addr:housenumber": "2901", "addr:street": "North Kedzie Avenue", "amenity": "restaurant", "cuisine": "mexican", "name": "La Cocina"}}, {"type": "node", "id": 2393667680, "lat": 41.9428218, "lon": -87.6908115}, {"type": "node", "id": 2393667751, "lat": 41.9438427, "lon": -87.6908432}, {"type": "node", "id": 2393685997, "lat": 41.9433922, "lon": -87.6922414}, {"type": "node", "id": 2393686008, "lat": 41.9435709, "lon": -87.6922429}, {"type": "node", "id": 2404188173, "lat": 41.9438372, "lon": -87.6914896}, {"type": "node", "id": 2422425841, "lat": 41.92796, "lon": -87.697351, "tags": {"addr:city": "Chicago", "addr:housenumber": "2543", "addr:postcode": "60618", "addr:street": "North California Avenue", "amenity": "cafe", "brand": "Starbucks", "brand:wikidata": "Q37158", "brand:wikipedia": "en:Starbucks", "cuisine": "coffee_shop", "drive_through": "no", "name": "Starbucks", "official_name": "Starbucks Coffee", "outdoor_seating": "yes", "takeaway": "yes"}}, {"type": "node", "id": 2422436953, "lat": 41.9389697, "lon": -87.6979732, "tags": {"addr:city": "Chicago", "addr:housenumber": "3144", "addr:postcode": "60618", "addr:street": "North California Avenue", "amenity": "restaurant", "cuisine": "mexican", "name": "Taqueria Traspasada", "wheelchair": "yes"}}, {"type": "node", "id": 2495670456, "lat": 41.931995, "lon": -87.698314, "tags": {"addr:city": "Chicago", "addr:housenumber": "2815", "addr:postcode": "60618", "addr:street": "West Diversey Parkway", "amenity": "restaurant", "cuisine": "mexican", "name": "L'Patron", "outdoor_seating": "no", "takeaway": "yes"}}, {"type": "node", "id": 2516917179, "lat": 41.937096, "lon": -87.69797, "tags": {"addr:city": "Chicago", "addr:housenumber": "3046", "addr:postcode": "60618", "addr:street": "North California Avenue", "amenity": "bar", "name": "Clyde's"}}, {"type": "node", "id": 2601552510, "lat": 41.9407935, "lon": -87.6924228}, {"type": "node", "id": 2601552511, "lat": 41.9407937, "lon": -87.6925988}, {"type": "node", "id": 2601552512, "lat": 41.9407993, "lon": -87.6907578}, {"type": "node", "id": 2601552513, "lat": 41.9408234, "lon": -87.6927284}, {"type": "node", "id": 2601552514, "lat": 41.9409246, "lon": -87.6928977}, {"type": "node", "id": 2601552515, "lat": 41.9409972, "lon": -87.6929537}, {"type": "node", "id": 2601552516, "lat": 41.9414811, "lon": -87.6929985}, {"type": "node", "id": 2601552517, "lat": 41.9419666, "lon": -87.6907935}, {"type": "node", "id": 2601627512, "lat": 41.9421788, "lon": -87.7082946, "tags": {"addr:city": "Chicago", "addr:housenumber": "3340", "addr:postcode": "60618", "addr:state": "IL", "addr:street": "North Kedzie Avenue", "amenity": "bar", "name": "Revolution Brewing - Kedzie Brewery", "phone": "+1-773-588-2267", "website": "https://revbrew.com/visit/brewery"}}, {"type": "node", "id": 2612365316, "lat": 41.9319208, "lon": -87.7002647, "tags": {"addr:city": "Chicago", "addr:housenumber": "2901", "addr:postcode": "60618", "addr:state": "IL", "addr:street": "West Diversey Parkway", "amenity": "restaurant", "cuisine": "Tequila_Bar", "name": "Masa Azul", "phone": "(773) 687-0300", "website": "http://www.masaazul.com/"}}, {"type": "node", "id": 2612373491, "lat": 41.9335938, "lon": -87.7073464, "tags": {"addr:city": "Chicago", "addr:housenumber": "2853", "addr:street": "North Kedzie Avenue", "amenity": "restaurant", "cuisine": "Yakitori", "name": "Yusho", "phone": "(773) 904-8558", "website": "https://yusho-chicago.com/"}}, {"type": "node", "id": 2761642364, "lat": 41.9253484, "lon": -87.7010478, "tags": {"addr:city": "Chicago", "addr:housenumber": "2421", "addr:postcode": "60647", "addr:state": "IL", "addr:street": "North Milwaukee Avenue", "amenity": "bar", "name": "The Whistler", "phone": "+1-773-227-3530", "website": "https://whistlerchicago.com/", "wheelchair": "yes"}}, {"type": "node", "id": 2904923307, "lat": 41.9275368, "lon": -87.6976401, "tags": {"addr:housenumber": "2528", "addr:street": "North California Avenue", "amenity": "restaurant", "name": "The General", "source:name": "survey"}}, {"type": "node", "id": 2923574401, "lat": 41.929118, "lon": -87.707174, "tags": {"addr:city": "Chicago", "addr:housenumber": "2607", "addr:postcode": "60647", "addr:state": "IL", "addr:street": "North Milwaukee Avenue", "amenity": "restaurant", "cuisine": "italian", "name": "Reno", "phone": "+1-773-697-4234", "smoking": "no", "website": "https://www.renochicago.com/"}}, {"type": "node", "id": 3268302073, "lat": 41.9307708, "lon": -87.7104473, "tags": {"addr:city": "Chicago", "addr:country": "US", "addr:housenumber": "2732", "addr:place": "Logan Square", "addr:postcode": "60647", "addr:state": "IL", "addr:street": "North Milwaukee Avenue", "amenity": "bar", "cuisine": "burger", "name": "The Harding Tavern", "phone": "+1-773-697-9340", "website": "https://www.thehardingtavern.com/"}}, {"type": "node", "id": 3430976823, "lat": 41.9289586, "lon": -87.7069536, "tags": {"addr:city": "Chicago", "addr:housenumber": "2610", "addr:postcode": "60647", "addr:state": "IL", "addr:street": "North Milwaukee Avenue", "amenity": "bar", "name": "Webster's Wine Bar"}}, {"type": "node", "id": 3551740566, "lat": 41.9296241, "lon": -87.7085498, "tags": {"amenity": "restaurant", "cuisine": "chinese", "name": "Choi's Chinese"}}, {"type": "node", "id": 3551741498, "lat": 41.9298264, "lon": -87.7072052, "tags": {"amenity": "restaurant", "cuisine": "tapas", "name": "Azucar"}}, {"type": "node", "id": 3551742205, "lat": 41.929915, "lon": -87.7072122, "tags": {"amenity": "cafe", "name": "Flipside Cafe"}}, {"type": "node", "id": 3551744333, "lat": 41.929747, "lon": -87.7087557, "tags": {"addr:city": "Chicago", "addr:housenumber": "2642", "addr:postcode": "60647", "addr:state": "IL", "addr:street": "North Milwaukee Avenue", "amenity": "cafe", "cuisine": "coffee_shop", "name": "Intelligentsia", "phone": "+1-773-945-1690", "website": "https://www.intelligentsiacoffee.com/logan-square-coffeebar"}}, {"type": "node", "id": 3551766819, "lat": 41.9321449, "lon": -87.7071859, "tags": {"addr:city": "Chicago", "addr:housenumber": "3154", "addr:postcode": "60647", "addr:state": "IL", "addr:street": "West Diversey Avenue", "amenity": "bar", "name": "Lost Lake", "phone": "+1-773-293-6048", "website": "http://www.lostlaketiki.com/"}}, {"type": "node", "id": 3551769093, "lat": 41.93214, "lon": -87.7071042, "tags": {"amenity": "restaurant", "cuisine": "chinese", "name": "Thank You.", "takeaway": "only"}}, {"type": "node", "id": 3551784838, "lat": 41.9275483, "lon": -87.7046187, "tags": {"addr:city": "Chicago", "addr:housenumber": "2539", "addr:postcode": "60647", "addr:state": "IL", "addr:street": "North Milwaukee Avenue", "amenity": "restaurant", "cuisine": "thai", "name": "Trike"}}, {"type": "node", "id": 3551892777, "lat": 41.9343813, "lon": -87.7158349, "tags": {"amenity": "restaurant", "cuisine": "mexican", "name": "Tacos Tequilas"}}, {"type": "node", "id": 3551896302, "lat": 41.9337049, "lon": -87.7152636, "tags": {"amenity": "restaurant", "cuisine": "thai", "name": "The Spice"}}, {"type": "node", "id": 3551904715, "lat": 41.9333478, "lon": -87.713791, "tags": {"amenity": "restaurant", "brand": "Giordano's Pizzeria", "brand:wikidata": "Q5563393", "brand:wikipedia": "en:Giordano's Pizzeria", "cuisine": "pizza", "name": "Giordano's Pizzeria"}}, {"type": "node", "id": 3551945144, "lat": 41.9393459, "lon": -87.7163315, "tags": {"amenity": "bar", "name": "Late Bar"}}, {"type": "node", "id": 3552123092, "lat": 41.9277148, "lon": -87.6973415, "tags": {"addr:city": "Chicago", "addr:housenumber": "2535", "addr:postcode": "60647", "addr:state": "IL", "addr:street": "North California Avenue", "amenity": "restaurant", "name": "Buona Terra", "phone": "+1-773-289-3800", "website": "http://www.buona-terra.com/"}}, {"type": "node", "id": 3552123473, "lat": 41.9276449, "lon": -87.6976526, "tags": {"amenity": "restaurant", "cuisine": "thai", "name": "Anong"}}, {"type": "node", "id": 3552127034, "lat": 41.9271765, "lon": -87.69713, "tags": {"addr:city": "Chicago", "addr:housenumber": "2515", "addr:postcode": "60647", "addr:state": "IL", "addr:street": "North California Avenue", "amenity": "restaurant", "cuisine": "korean", "name": "Gosu", "phone": "+1-773-276-7330", "website": "http://www.gosuchicago.com/"}}, {"type": "node", "id": 3552127994, "lat": 41.9273063, "lon": -87.6972986, "tags": {"amenity": "restaurant", "cuisine": "sushi", "name": "Hachi's Kitchen"}}, {"type": "node", "id": 3555057608, "lat": 41.9426005, "lon": -87.6908138}, {"type": "node", "id": 3555057609, "lat": 41.9419597, "lon": -87.6930147}, {"type": "node", "id": 3555057610, "lat": 41.9421048, "lon": -87.6930373}, {"type": "node", "id": 3555057611, "lat": 41.942257, "lon": -87.6930804}, {"type": "node", "id": 3555057612, "lat": 41.9423871, "lon": -87.6931299}, {"type": "node", "id": 3555057613, "lat": 41.9425541, "lon": -87.6932184}, {"type": "node", "id": 3555057614, "lat": 41.9429017, "lon": -87.6934627}, {"type": "node", "id": 3555057622, "lat": 41.9433671, "lon": -87.6937835}, {"type": "node", "id": 3555057623, "lat": 41.9429584, "lon": -87.6935016}, {"type": "node", "id": 3567139344, "lat": 41.9433764, "lon": -87.6932131}, {"type": "node", "id": 3574954894, "lat": 41.9322163, "lon": -87.7014748, "tags": {"addr:city": "Chicago", "addr:housenumber": "2934", "addr:postcode": "60647", "addr:state": "IL", "addr:street": "West Diversey Avenue", "amenity": "restaurant", "name": "Son of a Butcher by Whisk", "phone": "+1-773-687-9709", "website": "https://sobutcher.com/"}}, {"type": "node", "id": 3575010907, "lat": 41.9325834, "lon": -87.7134313, "tags": {"amenity": "restaurant", "cuisine": "chinese", "name": "Friendship Chinese"}}, {"type": "node", "id": 3575016093, "lat": 41.9293918, "lon": -87.7071842, "tags": {"addr:city": "Chicago", "addr:housenumber": "2631", "addr:postcode": "60647", "addr:state": "IL", "addr:street": "North Kedzie Avenue", "amenity": "cafe", "cuisine": "coffee_shop", "name": "Passion House Caf\u00e9", "website": "https://www.passionhousecoffee.com"}}, {"type": "node", "id": 3649631221, "lat": 41.9316589, "lon": -87.7124643, "tags": {"amenity": "restaurant", "cuisine": "chinese", "name": "Van Phat"}}, {"type": "node", "id": 3649643207, "lat": 41.9325547, "lon": -87.7128675, "tags": {"amenity": "restaurant", "cuisine": "pizza", "name": "Dante's Pizzeria"}}, {"type": "node", "id": 3649650842, "lat": 41.9390585, "lon": -87.711587, "tags": {"amenity": "restaurant", "cuisine": "chinese", "name": "Eat First"}}, {"type": "node", "id": 3649684145, "lat": 41.9394821, "lon": -87.7038124, "tags": {"amenity": "restaurant", "cuisine": "chicken", "name": "Mr. Pollo"}}, {"type": "node", "id": 3649687382, "lat": 41.9392432, "lon": -87.7034485, "tags": {"addr:city": "Chicago", "addr:housenumber": "3017", "addr:postcode": "60618", "addr:state": "IL", "addr:street": "West Belmont Avenue", "amenity": "bar", "name": "Reed's Local", "phone": "+1-872-806-0520"}}, {"type": "node", "id": 3649687383, "lat": 41.9392689, "lon": -87.6976471, "tags": {"amenity": "restaurant", "name": "Jaiyen Sushi & Noodle"}}, {"type": "node", "id": 3649689183, "lat": 41.9405258, "lon": -87.7001999, "tags": {"amenity": "restaurant", "cuisine": "romanian", "name": "Nelly's Saloon"}}, {"type": "node", "id": 3660417021, "lat": 41.931227, "lon": -87.7103111, "tags": {"amenity": "restaurant", "name": "D'Noche"}}, {"type": "node", "id": 3814460048, "lat": 41.9319324, "lon": -87.7035762, "tags": {"amenity": "cafe", "name": "Cellar Door Provisions"}}, {"type": "node", "id": 3815731446, "lat": 41.9277537, "lon": -87.7067896, "tags": {"amenity": "cafe", "name": "Johnny's Grill"}}, {"type": "node", "id": 3819127811, "lat": 41.9319651, "lon": -87.7003362, "tags": {"amenity": "restaurant", "cuisine": "mexican", "name": "Las Islas Marias"}}, {"type": "node", "id": 3819140676, "lat": 41.9319622, "lon": -87.701037, "tags": {"amenity": "restaurant", "cuisine": "ecuadorean", "name": "Restaurant Ecuador"}}, {"type": "node", "id": 3847814498, "lat": 41.9254204, "lon": -87.7016774, "tags": {"amenity": "bar", "name": "Black Lion"}}, {"type": "node", "id": 4303032344, "lat": 41.9319581, "lon": -87.70231, "tags": {"addr:city": "Chicago", "addr:housenumber": "2957", "addr:postcode": "60647", "addr:state": "IL", "addr:street": "West Diversey Avenue", "amenity": "bar", "name": "The Ladies Room", "phone": "+1-773-661-9170", "website": "http://www.eatfatrice.com/"}}, {"type": "node", "id": 4354344660, "lat": 41.9257031, "lon": -87.7021781, "tags": {"addr:city": "Chicago", "addr:housenumber": "2450", "addr:postcode": "60647", "addr:state": "IL", "addr:street": "North Milwaukee Avenue", "amenity": "bar", "name": "Estereo", "opening_hours": "Mo-Su 12:00-02:00", "phone": "+1-773-360-8363", "website": "https://www.estereochicago.com"}}, {"type": "node", "id": 5759671055, "lat": 41.9309154, "lon": -87.7101777, "tags": {"addr:city": "Chicago", "addr:housenumber": "2727", "addr:postcode": "60647", "addr:state": "IL", "addr:street": "North Milwaukee Avenue", "amenity": "bar", "brewery": "yes", "name": "The Walk In Chicago", "opening_hours": "Mo-Fr 17:00-02:00; Sa 12:00-03:00; Su 12:00-02:00", "outdoor_seating": "yes", "phone": "+1-773-227-7033", "smoking": "no", "website": "https://www.thewalkinchicago.com"}}, {"type": "node", "id": 5871141430, "lat": 41.9271493, "lon": -87.7040125, "tags": {"addr:city": "Chicago", "addr:housenumber": "2515", "addr:postcode": "60647", "addr:state": "IL", "addr:street": "North Milwaukee Avenue", "amenity": "restaurant", "description": "The kitchen is open until 1 a.m. daily.", "name": "Bixi Beer", "opening_hours": "Mo-Su 16:00-02:00", "outdoor_seating": "yes", "phone": "+1-773-904-7368", "smoking": "no", "website": "https://www.bixi.beer/"}}, {"type": "node", "id": 5916842248, "lat": 41.9322708, "lon": -87.7035248, "tags": {"addr:city": "Chicago", "addr:housenumber": "3022", "addr:postcode": "60647", "addr:state": "IL", "addr:street": "West Diversey Avenue", "amenity": "cafe", "name": "Four Letter Word", "phone": "+1-773-360-8932", "website": "http://www.4lwcoffee.com/"}}, {"type": "node", "id": 5931489285, "lat": 41.9273867, "lon": -87.7042553, "tags": {"addr:city": "Chicago", "addr:housenumber": "2529", "addr:postcode": "60647", "addr:state": "IL", "addr:street": "North Milwaukee Avenue", "amenity": "restaurant", "cuisine": "cuban", "name": "Taste of Havana", "phone": "+1-312-273-1774", "website": "http://www.tasteofhavana.net"}}, {"type": "node", "id": 6251978296, "lat": 41.9254643, "lon": -87.7012475, "tags": {"addr:city": "Chicago", "addr:housenumber": "2427", "addr:postcode": "60647", "addr:state": "IL", "addr:street": "North Milwaukee Avenue", "amenity": "restaurant", "name": "The Whale"}}, {"type": "node", "id": 6263855094, "lat": 41.9390654, "lon": -87.6982113, "tags": {"addr:city": "Chicago", "addr:housenumber": "3188", "addr:postcode": "60618", "addr:state": "IL", "addr:street": "North Elston Avenue", "amenity": "restaurant", "name": "B\u2019el Bar + Kitchen", "phone": "+1-872-241-9032", "website": "https://www.belchicago.com/"}}, {"type": "node", "id": 6267271605, "lat": 41.9277357, "lon": -87.7065045, "tags": {"addr:city": "Chicago", "addr:housenumber": "3143", "addr:postcode": "60647", "addr:state": "IL", "addr:street": "West Logan Boulevard", "amenity": "bar", "name": "Billy Sunday", "phone": "+1-773-661-2485", "website": "https://www.billy-sunday.com/"}}, {"type": "node", "id": 6269892237, "lat": 41.9267506, "lon": -87.7032326, "tags": {"addr:city": "Chicago", "addr:housenumber": "2489", "addr:postcode": "60647", "addr:state": "IL", "addr:street": "North Milwaukee Avenue", "amenity": "cafe", "name": "Caf\u00e9 Tola", "phone": "+1-773-687-9310"}}, {"type": "node", "id": 6280584751, "lat": 41.9319324, "lon": -87.7035762, "tags": {"addr:city": "Chicago", "addr:housenumber": "3025", "addr:postcode": "60647", "addr:state": "IL", "addr:street": "West Diversey Avenue", "amenity": "restaurant", "name": "Cellar Door Provisions", "phone": "+1-773-697-8337", "website": "https://www.cellardoorprovisions.com/"}}, {"type": "node", "id": 6282566260, "lat": 41.931393, "lon": -87.7115622, "tags": {"addr:city": "Chicago", "addr:housenumber": "2770", "addr:postcode": "60647", "addr:state": "IL", "addr:street": "North Milwaukee Avenue", "amenity": "restaurant", "name": "Chiya Chai Cafe", "phone": "+1-773-360-7541", "website": "https://www.chiyachai.com/"}}, {"type": "node", "id": 6284066021, "lat": 41.9273063, "lon": -87.7041162, "tags": {"addr:city": "Chicago", "addr:housenumber": "2523", "addr:postcode": "60647", "addr:state": "IL", "addr:street": "North Milwaukee Avenue", "amenity": "restaurant", "name": "Daisies", "phone": "+1-773-661-1671", "website": "https://www.daisieschicago.com/"}}, {"type": "node", "id": 6284507622, "lat": 41.9391728, "lon": -87.6997382, "tags": {"addr:city": "Chicago", "addr:housenumber": "2849", "addr:postcode": "60618", "addr:state": "IL", "addr:street": "West Belmont Avenue", "amenity": "bar", "name": "DMen Tap", "phone": "+1-773-961-8757", "website": "http://www.dmentap.com/"}}, {"type": "node", "id": 6294625891, "lat": 41.9312206, "lon": -87.7113891, "tags": {"addr:city": "Chicago", "addr:housenumber": "2760", "addr:postcode": "60647", "addr:state": "IL", "addr:street": "North Milwaukee Avenue", "amenity": "bar", "name": "Hopewell Brewing Company", "phone": "+1-773-698-6178", "website": "http://www.hopewellbrewing.com/"}}, {"type": "node", "id": 6297571063, "lat": 41.9298873, "lon": -87.7072225, "tags": {"addr:city": "Chicago", "addr:housenumber": "2651", "addr:postcode": "60647", "addr:state": "IL", "addr:street": "North Kedzie Avenue", "amenity": "restaurant", "name": "Same Day Cafe", "phone": "+1-773-342-7040", "website": "http://www.samedaycafe.com/"}}, {"type": "node", "id": 6299456746, "lat": 41.925907, "lon": -87.7017482, "tags": {"addr:city": "Chicago", "addr:housenumber": "2451", "addr:postcode": "60647", "addr:state": "IL", "addr:street": "North Milwaukee Avenue", "amenity": "restaurant", "cuisine": "pizza", "name": "Paulie Gee's", "phone": "+1-773-360-1072", "website": "https://pauliegee.com/"}}, {"type": "node", "id": 6300449137, "lat": 41.9392348, "lon": -87.6974398, "tags": {"addr:city": "Chicago", "addr:housenumber": "2755", "addr:postcode": "60618", "addr:state": "IL", "addr:street": "West Belmont Avenue", "amenity": "restaurant", "name": "Pisolino", "phone": "+1-773-293-6025", "website": "http://pisolinochicago.com/"}}, {"type": "node", "id": 6301180417, "lat": 41.9313998, "lon": -87.7114512, "tags": {"addr:city": "Chicago", "addr:housenumber": "2766", "addr:postcode": "60647", "addr:state": "IL", "addr:street": "North Milwaukee Avenue", "amenity": "restaurant", "name": "RYUU Asian BBQ & Sushi", "phone": "+1-773-661-1919", "website": "https://www.ryuubbq.com/"}}, {"type": "node", "id": 6301185685, "lat": 41.9306627, "lon": -87.7096689, "tags": {"addr:city": "Chicago", "addr:housenumber": "2715", "addr:postcode": "60647", "addr:state": "IL", "addr:street": "North Milwaukee Avenue", "amenity": "restaurant", "name": "SABA Italian Bar + Kitchen", "phone": "+1-773-697-9273", "website": "https://www.sabaitalian.com/"}}, {"type": "node", "id": 6304083691, "lat": 41.9391867, "lon": -87.6975419, "tags": {"addr:city": "Chicago", "addr:housenumber": "3185", "addr:postcode": "60618", "addr:state": "IL", "addr:street": "North Elston Avenue", "amenity": "cafe", "name": "The Avondale Coffee Club", "phone": "+1-773-754-8140", "website": "https://www.avondalecoffeeclub.com/"}}, {"type": "node", "id": 6305257154, "lat": 41.9388637, "lon": -87.6972279, "tags": {"addr:city": "Chicago", "addr:housenumber": "3173", "addr:postcode": "60618", "addr:state": "IL", "addr:street": "North Elston Avenue", "amenity": "bar", "name": "The Beer Temple", "phone": "+1-773-754-0907", "website": "http://craftbeertemple.com/blog/"}}, {"type": "node", "id": 6306627384, "lat": 41.9274189, "lon": -87.7041962, "tags": {"addr:city": "Chicago", "addr:housenumber": "2529", "addr:postcode": "60647", "addr:state": "IL", "addr:street": "North Milwaukee Avenue", "amenity": "restaurant", "name": "The Crab Pad", "phone": "+1-773-360-8332", "website": "https://www.thecrabpad.com/"}}, {"type": "node", "id": 6306928757, "lat": 41.9258426, "lon": -87.7016794, "tags": {"addr:city": "Chicago", "addr:housenumber": "2445", "addr:postcode": "60647", "addr:state": "IL", "addr:street": "North Milwaukee Avenue", "amenity": "restaurant", "name": "Twain", "phone": "+1-773-697-8463", "website": "https://www.twainchicago.com/"}}, {"type": "node", "id": 6314882497, "lat": 41.9336022, "lon": -87.707152, "tags": {"addr:city": "Chicago", "addr:housenumber": "2853", "addr:postcode": "60647", "addr:state": "IL", "addr:street": "North Kedzie Avenue", "amenity": "restaurant", "name": "JAM", "phone": "+1-773-292-6011", "website": "https://www.jamrestaurant.com/"}}, {"type": "node", "id": 6315665351, "lat": 41.925319, "lon": -87.7008542, "tags": {"addr:city": "Chicago", "addr:housenumber": "2417", "addr:postcode": "60647", "addr:state": "IL", "addr:street": "North Milwaukee Avenue", "amenity": "bar", "name": "The Native", "phone": "+1-872-206-5526", "website": "https://www.thenativechicago.com/"}}, {"type": "node", "id": 6315688215, "lat": 41.9273281, "lon": -87.7039893, "tags": {"addr:city": "Chicago", "addr:housenumber": "2521", "addr:postcode": "60647", "addr:state": "IL", "addr:street": "North Milwaukee Avenue", "amenity": "bar", "name": "The Owl", "phone": "+1-773-235-5300", "website": "http://owlbarchicago.com/"}}, {"type": "node", "id": 6319886955, "lat": 41.9277512, "lon": -87.706066, "tags": {"addr:city": "Chicago", "addr:housenumber": "3129", "addr:postcode": "60647", "addr:state": "IL", "addr:street": "West Logan Boulevard", "amenity": "restaurant", "name": "La Boulangerie", "phone": "+1-773-666-5880", "website": "http://www.laboulangeriechicago.com/"}}, {"type": "node", "id": 6320612692, "lat": 41.9300695, "lon": -87.7071164, "tags": {"addr:city": "Chicago", "addr:housenumber": "2657", "addr:postcode": "60647", "addr:state": "IL", "addr:street": "North Kedzie Avenue", "amenity": "restaurant", "name": "Longman & Eagle", "phone": "+1-773-276-7110", "website": "http://www.longmanandeagle.com/"}}, {"type": "node", "id": 6320677445, "lat": 41.935612, "lon": -87.69751, "tags": {"addr:city": "Chicago", "addr:housenumber": "2959", "addr:postcode": "60618", "addr:state": "IL", "addr:street": "North California Avenue", "amenity": "bar", "name": "Ludlow Liquors", "phone": "+1-773-754-7492", "website": "https://www.ludlow-liquors.com/"}}, {"type": "node", "id": 6322584582, "lat": 41.9277163, "lon": -87.706427, "tags": {"addr:city": "Chicago", "addr:housenumber": "3137", "addr:postcode": "60647", "addr:state": "IL", "addr:street": "West Logan Boulevard", "amenity": "restaurant", "cuisine": "american", "name": "Merchant", "phone": "+1-773-687-8822", "website": "https://www.merchantchicago.com/"}}, {"type": "node", "id": 6322602685, "lat": 41.9289091, "lon": -87.6977086, "tags": {"addr:city": "Chicago", "addr:housenumber": "2800", "addr:postcode": "60647", "addr:state": "IL", "addr:street": "West Logan Boulevard", "amenity": "restaurant", "cuisine": "mexican", "name": "Mi Tocaya Antojer\u00eda", "opening_hours": "Tu-Th 17:00-22:00; Fr-Sa 17:00-23:00; Su 17:00-21:00", "phone": "+1-872-315-3947", "website": "http://www.mitocaya.com"}}, {"type": "node", "id": 6322769552, "lat": 41.934803, "lon": -87.7164307, "tags": {"addr:city": "Chicago", "addr:housenumber": "2937", "addr:postcode": "60618", "addr:state": "IL", "addr:street": "North Milwaukee Avenue", "amenity": "bar", "name": "Moe\u2019s Tavern", "phone": "+1-773-227-2937"}}, {"type": "node", "id": 6323066697, "lat": 41.9405281, "lon": -87.7002989, "tags": {"addr:city": "Chicago", "addr:housenumber": "3256", "addr:postcode": "60618", "addr:state": "IL", "addr:street": "North Elston Avenue", "amenity": "bar", "name": "Nelly\u2019s Saloon", "phone": "+1-773-588-4494"}}, {"type": "node", "id": 6324382907, "lat": 41.9276471, "lon": -87.6977733, "tags": {"addr:city": "Chicago", "addr:housenumber": "2532", "addr:postcode": "60647", "addr:state": "IL", "addr:street": "North California Avenue", "amenity": "restaurant", "name": "Landbirds", "phone": "+1-773-697-7107", "website": "http://www.landbirdschicago.com/"}}, {"type": "node", "id": 6326194251, "lat": 41.9300975, "lon": -87.7071662, "tags": {"addr:city": "Chicago", "addr:housenumber": "2657", "addr:postcode": "60647", "addr:state": "IL", "addr:street": "North Kedzie Avenue", "amenity": "bar", "name": "Off Site Bar", "phone": "+1-773-276-7110", "website": "http://www.longmanandeagle.com/blog/2013/02/soon/"}}, {"type": "node", "id": 6407204547, "lat": 41.9279706, "lon": -87.7047558, "tags": {"addr:city": "Chicago", "addr:housenumber": "3057", "addr:postcode": "60647", "addr:state": "IL", "addr:street": "West Logan Boulevard", "amenity": "restaurant", "name": "Mini Mott", "opening_hours": "Tu-Su 11:00-22:00", "website": "https://www.minimott.com/"}}, {"type": "node", "id": 6610493967, "lat": 41.9319096, "lon": -87.7048257, "tags": {"addr:city": "Chicago", "addr:housenumber": "3059", "addr:postcode": "60647", "addr:state": "IL", "addr:street": "West Diversey Avenue", "amenity": "restaurant", "cuisine": "indian", "name": "Superkhana International", "phone": "+1-773-661-9028", "website": "https://superkhanachicago.com"}}, {"type": "node", "id": 6955522307, "lat": 41.9427233, "lon": -87.6933402}, {"type": "node", "id": 6955522338, "lat": 41.944547, "lon": -87.6914964}, {"type": "node", "id": 6955522339, "lat": 41.9445432, "lon": -87.6921235}, {"type": "node", "id": 6955522345, "lat": 41.9436637, "lon": -87.6921836}, {"type": "node", "id": 6955522346, "lat": 41.9438043, "lon": -87.6920938}, {"type": "node", "id": 6955522589, "lat": 41.9433808, "lon": -87.6929422}, {"type": "node", "id": 6970050101, "lat": 41.9426566, "lon": -87.6932905}, {"type": "node", "id": 6970050102, "lat": 41.9417606, "lon": -87.6930081}, {"type": "node", "id": 6970050103, "lat": 41.9417148, "lon": -87.6930102}, {"type": "node", "id": 6970050104, "lat": 41.9416698, "lon": -87.6930058}, {"type": "node", "id": 6970050106, "lat": 41.9407922, "lon": -87.6922262}, {"type": "node", "id": 6970050107, "lat": 41.9408668, "lon": -87.6928247}, {"type": "node", "id": 6970050108, "lat": 41.9410748, "lon": -87.6929849}, {"type": "node", "id": 6970050109, "lat": 41.9426895, "lon": -87.693315}, {"type": "node", "id": 6970050125, "lat": 41.9425108, "lon": -87.6908109}, {"type": "node", "id": 6970050126, "lat": 41.9407985, "lon": -87.6909445}, {"type": "node", "id": 6970050143, "lat": 41.9407926, "lon": -87.6921474}, {"type": "node", "id": 6970050165, "lat": 41.9420199, "lon": -87.6930241}, {"type": "node", "id": 6970050176, "lat": 41.9425245, "lon": -87.6932027}, {"type": "node", "id": 6970050178, "lat": 41.9426245, "lon": -87.6932679}, {"type": "node", "id": 7202666507, "lat": 41.9302301, "lon": -87.7095424, "tags": {"addr:city": "Chicago", "addr:housenumber": "2700", "addr:postcode": "60647", "addr:state": "IL", "addr:street": "North Milwaukee Avenue", "amenity": "restaurant", "name": "The Old Plank"}}, {"type": "way", "id": 163893027, "nodes": [1755630748, 1755630828, 1755630831, 1755630754, 1755630750, 1755630784, 1755630786, 1755630752, 1755630748], "tags": {"addr:city": "Chicago", "addr:housenumber": "2657", "addr:postcode": "60647", "addr:street": "North Kedzie Avenue", "addr:street:name": "Kedzie", "addr:street:prefix": "North", "addr:street:type": "Avenue", "amenity": "restaurant", "building": "yes", "chicago:building_id": "248070", "cuisine": "american", "name": "Longman & Eagle", "phone": "+1-773-276-7110", "website": "http://www.longmanandeagle.com/"}}, {"type": "way", "id": 163893035, "nodes": [1755630510, 1755629936, 1755629943, 1755630822, 1755630825, 1755630510], "tags": {"addr:housenumber": "2658", "addr:street": "North Milwaukee Avenue", "addr:street:name": "Milwaukee", "addr:street:prefix": "North", "addr:street:type": "Avenue", "amenity": "restaurant", "building": "retail", "chicago:building_id": "870060", "cuisine": "mexican", "name": "Puebla Restaurant"}}, {"type": "way", "id": 163893589, "nodes": [1755640402, 1755640571, 1755641768, 1755641653, 1755640402], "tags": {"addr:housenumber": "2829", "addr:street": "North Milwaukee Avenue", "addr:street:name": "Milwaukee", "addr:street:prefix": "North", "addr:street:type": "Avenue", "amenity": "restaurant", "building": "yes", "building:levels": "1", "chicago:building_id": "239526", "cuisine": "mexican", "name": "Taqueria El Ranchito"}}, {"type": "way", "id": 209454505, "nodes": [2196712373, 2196713072, 2196713835, 2196713554, 2196713167, 2196712999, 2196713586, 2196712373], "tags": {"addr:city": "Chicago", "addr:housenumber": "2475", "addr:postcode": "60618", "addr:street": "North Milwaukee Avenue", "addr:street:name": "Milwaukee", "addr:street:prefix": "North", "addr:street:type": "Avenue", "amenity": "restaurant", "building": "yes", "building:levels": "1", "chicago:building_id": "258658", "cuisine": "italian", "name": "Marcello's Father & Son Restaurant", "outdoor_seating": "no", "smoking": "no", "takeaway": "yes"}}, {"type": "way", "id": 209455839, "nodes": [2196733822, 2196733985, 2196734001, 2196734010, 2196734021, 2196734036, 2196734041, 2196734046, 2196734045, 2196734040, 2196734025, 2196734049, 2196733857, 2196733822], "tags": {"addr:city": "Chicago", "addr:housenumber": "2957", "addr:postcode": "60647", "addr:state": "IL", "addr:street": "West Diversey Avenue", "addr:street:name": "Sacramento", "addr:street:prefix": "North", "addr:street:type": "Avenue", "amenity": "restaurant", "building": "yes", "chicago:building_id": "242498", "cuisine": "asian", "name": "Fat Rice", "phone": "+1-773-661-9170", "website": "http://www.eatfatrice.com"}}, {"type": "way", "id": 209455931, "nodes": [2196734852, 2196735073, 2196735074, 2196735349, 2196735348, 2196735588, 2196735590, 2196734859, 2196734852], "tags": {"addr:city": "Chicago", "addr:housenumber": "2818", "addr:street": "West Diversey Avenue", "addr:street:name": "Diversey", "addr:street:prefix": "West", "addr:street:type": "Avenue", "amenity": "restaurant", "brand": "IHOP", "brand:wikidata": "Q1185675", "brand:wikipedia": "en:IHOP", "building": "yes", "building:levels": "1", "chicago:building_id": "240772", "cuisine": "breakfast;pancake", "delivery": "no", "name": "IHOP"}}, {"type": "way", "id": 209465036, "nodes": [2196790368, 2196790640, 2196790727, 2196790730, 2196790368], "tags": {"addr:city": "Chicago", "addr:housenumber": "3361", "addr:postcode": "60618", "addr:state": "IL", "addr:street": "North Elston Avenue", "addr:street:name": "Elston", "addr:street:prefix": "North", "addr:street:type": "Avenue", "amenity": "restaurant", "building": "retail", "chicago:building_id": "197335", "name": "Honey Butter Fried Chicken", "outdoor_seating": "yes", "phone": "+1-773-478-4000", "smoking": "no", "toilets:wheelchair": "yes", "website": "https://www.honeybutter.com/", "wheelchair": "yes"}}, {"type": "way", "id": 254362318, "nodes": [2393685997, 6955522589, 3567139344, 3555057622, 3555057623, 3555057614, 6955522307, 6970050109, 6970050101, 6970050178, 3555057613, 6970050176, 3555057612, 3555057611, 3555057610, 6970050165, 3555057609, 6970050102, 6970050103, 6970050104, 2601552516, 6970050108, 2601552515, 2601552514, 6970050107, 2601552513, 2601552511, 2601552510, 6970050106, 6970050143, 6970050126, 2601552512, 2601552517, 6970050125, 3555057608, 2393667680, 2393667751, 2404188173, 6955522338, 6955522339, 6955522346, 6955522345, 2393686008, 2393685997], "tags": {"alt_name": "DeVry University Chicago Campus", "amenity": "university", "brand": "DeVry University", "brand:wikidata": "Q3298441", "brand:wikipedia": "en:DeVry University", "ele": "181", "gnis:county_id": "031", "gnis:created": "04/01/1999", "gnis:feature_id": "1826161", "gnis:state_id": "17", "name": "DeVry University", "short_name": "DeVry", "website": "https://www.devry.edu/about/campus-locations/illinois/chicago.html"}}]}