{"version": 0.6, "generator": "Overpass API 0.7.56.1004 6cd3eaec", "osm3s": {"timestamp_osm_base": "2020-07-22T02:11:03Z", "copyright": "The data included in this document is from www.openstreetmap.org. The data is made available under ODbL."}, "elements": [{"type": "node", "id": 1741069625, "lat": 41.8073374, "lon": -87.7427664}, {"type": "node", "id": 1741069626, "lat": 41.8073382, "lon": -87.7429263}, {"type": "node", "id": 1741069791, "lat": 41.8074817, "lon": -87.7429169}, {"type": "node", "id": 1741069858, "lat": 41.8075292, "lon": -87.7428604}, {"type": "node", "id": 1741069866, "lat": 41.8075347, "lon": -87.7427646}, {"type": "node", "id": 6282518716, "lat": 41.8076412, "lon": -87.7323151, "tags": {"addr:city": "Chicago", "addr:housenumber": "4335", "addr:postcode": "60632", "addr:state": "Il", "addr:street": "West 47th Street", "amenity": "bar", "name": "Chicago Sports Bar & Grill", "phone": "+1-773-254-1577"}}, {"type": "way", "id": 162166158, "nodes": [1741069625, 1741069626, 1741069791, 1741069858, 1741069866, 1741069625], "tags": {"addr:city": "Chicago", "addr:housenumber": "4701", "addr:postcode": "60632", "addr:state": "IL", "addr:street": "South Cicero Avenue", "addr:street:name": "Cicero", "addr:street:prefix": "South", "addr:street:type": "Avenue", "amenity": "cafe", "brand": "Starbucks", "brand:wikidata": "Q37158", "brand:wikipedia": "en:Starbucks", "building": "retail", "chicago:building_id": "863807", "cuisine": "coffee_shop", "drive_through": "yes", "name": "Starbucks", "official_name": "Starbucks Coffee", "takeaway": "yes", "website": "https://www.starbucks.com/store-locator/store/18557/47th-cicero-4701-south-cicero-avenue-chicago-il-606324807-us"}}]}