{"version": 0.6, "generator": "Overpass API 0.7.56.3 eb200aeb", "osm3s": {"timestamp_osm_base": "2020-07-17T21:20:03Z", "copyright": "The data included in this document is from www.openstreetmap.org. The data is made available under ODbL."}, "elements": [{"type": "node", "id": 2237542421, "lat": 41.6778405, "lon": -87.6659176}, {"type": "node", "id": 2237542441, "lat": 41.6777183, "lon": -87.6660123}, {"type": "node", "id": 2237542553, "lat": 41.6778237, "lon": -87.6658334}, {"type": "node", "id": 2237542563, "lat": 41.6777209, "lon": -87.6657296}, {"type": "node", "id": 2237542619, "lat": 41.677581, "lon": -87.6658071}, {"type": "node", "id": 2237542678, "lat": 41.6778337, "lon": -87.6659709}, {"type": "node", "id": 2237542821, "lat": 41.6777899, "lon": -87.6657388}, {"type": "node", "id": 2237542864, "lat": 41.6777272, "lon": -87.6657612}, {"type": "node", "id": 2237542950, "lat": 41.6776732, "lon": -87.6657741}, {"type": "node", "id": 2237542987, "lat": 41.6776292, "lon": -87.6660482}, {"type": "node", "id": 2237543006, "lat": 41.6776681, "lon": -87.6657485}, {"type": "node", "id": 2237543041, "lat": 41.6778098, "lon": -87.6658384}, {"type": "node", "id": 2237543095, "lat": 41.6778242, "lon": -87.6659234}, {"type": "node", "id": 2237543130, "lat": 41.6777241, "lon": -87.6660412}, {"type": "node", "id": 2237543174, "lat": 41.6776661, "lon": -87.666035}, {"type": "node", "id": 2237543196, "lat": 41.6776712, "lon": -87.6660602}, {"type": "node", "id": 2934234439, "lat": 41.6921699, "lon": -87.6814947, "tags": {"amenity": "restaurant", "cuisine": "pizza", "name": "Leona's Restaurant", "smoking": "no", "website": "http://www.leonas.com/"}}, {"type": "node", "id": 2934234440, "lat": 41.6920635, "lon": -87.6814651, "tags": {"amenity": "bar", "name": "O'Rourkes Office", "smoking": "no", "website": "https://orourkesoffice.webs.com/"}}, {"type": "node", "id": 2934234441, "lat": 41.691957, "lon": -87.6818417, "tags": {"amenity": "restaurant", "cuisine": "pizza", "name": "Waldo Cooney's Pizza", "smoking": "no", "website": "https://waldocooneyspizza.com/"}}, {"type": "node", "id": 2934234443, "lat": 41.6907439, "lon": -87.6813817, "tags": {"amenity": "bar", "name": "McNally's", "opening_hours": "12:00-02:00", "smoking": "no"}}, {"type": "node", "id": 5792395879, "lat": 41.6943819, "lon": -87.6814747, "tags": {"addr:city": "Chicago", "addr:housenumber": "10934", "addr:postcode": "60643", "addr:state": "IL", "addr:street": "South Western Avenue", "amenity": "bar", "name": "Open Outcry Brewing Company", "phone": "+1-773-629-6055", "website": "http://openoutcrybrewing.com/"}}, {"type": "node", "id": 6284336366, "lat": 41.6778605, "lon": -87.6713226, "tags": {"addr:city": "Chicago", "addr:housenumber": "11869", "addr:postcode": "60643", "addr:state": "IL", "addr:street": "South Vincennes Avenue", "amenity": "bar", "name": "Declan\u2019s Irish Pub", "phone": "+1-312-642-5522", "website": "http://declansirishpub.com/"}}, {"type": "node", "id": 6301099098, "lat": 41.6778456, "lon": -87.6712981, "tags": {"addr:city": "Chicago", "addr:housenumber": "11869", "addr:postcode": "60643", "addr:state": "IL", "addr:street": "South Vincennes Avenue", "amenity": "bar", "name": "Rucker Cigar Lounge", "phone": "+1-773-941-5167", "website": "https://www.ruckercigar.com/"}}, {"type": "node", "id": 6571058566, "lat": 41.6833861, "lon": -87.6812436, "tags": {"amenity": "restaurant", "name": "Beverly Woods"}}, {"type": "way", "id": 214153388, "nodes": [2237542987, 2237542619, 2237542950, 2237543006, 2237542563, 2237542864, 2237542821, 2237543041, 2237542553, 2237542421, 2237543095, 2237542678, 2237542441, 2237543130, 2237543196, 2237543174, 2237542987], "tags": {"addr:city": "Chicago", "addr:housenumber": "1750", "addr:postcode": "60643", "addr:state": "IL", "addr:street": "West 119th Street", "amenity": "restaurant", "brand": "Chili's", "brand:wikidata": "Q1072948", "brand:wikipedia": "en:Chili's", "building": "retail", "cuisine": "tex-mex", "name": "Chili's", "official_name": "Chili's Grill & Bar", "website": "https://www.chilis.com/"}}]}